[{"id":"285049","name":"Al Lubban al Gharbī","ascii_name":"Al Lubban al Gharbi","lat":"32.03504","lon":"35.03928","country":"PS","lastUpdated":"2020-06-10","type":{"class":"P","code":"PPL"},"region":{"a1":"WE"},"meta":{"pop":"1456","dem":"284","tz":"Asia/Hebron"}},{"id":"285061","name":"Al Khaḑir","ascii_name":"Al Khadir","lat":"31.69405","lon":"35.16685","country":"PS","lastUpdated":"2020-06-10","type":{"class":"P","code":"PPL"},"region":{"a1":"WE","a2":"7870463"},"meta":{"pop":"9003","dem":"828","tz":"Asia/Hebron"}},{"id":"285066","name":"Hebron","ascii_name":"Hebron","lat":"31.52935","lon":"35.0938","country":"PS","lastUpdated":"2019-09-05","type":{"class":"P","code":"PPLA2"},"region":{"a1":"WE","a2":"7870658"},"meta":{"pop":"160470","dem":"903","tz":"Asia/Hebron"}},{"id":"285069","name":"Al Judayrah","ascii_name":"Al Judayrah","lat":"31.85587","lon":"35.19706","country":"PS","lastUpdated":"2012-02-28","type":{"class":"P","code":"PPL"},"region":{"a1":"WE"},"meta":{"pop":"2059","dem":"731","tz":"Asia/Hebron"}},{"id":"285070","name":"Al Jīb","ascii_name":"Al Jib","lat":"31.85203","lon":"35.18451","country":"PS","lastUpdated":"2012-02-28","type":{"class":"P","code":"PPL"},"region":{"a1":"WE"},"meta":{"pop":"4505","dem":"749","tz":"Asia/Hebron"}},{"id":"285071","name":"Al Jāniyah","ascii_name":"Al Janiyah","lat":"31.93848","lon":"35.12142","country":"PS","lastUpdated":"2020-06-10","type":{"class":"P","code":"PPL"},"region":{"a1":"WE"},"meta":{"pop":"1147","dem":"542","tz":"Asia/Hebron"}},{"id":"285091","name":"Al Hāshimīyah","ascii_name":"Al Hashimiyah","lat":"32.46392","lon":"35.21938","country":"PS","lastUpdated":"2012-01-18","type":{"class":"P","code":"PPL"},"region":{"a1":"WE"},"meta":{"pop":"1038","dem":"360","tz":"Asia/Hebron"}},{"id":"285101","name":"Alfe Menashe","ascii_name":"Alfe Menashe","lat":"32.17265","lon":"35.01179","country":"PS","lastUpdated":"2020-04-22","type":{"class":"P","code":"STLMT"},"region":{"a1":"WE"},"meta":{"pop":"2510","dem":"218","tz":"Asia/Hebron"}},{"id":"285102","name":"Al Faşāyil","ascii_name":"Al Fasayil","lat":"32.02509","lon":"35.44351","country":"PS","lastUpdated":"2017-09-06","type":{"class":"P","code":"PPL"},"region":{"a1":"WE","a2":"7870653"},"meta":{"pop":"1064","dem":"-251","tz":"Asia/Hebron"}},{"id":"285103","name":"Al Fandaqūmīyah","ascii_name":"Al Fandaqumiyah","lat":"32.3206","lon":"35.20329","country":"PS","lastUpdated":"2020-06-10","type":{"class":"P","code":"PPL"},"region":{"a1":"WE","a2":"7828733"},"meta":{"pop":"3266","dem":"455","tz":"Asia/Hebron"}},{"id":"285108","name":"Al Bīrah","ascii_name":"Al Birah","lat":"31.91001","lon":"35.21645","country":"PS","lastUpdated":"2020-06-10","type":{"class":"P","code":"PPL"},"region":{"a1":"WE","a2":"7870657"},"meta":{"pop":"38192","dem":"852","tz":"Asia/Hebron"}},{"id":"285111","name":"Al ‘Ayzarīyah","ascii_name":"Al `Ayzariyah","lat":"31.77078","lon":"35.26917","country":"PS","lastUpdated":"2020-06-10","type":{"class":"P","code":"PPL"},"region":{"a1":"WE","a2":"7870654"},"meta":{"pop":"17455","dem":"566","tz":"Asia/Hebron"}},{"id":"285112","name":"Al ‘Awjā","ascii_name":"Al `Awja","lat":"31.95069","lon":"35.46756","country":"PS","lastUpdated":"2017-09-06","type":{"class":"P","code":"PPL"},"region":{"a1":"WE","a2":"7870653"},"meta":{"pop":"4067","dem":"-241","tz":"Asia/Hebron"}},{"id":"285113","name":"Al ‘Aţţārah","ascii_name":"Al `Attarah","lat":"32.32571","lon":"35.16373","country":"PS","lastUpdated":"2012-01-18","type":{"class":"P","code":"PPL"},"region":{"a1":"WE"},"meta":{"pop":"1145","dem":"360","tz":"Asia/Hebron"}},{"id":"285126","name":"‘Ajjūl","ascii_name":"`Ajjul","lat":"32.02232","lon":"35.17969","country":"PS","lastUpdated":"2012-01-18","type":{"class":"P","code":"PPL"},"region":{"a1":"WE"},"meta":{"pop":"1220","dem":"495","tz":"Asia/Hebron"}},{"id":"285127","name":"‘Ajjah","ascii_name":"`Ajjah","lat":"32.36074","lon":"35.1959","country":"PS","lastUpdated":"2018-04-28","type":{"class":"P","code":"PPL"},"region":{"a1":"WE"},"meta":{"pop":"4995","dem":"352","tz":"Asia/Hebron"}},{"id":"285161","name":"‘Ibwayn","ascii_name":"`Ibwayn","lat":"32.03144","lon":"35.19992","country":"PS","lastUpdated":"2012-01-18","type":{"class":"P","code":"PPL"},"region":{"a1":"WE"},"meta":{"pop":"3077","dem":"674","tz":"Asia/Hebron"}},{"id":"285220","name":"Abū Qashsh","ascii_name":"Abu Qashsh","lat":"31.94883","lon":"35.18426","country":"PS","lastUpdated":"2012-01-18","type":{"class":"P","code":"PPL"},"region":{"a1":"WE"},"meta":{"pop":"1385","dem":"763","tz":"Asia/Hebron"}},{"id":"285279","name":"Abū Dīs","ascii_name":"Abu Dis","lat":"31.76215","lon":"35.26166","country":"PS","lastUpdated":"2020-03-11","type":{"class":"P","code":"PPL"},"region":{"a1":"WE","a2":"7870654"},"meta":{"pop":"11753","dem":"641","tz":"Asia/Hebron"}},{"id":"285285","name":"‘Ābūd","ascii_name":"`Abud","lat":"32.01637","lon":"35.06833","country":"PS","lastUpdated":"2012-01-18","type":{"class":"P","code":"PPL"},"region":{"a1":"WE"},"meta":{"pop":"2056","dem":"422","tz":"Asia/Hebron"}},{"id":"6945291","name":"Old City","ascii_name":"Old City","lat":"31.77667","lon":"35.23417","country":"PS","cc2":"IL,PS","lastUpdated":"2016-02-22","type":{"class":"P","code":"PPLX"},"region":{"a1":"WE"},"meta":{"pop":"36000","elv":"760","dem":"738","tz":"Asia/Hebron"}},{"id":"6967857","name":"An Naşr","ascii_name":"An Nasr","lat":"31.28137","lon":"34.30253","country":"PS","lastUpdated":"2020-06-12","type":{"class":"P","code":"PPL"},"region":{"a1":"GZ","a2":"7870260"},"meta":{"pop":"6211","dem":"62","tz":"Asia/Gaza"}},{"id":"6967863","name":"‘Abasān al Jadīdah","ascii_name":"`Abasan al Jadidah","lat":"31.34158","lon":"34.34592","country":"PS","lastUpdated":"2012-01-20","type":{"class":"P","code":"PPL"},"region":{"a1":"00"},"meta":{"pop":"5984","dem":"82","tz":"Asia/Gaza"}},{"id":"6967865","name":"Al Qarārah","ascii_name":"Al Qararah","lat":"31.37389","lon":"34.34085","country":"PS","lastUpdated":"2020-06-12","type":{"class":"P","code":"PPL"},"region":{"a1":"GZ","a2":"7871092"},"meta":{"pop":"19500","dem":"40","tz":"Asia/Gaza"}},{"id":"6967877","name":"Umm an Naşr","ascii_name":"Umm an Nasr","lat":"31.56085","lon":"34.51863","country":"PS","lastUpdated":"2020-06-12","type":{"class":"P","code":"PPL"},"region":{"a1":"GZ","a2":"7870263"},"meta":{"pop":"2763","dem":"35","tz":"Asia/Gaza"}},{"id":"6967895","name":"Juḩr ad Dīk","ascii_name":"Juhr ad Dik","lat":"31.45571","lon":"34.43719","country":"PS","lastUpdated":"2020-06-12","type":{"class":"P","code":"PPL"},"region":{"a1":"GZ","a2":"11184609"},"meta":{"pop":"2880","dem":"48","tz":"Asia/Gaza"}},{"id":"6967990","name":"Az Zuwāydah","ascii_name":"Az Zuwaydah","lat":"31.43954","lon":"34.38053","country":"PS","lastUpdated":"2020-06-12","type":{"class":"P","code":"PPL"},"region":{"a1":"GZ"},"meta":{"pop":"16688","dem":"34","tz":"Asia/Gaza"}},{"id":"6968050","name":"Al Muşaddar","ascii_name":"Al Musaddar","lat":"31.41052","lon":"34.37802","country":"PS","lastUpdated":"2020-06-12","type":{"class":"P","code":"PPL"},"region":{"a1":"GZ","a2":"7870268"},"meta":{"pop":"1845","dem":"42","tz":"Asia/Gaza"}},{"id":"6968055","name":"Wādī as Salqā","ascii_name":"Wadi as Salqa","lat":"31.40048","lon":"34.33754","country":"PS","lastUpdated":"2017-09-05","type":{"class":"P","code":"PPL"},"region":{"a1":"GZ","a2":"7870268"},"meta":{"pop":"4552","dem":"30","tz":"Asia/Gaza"}},{"id":"6968063","name":"Al Mughrāqah","ascii_name":"Al Mughraqah","lat":"31.46587","lon":"34.41208","country":"PS","lastUpdated":"2017-09-05","type":{"class":"P","code":"PPL"},"region":{"a1":"GZ","a2":"11184609"},"meta":{"pop":"6448","dem":"14","tz":"Asia/Gaza"}},{"id":"7303419","name":"East Jerusalem","ascii_name":"East Jerusalem","lat":"31.78336","lon":"35.23388","country":"PS","lastUpdated":"2019-03-24","type":{"class":"P","code":"PPLX"},"region":{"a1":"WE","a2":"7870654"},"meta":{"pop":"428304","dem":"759","tz":"Asia/Hebron"}},{"id":"7535657","name":"Karney Shomron","ascii_name":"Karney Shomron","lat":"32.1714","lon":"35.09767","country":"PS","cc2":"IL","lastUpdated":"2021-04-28","type":{"class":"P","code":"PPLA2"},"region":{"a1":"WE"},"meta":{"pop":"0","dem":"352","tz":"Asia/Hebron"}},{"id":"7870669","name":"al-Kum","ascii_name":"al-Kum","lat":"31.53123","lon":"34.96064","country":"PS","lastUpdated":"2016-12-10","type":{"class":"P","code":"PPL"},"region":{"a1":"WE","a2":"7870658"},"meta":{"pop":"2568","dem":"432","tz":"Asia/Hebron"}},{"id":"7871005","name":"Azun Atme","ascii_name":"Azun Atme","lat":"32.12167","lon":"35.02036","country":"PS","lastUpdated":"2017-09-05","type":{"class":"P","code":"PPL"},"region":{"a1":"WE","a2":"7870649"},"meta":{"pop":"1746","dem":"165","tz":"Asia/Hebron"}},{"id":"7889501","name":"Jinşāfūţ","ascii_name":"Jinsafut","lat":"32.17916","lon":"35.13038","country":"PS","lastUpdated":"2017-09-05","type":{"class":"P","code":"PPL"},"region":{"a1":"WE","a2":"7870649"},"meta":{"pop":"2089","dem":"435","tz":"Asia/Hebron"}},{"id":"7889665","name":"Banī Zayd","ascii_name":"Bani Zayd","lat":"32.03924","lon":"35.10316","country":"PS","lastUpdated":"2012-01-21","type":{"class":"P","code":"PPL"},"region":{"a1":"00"},"meta":{"pop":"5441","dem":"480","tz":"Asia/Hebron"}},{"id":"7890119","name":"Az Za‘ayyim","ascii_name":"Az Za`ayyim","lat":"31.78852","lon":"35.26511","country":"PS","lastUpdated":"2012-01-21","type":{"class":"P","code":"PPL"},"region":{"a1":"00"},"meta":{"pop":"3373","dem":"656","tz":"Asia/Hebron"}},{"id":"7890350","name":"Al ‘Ubaydīyah","ascii_name":"Al `Ubaydiyah","lat":"31.71697","lon":"35.29007","country":"PS","lastUpdated":"2012-01-21","type":{"class":"P","code":"PPL"},"region":{"a1":"00"},"meta":{"pop":"10618","dem":"508","tz":"Asia/Hebron"}},{"id":"7890353","name":"Khallat an Nu‘mān","ascii_name":"Khallat an Nu`man","lat":"31.71749","lon":"35.24227","country":"PS","lastUpdated":"2012-01-21","type":{"class":"P","code":"PPL"},"region":{"a1":"00"},"meta":{"pop":"1397","dem":"621","tz":"Asia/Hebron"}},{"id":"7890366","name":"Khallat Ḩamāmah","ascii_name":"Khallat Hamamah","lat":"31.7216","lon":"35.19243","country":"PS","lastUpdated":"2017-09-06","type":{"class":"P","code":"PPL"},"region":{"a1":"WE","a2":"7870463"},"meta":{"pop":"1397","dem":"757","tz":"Asia/Hebron"}},{"id":"7890368","name":"Ad Dawḩah","ascii_name":"Ad Dawhah","lat":"31.69948","lon":"35.18047","country":"PS","lastUpdated":"2017-09-06","type":{"class":"P","code":"PPL"},"region":{"a1":"WE","a2":"7870463"},"meta":{"pop":"9631","dem":"838","tz":"Asia/Hebron"}},{"id":"7890385","name":"Wādī Raḩḩāl","ascii_name":"Wadi Rahhal","lat":"31.66516","lon":"35.16727","country":"PS","lastUpdated":"2012-01-21","type":{"class":"P","code":"PPL"},"region":{"a1":"00"},"meta":{"pop":"1401","dem":"911","tz":"Asia/Hebron"}},{"id":"7890393","name":"‘Arab ar Rashāydah","ascii_name":"`Arab ar Rashaydah","lat":"31.57112","lon":"35.23227","country":"PS","lastUpdated":"2012-01-21","type":{"class":"P","code":"PPL"},"region":{"a1":"00"},"meta":{"pop":"1435","dem":"599","tz":"Asia/Hebron"}},{"id":"7890813","name":"Bayt ‘Īnūn","ascii_name":"Bayt `Inun","lat":"31.5587","lon":"35.1244","country":"PS","lastUpdated":"2012-01-21","type":{"class":"P","code":"PPL"},"region":{"a1":"00"},"meta":{"pop":"1782","dem":"967","tz":"Asia/Hebron"}},{"id":"7890843","name":"Bayt Maqdum","ascii_name":"Bayt Maqdum","lat":"31.53537","lon":"34.97192","country":"PS","lastUpdated":"2016-12-10","type":{"class":"P","code":"PPL"},"region":{"a1":"WE","a2":"7870658"},"meta":{"pop":"2568","dem":"456","tz":"Asia/Hebron"}},{"id":"7890844","name":"Al Buq‘ah","ascii_name":"Al Buq`ah","lat":"31.54199","lon":"35.14279","country":"PS","lastUpdated":"2012-01-21","type":{"class":"P","code":"PPL"},"region":{"a1":"00"},"meta":{"pop":"1200","dem":"975","tz":"Asia/Hebron"}},{"id":"7890846","name":"Khallat ad Dār","ascii_name":"Khallat ad Dar","lat":"31.49737","lon":"35.11362","country":"PS","lastUpdated":"2012-01-21","type":{"class":"P","code":"PPL"},"region":{"a1":"00"},"meta":{"pop":"2153","dem":"880","tz":"Asia/Hebron"}},{"id":"7890847","name":"Dayr Sāmit","ascii_name":"Dayr Samit","lat":"31.52057","lon":"34.97442","country":"PS","lastUpdated":"2020-06-12","type":{"class":"P","code":"PPL"},"region":{"a1":"00"},"meta":{"pop":"6144","dem":"445","tz":"Asia/Hebron"}},{"id":"7891142","name":"Al Ḩīlah","ascii_name":"Al Hilah","lat":"31.47454","lon":"35.10742","country":"PS","lastUpdated":"2012-01-21","type":{"class":"P","code":"PPL"},"region":{"a1":"00"},"meta":{"pop":"1258","dem":"790","tz":"Asia/Hebron"}},{"id":"7891144","name":"Aş Şūrrah","ascii_name":"As Surrah","lat":"31.47097","lon":"34.99897","country":"PS","lastUpdated":"2012-01-21","type":{"class":"P","code":"PPL"},"region":{"a1":"00"},"meta":{"pop":"1896","dem":"829","tz":"Asia/Hebron"}},{"id":"7891283","name":"Bayt ‘Amrah","ascii_name":"Bayt `Amrah","lat":"31.4502","lon":"35.04952","country":"PS","lastUpdated":"2018-02-21","type":{"class":"P","code":"PPL"},"region":{"a1":"WE"},"meta":{"pop":"2133","dem":"717","tz":"Asia/Hebron"}},{"id":"7891506","name":"Rābūd","ascii_name":"Rabud","lat":"31.43909","lon":"35.0162","country":"PS","lastUpdated":"2018-02-21","type":{"class":"P","code":"PPL"},"region":{"a1":"WE"},"meta":{"pop":"2228","dem":"662","tz":"Asia/Hebron"}},{"id":"7891511","name":"Al Karmil","ascii_name":"Al Karmil","lat":"31.42301","lon":"35.13278","country":"PS","lastUpdated":"2018-02-21","type":{"class":"P","code":"PPL"},"region":{"a1":"WE"},"meta":{"pop":"3685","dem":"822","tz":"Asia/Hebron"}},{"id":"7891512","name":"Khallat Şāliḩ","ascii_name":"Khallat Salih","lat":"31.42013","lon":"35.11516","country":"PS","lastUpdated":"2012-01-21","type":{"class":"P","code":"PPL"},"region":{"a1":"00"},"meta":{"pop":"1077","dem":"770","tz":"Asia/Hebron"}},{"id":"7895292","name":"Bīr al Bāshā","ascii_name":"Bir al Basha","lat":"32.42022","lon":"35.23013","country":"PS","lastUpdated":"2018-02-21","type":{"class":"P","code":"PPL"},"region":{"a1":"WE","a2":"7828733"},"meta":{"pop":"1291","dem":"268","tz":"Asia/Hebron"}},{"id":"7895641","name":"Al Bādhān","ascii_name":"Al Badhan","lat":"32.25857","lon":"35.33247","country":"PS","lastUpdated":"2012-01-21","type":{"class":"P","code":"PPL"},"region":{"a1":"00"},"meta":{"pop":"2458","dem":"104","tz":"Asia/Hebron"}},{"id":"7896869","name":"‘Ayn al Bayḑā","ascii_name":"`Ayn al Bayda","lat":"32.38051","lon":"35.50838","country":"PS","lastUpdated":"2012-01-21","type":{"class":"P","code":"PPL"},"region":{"a1":"00"},"meta":{"pop":"1145","dem":"-171","tz":"Asia/Hebron"}},{"id":"7897890","name":"Az Zubaydāt","ascii_name":"Az Zubaydat","lat":"32.1733","lon":"35.53005","country":"PS","lastUpdated":"2012-01-21","type":{"class":"P","code":"PPL"},"region":{"a1":"00"},"meta":{"pop":"1403","dem":"-261","tz":"Asia/Hebron"}},{"id":"7898046","name":"Al Jiftlik","ascii_name":"Al Jiftlik","lat":"32.1407","lon":"35.48738","country":"PS","lastUpdated":"2017-09-06","type":{"class":"P","code":"PPL"},"region":{"a1":"WE","a2":"7870653"},"meta":{"pop":"3666","dem":"-246","tz":"Asia/Hebron"}},{"id":"7915400","name":"Khursā","ascii_name":"Khursa","lat":"31.48232","lon":"35.01742","country":"PS","lastUpdated":"2020-06-12","type":{"class":"P","code":"PPL"},"region":{"a1":"00"},"meta":{"pop":"3388","dem":"844","tz":"Asia/Hebron"}},{"id":"8199386","name":"Givat Zeev","ascii_name":"Givat Zeev","lat":"31.86145","lon":"35.16861","country":"PS","cc2":"IL","lastUpdated":"2021-07-27","type":{"class":"P","code":"PPL"},"region":{"a1":"WE"},"meta":{"pop":"11764","elv":"770","dem":"754","tz":"Asia/Hebron"}},{"id":"8199420","name":"Oranit","ascii_name":"Oranit","lat":"32.13165","lon":"34.99094","country":"PS","cc2":"IL","lastUpdated":"2021-07-27","type":{"class":"P","code":"PPL"},"region":{"a1":"WE"},"meta":{"pop":"6205","elv":"140","dem":"128","tz":"Asia/Hebron"}},{"id":"11778032","name":"Itamar","ascii_name":"Itamar","lat":"32.17474","lon":"35.30941","country":"PS","lastUpdated":"2021-07-27","type":{"class":"P","code":"PPL"},"region":{"a1":"WE"},"meta":{"pop":"1238","dem":"686","tz":"Asia/Hebron"}},{"id":"11979628","name":"Alon shvut","ascii_name":"Alon shvut","lat":"31.65483","lon":"35.12587","country":"PS","lastUpdated":"2020-04-21","type":{"class":"P","code":"STLMT"},"region":{"a1":"WE"},"meta":{"pop":"3151","dem":"963","tz":"Asia/Hebron"}},{"id":"11979645","name":"Bruchin","ascii_name":"Bruchin","lat":"32.08191","lon":"35.08994","country":"PS","lastUpdated":"2020-04-23","type":{"class":"P","code":"STLMT"},"region":{"a1":"WE"},"meta":{"pop":"1093","dem":"397","tz":"Asia/Hebron"}},{"id":"11979646","name":"Geva Binyamin","ascii_name":"Geva Binyamin","lat":"31.85031","lon":"35.27405","country":"PS","lastUpdated":"2020-04-23","type":{"class":"P","code":"STLMT"},"region":{"a1":"WE"},"meta":{"pop":"5525","dem":"661","tz":"Asia/Hebron"}},{"id":"11979770","name":"Otniel","ascii_name":"Otniel","lat":"31.43932","lon":"35.02859","country":"PS","lastUpdated":"2020-11-10","type":{"class":"P","code":"STLMT"},"region":{"a1":"WE"},"meta":{"pop":"1037","dem":"713","tz":"Asia/Hebron"}},{"id":"12156437","name":"Beit El","ascii_name":"Beit El","lat":"31.94153","lon":"35.22241","country":"PS","lastUpdated":"2020-04-22","type":{"class":"P","code":"PPL"},"region":{"a1":"WE"},"meta":{"pop":"6042","dem":"877","tz":"Asia/Hebron"}},{"id":"12156577","name":"Ganei Modi'in","ascii_name":"Ganei Modi'in","lat":"31.92892","lon":"35.01656","country":"PS","lastUpdated":"2020-04-23","type":{"class":"P","code":"PPL"},"region":{"a1":"WE"},"meta":{"pop":"2488","dem":"184","tz":"Asia/Hebron"}},{"id":"2261486","name":"Zambujeira do Mar","ascii_name":"Zambujeira do Mar","lat":"37.52799","lon":"-8.78483","country":"PT","lastUpdated":"2019-04-13","type":{"class":"P","code":"PPL"},"region":{"a1":"03","a2":"0211","a3":"021114"},"meta":{"pop":"2011","dem":"45","tz":"Europe/Lisbon"}},{"id":"2261572","name":"Vimeiro","ascii_name":"Vimeiro","lat":"39.17768","lon":"-9.31702","country":"PT","lastUpdated":"2018-03-03","type":{"class":"P","code":"PPL"},"region":{"a1":"14","a2":"1108","a3":"110808"},"meta":{"pop":"1470","dem":"32","tz":"Europe/Lisbon"}},{"id":"2261577","name":"Vila Viçosa","ascii_name":"Vila Vicosa","lat":"38.7777","lon":"-7.41793","country":"PT","lastUpdated":"2017-11-09","type":{"class":"P","code":"PPLA2"},"region":{"a1":"08","a2":"0714","a3":"071405"},"meta":{"pop":"8319","dem":"403","tz":"Europe/Lisbon"}},{"id":"2261582","name":"Vila Verde","ascii_name":"Vila Verde","lat":"39.15489","lon":"-9.11512","country":"PT","lastUpdated":"2018-06-26","type":{"class":"P","code":"PPL"},"region":{"a1":"14","a2":"1101","a3":"110114"},"meta":{"pop":"1162","dem":"189","tz":"Europe/Lisbon"}},{"id":"2261584","name":"Vila Velha de Ródão","ascii_name":"Vila Velha de Rodao","lat":"39.65646","lon":"-7.6767","country":"PT","lastUpdated":"2018-06-27","type":{"class":"P","code":"PPL"},"region":{"a1":"06","a2":"0511","a3":"051104"},"meta":{"pop":"3521","dem":"183","tz":"Europe/Lisbon"}},{"id":"2261598","name":"Vila Real de Santo António","ascii_name":"Vila Real de Santo Antonio","lat":"37.195","lon":"-7.41766","country":"PT","lastUpdated":"2018-05-01","type":{"class":"P","code":"PPLA2"},"region":{"a1":"09","a2":"0816","a3":"081602"},"meta":{"pop":"11560","dem":"9","tz":"Europe/Lisbon"}},{"id":"2261617","name":"Vila Nova de Milfontes","ascii_name":"Vila Nova de Milfontes","lat":"37.72377","lon":"-8.78278","country":"PT","lastUpdated":"2012-01-17","type":{"class":"P","code":"PPL"},"region":{"a1":"03","a2":"0211","a3":"021111"},"meta":{"pop":"4393","dem":"22","tz":"Europe/Lisbon"}},{"id":"2261620","name":"Vila Nova da Barquinha","ascii_name":"Vila Nova da Barquinha","lat":"39.46081","lon":"-8.43588","country":"PT","lastUpdated":"2018-05-23","type":{"class":"P","code":"PPLA2"},"region":{"a1":"18","a2":"1407","a3":"140707"},"meta":{"pop":"7322","dem":"39","tz":"Europe/Lisbon"}},{"id":"2261639","name":"Vila Franca de Xira","ascii_name":"Vila Franca de Xira","lat":"38.95525","lon":"-8.98966","country":"PT","lastUpdated":"2014-04-06","type":{"class":"P","code":"PPLA2"},"region":{"a1":"14","a2":"1114","a3":"111409"},"meta":{"pop":"18355","dem":"15","tz":"Europe/Lisbon"}},{"id":"2261643","name":"Vila Flor","ascii_name":"Vila Flor","lat":"41.30904","lon":"-7.15378","country":"PT","lastUpdated":"2018-07-04","type":{"class":"P","code":"PPLA2"},"region":{"a1":"05","a2":"0410","a3":"041017"},"meta":{"pop":"0","dem":"560","tz":"Europe/Lisbon"}},{"id":"2261648","name":"Vila do Bispo","ascii_name":"Vila do Bispo","lat":"37.08317","lon":"-8.91144","country":"PT","lastUpdated":"2018-06-27","type":{"class":"P","code":"PPLA2"},"region":{"a1":"09","a2":"0815","a3":"081505"},"meta":{"pop":"1000","dem":"81","tz":"Europe/Lisbon"}},{"id":"2261649","name":"Vila de Rei","ascii_name":"Vila de Rei","lat":"39.67604","lon":"-8.14577","country":"PT","lastUpdated":"2017-12-04","type":{"class":"P","code":"PPLA2"},"region":{"a1":"06","a2":"0510","a3":"051003"},"meta":{"pop":"3452","dem":"444","tz":"Europe/Lisbon"}},{"id":"2261654","name":"Vila Chã de Ourique","ascii_name":"Vila Cha de Ourique","lat":"39.17219","lon":"-8.76658","country":"PT","lastUpdated":"2018-07-04","type":{"class":"P","code":"PPL"},"region":{"a1":"18","a2":"1406","a3":"140607"},"meta":{"pop":"2771","dem":"66","tz":"Europe/Lisbon"}},{"id":"2261658","name":"Vila Baleira","ascii_name":"Vila Baleira","lat":"33.05919","lon":"-16.33371","country":"PT","lastUpdated":"2017-10-19","type":{"class":"P","code":"PPLA2"},"region":{"a1":"10","a2":"3201","a3":"320101"},"meta":{"pop":"0","dem":"11","tz":"Atlantic/Madeira"}},{"id":"2261673","name":"Vieira de Leiria","ascii_name":"Vieira de Leiria","lat":"39.86945","lon":"-8.93238","country":"PT","lastUpdated":"2012-01-17","type":{"class":"P","code":"PPL"},"region":{"a1":"13","a2":"1010","a3":"101002"},"meta":{"pop":"5807","dem":"50","tz":"Europe/Lisbon"}},{"id":"2261675","name":"Vidigueira","ascii_name":"Vidigueira","lat":"38.20995","lon":"-7.8005","country":"PT","lastUpdated":"2018-04-30","type":{"class":"P","code":"PPLA2"},"region":{"a1":"03","a2":"0214","a3":"021403"},"meta":{"pop":"5932","dem":"211","tz":"Europe/Lisbon"}},{"id":"2261687","name":"Vidais","ascii_name":"Vidais","lat":"39.36886","lon":"-9.04916","country":"PT","lastUpdated":"2018-07-05","type":{"class":"P","code":"PPL"},"region":{"a1":"13","a2":"1006","a3":"100615"},"meta":{"pop":"1155","dem":"94","tz":"Europe/Lisbon"}},{"id":"2261694","name":"Viana do Alentejo","ascii_name":"Viana do Alentejo","lat":"38.33458","lon":"-8.0044","country":"PT","lastUpdated":"2014-04-06","type":{"class":"P","code":"PPLA2"},"region":{"a1":"08","a2":"0713","a3":"071302"},"meta":{"pop":"0","dem":"249","tz":"Europe/Lisbon"}},{"id":"2261697","name":"Vialonga","ascii_name":"Vialonga","lat":"38.87206","lon":"-9.07805","country":"PT","lastUpdated":"2018-01-15","type":{"class":"P","code":"PPL"},"region":{"a1":"14","a2":"1114","a3":"111411"},"meta":{"pop":"16088","dem":"49","tz":"Europe/Lisbon"}},{"id":"2261698","name":"Vestiaria","ascii_name":"Vestiaria","lat":"39.55271","lon":"-8.9979","country":"PT","lastUpdated":"2018-05-23","type":{"class":"P","code":"PPL"},"region":{"a1":"13","a2":"1001","a3":"100115"},"meta":{"pop":"1258","dem":"168","tz":"Europe/Lisbon"}},{"id":"2261732","name":"Ventosa","ascii_name":"Ventosa","lat":"39.12696","lon":"-9.08423","country":"PT","lastUpdated":"2012-08-04","type":{"class":"P","code":"PPL"},"region":{"a1":"14","a2":"1101","a3":"110113"},"meta":{"pop":"5215","dem":"133","tz":"Europe/Lisbon"}},{"id":"2261740","name":"Vendas Novas","ascii_name":"Vendas Novas","lat":"38.67706","lon":"-8.45792","country":"PT","lastUpdated":"2014-04-06","type":{"class":"P","code":"PPLA2"},"region":{"a1":"08","a2":"0712","a3":"071201"},"meta":{"pop":"11248","dem":"148","tz":"Europe/Lisbon"}},{"id":"2261760","name":"Venda do Pinheiro","ascii_name":"Venda do Pinheiro","lat":"38.92365","lon":"-9.23178","country":"PT","lastUpdated":"2018-07-04","type":{"class":"P","code":"PPL"},"region":{"a1":"14","a2":"1109","a3":"110916"},"meta":{"pop":"4950","dem":"263","tz":"Europe/Lisbon"}},{"id":"2262092","name":"Vale de Santarém","ascii_name":"Vale de Santarem","lat":"39.19052","lon":"-8.72735","country":"PT","lastUpdated":"2018-05-21","type":{"class":"P","code":"PPL"},"region":{"a1":"18","a2":"1416","a3":"141625"},"meta":{"pop":"2920","dem":"26","tz":"Europe/Lisbon"}},{"id":"2262189","name":"Vale de Figueira","ascii_name":"Vale de Figueira","lat":"39.30569","lon":"-8.62876","country":"PT","lastUpdated":"2018-06-15","type":{"class":"P","code":"PPL"},"region":{"a1":"18","a2":"1416","a3":"141624"},"meta":{"pop":"2000","dem":"58","tz":"Europe/Lisbon"}},{"id":"2262373","name":"Vale da Amoreira","ascii_name":"Vale da Amoreira","lat":"39.06969","lon":"-7.69849","country":"PT","lastUpdated":"2018-12-04","type":{"class":"P","code":"PPL"},"region":{"a1":"16","a2":"1208","a3":"120802"},"meta":{"pop":"10828","dem":"207","tz":"Europe/Lisbon"}},{"id":"2262432","name":"Valado de Frades","ascii_name":"Valado de Frades","lat":"39.58432","lon":"-9.0229","country":"PT","lastUpdated":"2018-05-23","type":{"class":"P","code":"PPL"},"region":{"a1":"13","a2":"1011","a3":"101103"},"meta":{"pop":"3109","dem":"23","tz":"Europe/Lisbon"}},{"id":"2262461","name":"Urra","ascii_name":"Urra","lat":"39.2283","lon":"-7.39856","country":"PT","lastUpdated":"2011-09-04","type":{"class":"P","code":"PPLA3"},"region":{"a1":"16","a2":"1214","a3":"121410"},"meta":{"pop":"0","dem":"411","tz":"Europe/Lisbon"}},{"id":"2262465","name":"Unhos","ascii_name":"Unhos","lat":"38.81958","lon":"-9.12007","country":"PT","lastUpdated":"2018-01-31","type":{"class":"P","code":"PPL"},"region":{"a1":"14","a2":"1107","a3":"110717"},"meta":{"pop":"10712","dem":"109","tz":"Europe/Lisbon"}},{"id":"2262478","name":"Turquel","ascii_name":"Turquel","lat":"39.46411","lon":"-8.97743","country":"PT","lastUpdated":"2016-03-10","type":{"class":"P","code":"PPL"},"region":{"a1":"13","a2":"1001","a3":"100114"},"meta":{"pop":"4434","dem":"201","tz":"Europe/Lisbon"}},{"id":"2262481","name":"Tunes","ascii_name":"Tunes","lat":"37.16592","lon":"-8.25919","country":"PT","lastUpdated":"2017-11-09","type":{"class":"P","code":"PPL"},"region":{"a1":"09","a2":"0813","a3":"081302"},"meta":{"pop":"2002","dem":"64","tz":"Europe/Lisbon"}},{"id":"2262540","name":"Tramagal","ascii_name":"Tramagal","lat":"39.45","lon":"-8.25","country":"PT","lastUpdated":"2012-01-17","type":{"class":"P","code":"PPL"},"region":{"a1":"18","a2":"1401","a3":"140115"},"meta":{"pop":"3821","dem":"84","tz":"Europe/Lisbon"}},{"id":"2262544","name":"Trafaria","ascii_name":"Trafaria","lat":"38.67222","lon":"-9.23268","country":"PT","lastUpdated":"2012-02-01","type":{"class":"P","code":"PPL"},"region":{"a1":"19","a2":"1503","a3":"150305"},"meta":{"pop":"5603","dem":"12","tz":"Europe/Lisbon"}},{"id":"2262581","name":"Torres Vedras","ascii_name":"Torres Vedras","lat":"39.09109","lon":"-9.2586","country":"PT","lastUpdated":"2014-04-06","type":{"class":"P","code":"PPLA2"},"region":{"a1":"14","a2":"1113","a3":"111315"},"meta":{"pop":"24443","dem":"41","tz":"Europe/Lisbon"}},{"id":"2262582","name":"Torres Novas","ascii_name":"Torres Novas","lat":"39.47581","lon":"-8.54348","country":"PT","lastUpdated":"2019-02-18","type":{"class":"P","code":"PPLA2"},"region":{"a1":"18","a2":"1419","a3":"141912"},"meta":{"pop":"15002","dem":"72","tz":"Europe/Lisbon"}},{"id":"2262644","name":"Tomar","ascii_name":"Tomar","lat":"39.60199","lon":"-8.40924","country":"PT","lastUpdated":"2018-02-10","type":{"class":"P","code":"PPLA2"},"region":{"a1":"18","a2":"1418","a3":"141811"},"meta":{"pop":"19168","dem":"55","tz":"Europe/Lisbon"}},{"id":"2262687","name":"Terrugem","ascii_name":"Terrugem","lat":"38.70647","lon":"-9.28693","country":"PT","lastUpdated":"2018-07-04","type":{"class":"P","code":"PPL"},"region":{"a1":"14","a2":"1110","a3":"111005"},"meta":{"pop":"4693","dem":"87","tz":"Europe/Lisbon"}},{"id":"2262744","name":"Tavira","ascii_name":"Tavira","lat":"37.12734","lon":"-7.64861","country":"PT","lastUpdated":"2018-08-24","type":{"class":"P","code":"PPLA2"},"region":{"a1":"09","a2":"0814","a3":"081405"},"meta":{"pop":"15133","dem":"9","tz":"Europe/Lisbon"}},{"id":"2262815","name":"Souto da Carpalhosa","ascii_name":"Souto da Carpalhosa","lat":"39.84867","lon":"-8.83506","country":"PT","lastUpdated":"2018-02-14","type":{"class":"P","code":"PPL"},"region":{"a1":"13","a2":"1009","a3":"100924"},"meta":{"pop":"4130","dem":"27","tz":"Europe/Lisbon"}},{"id":"2262865","name":"Sobreda","ascii_name":"Sobreda","lat":"38.64961","lon":"-9.18977","country":"PT","lastUpdated":"2012-08-04","type":{"class":"P","code":"PPL"},"region":{"a1":"19","a2":"1503","a3":"150308"},"meta":{"pop":"11146","dem":"58","tz":"Europe/Lisbon"}},{"id":"2262867","name":"Sobralinho","ascii_name":"Sobralinho","lat":"38.91703","lon":"-9.02656","country":"PT","lastUpdated":"2018-07-04","type":{"class":"P","code":"PPL"},"region":{"a1":"14","a2":"1114","a3":"111410"},"meta":{"pop":"4453","dem":"46","tz":"Europe/Lisbon"}},{"id":"2262871","name":"Sobral de Monte Agraço","ascii_name":"Sobral de Monte Agraco","lat":"39.01958","lon":"-9.15081","country":"PT","lastUpdated":"2020-06-10","type":{"class":"P","code":"PPLA2"},"region":{"a1":"14","a2":"1112","a3":"111203"},"meta":{"pop":"3406","dem":"262","tz":"Europe/Lisbon"}},{"id":"2262912","name":"Sintra","ascii_name":"Sintra","lat":"38.80097","lon":"-9.37826","country":"PT","lastUpdated":"2021-01-26","type":{"class":"P","code":"PPLA2"},"region":{"a1":"14","a2":"1111","a3":"111109"},"meta":{"pop":"26193","dem":"197","tz":"Europe/Lisbon"}},{"id":"2262917","name":"Sines","ascii_name":"Sines","lat":"37.95622","lon":"-8.86979","country":"PT","lastUpdated":"2020-02-04","type":{"class":"P","code":"PPLA2"},"region":{"a1":"19","a2":"1513","a3":"151301"},"meta":{"pop":"12791","dem":"40","tz":"Europe/Lisbon"}},{"id":"2262926","name":"Silves","ascii_name":"Silves","lat":"37.18921","lon":"-8.43822","country":"PT","lastUpdated":"2014-04-06","type":{"class":"P","code":"PPLA2"},"region":{"a1":"09","a2":"0813","a3":"081307"},"meta":{"pop":"10917","dem":"27","tz":"Europe/Lisbon"}},{"id":"2262944","name":"Silveira","ascii_name":"Silveira","lat":"39.1112","lon":"-9.3643","country":"PT","lastUpdated":"2018-07-04","type":{"class":"P","code":"PPL"},"region":{"a1":"14","a2":"1113","a3":"111316"},"meta":{"pop":"6942","dem":"37","tz":"Europe/Lisbon"}},{"id":"2262957","name":"Sesimbra","ascii_name":"Sesimbra","lat":"38.44451","lon":"-9.10149","country":"PT","lastUpdated":"2018-04-30","type":{"class":"P","code":"PPL"},"region":{"a1":"19","a2":"1511","a3":"151102"},"meta":{"pop":"41134","dem":"26","tz":"Europe/Lisbon"}},{"id":"2262963","name":"Setúbal","ascii_name":"Setubal","lat":"38.5244","lon":"-8.8882","country":"PT","lastUpdated":"2019-09-14","type":{"class":"P","code":"PPLA"},"region":{"a1":"19","a2":"1512","a3":"151202"},"meta":{"pop":"117110","dem":"16","tz":"Europe/Lisbon"}},{"id":"2262987","name":"Sertã","ascii_name":"Serta","lat":"39.80205","lon":"-8.09589","country":"PT","lastUpdated":"2018-05-17","type":{"class":"P","code":"PPLA2"},"region":{"a1":"06","a2":"0509","a3":"050912"},"meta":{"pop":"5636","dem":"233","tz":"Europe/Lisbon"}},{"id":"2263025","name":"Serra de El-Rei","ascii_name":"Serra de El-Rei","lat":"39.33291","lon":"-9.26843","country":"PT","lastUpdated":"2018-08-24","type":{"class":"P","code":"PPL"},"region":{"a1":"13","a2":"1014","a3":"101405"},"meta":{"pop":"1401","dem":"133","tz":"Europe/Lisbon"}},{"id":"2263049","name":"Serpa","ascii_name":"Serpa","lat":"37.94581","lon":"-7.59754","country":"PT","lastUpdated":"2018-04-30","type":{"class":"P","code":"PPLA2"},"region":{"a1":"03","a2":"0213","a3":"021305"},"meta":{"pop":"6586","dem":"198","tz":"Europe/Lisbon"}},{"id":"2263071","name":"Senhora da Luz","ascii_name":"Senhora da Luz","lat":"37.08771","lon":"-8.72649","country":"PT","lastUpdated":"2017-09-16","type":{"class":"P","code":"PPL"},"region":{"a1":"09","a2":"0807","a3":"080703"},"meta":{"pop":"3545","dem":"4","tz":"Europe/Lisbon"}},{"id":"2263115","name":"Seixal","ascii_name":"Seixal","lat":"38.64008","lon":"-9.10141","country":"PT","lastUpdated":"2018-04-30","type":{"class":"P","code":"PPLA2"},"region":{"a1":"19","a2":"1510","a3":"151004"},"meta":{"pop":"2776","dem":"20","tz":"Europe/Lisbon"}},{"id":"2263166","name":"Sarilhos Pequenos","ascii_name":"Sarilhos Pequenos","lat":"38.68176","lon":"-8.98231","country":"PT","lastUpdated":"2018-03-03","type":{"class":"P","code":"PPL"},"region":{"a1":"19","a2":"1506","a3":"150605"},"meta":{"pop":"2049","dem":"9","tz":"Europe/Lisbon"}},{"id":"2263172","name":"Sardoal","ascii_name":"Sardoal","lat":"39.53449","lon":"-8.16119","country":"PT","lastUpdated":"2018-07-06","type":{"class":"P","code":"PPL"},"region":{"a1":"18","a2":"1417","a3":"141703"},"meta":{"pop":"3939","dem":"197","tz":"Europe/Lisbon"}},{"id":"2263190","name":"São Vicente do Paul","ascii_name":"Sao Vicente do Paul","lat":"39.34946","lon":"-8.62221","country":"PT","lastUpdated":"2018-06-15","type":{"class":"P","code":"PPL"},"region":{"a1":"18","a2":"1416","a3":"141622"},"meta":{"pop":"2917","dem":"20","tz":"Europe/Lisbon"}},{"id":"2263197","name":"São Vicente","ascii_name":"Sao Vicente","lat":"32.79673","lon":"-17.04323","country":"PT","lastUpdated":"2020-01-16","type":{"class":"P","code":"PPL"},"region":{"a1":"10","a2":"3110","a3":"311003"},"meta":{"pop":"6063","dem":"111","tz":"Atlantic/Madeira"}},{"id":"2263207","name":"São Teotónio","ascii_name":"Sao Teotonio","lat":"37.51282","lon":"-8.70708","country":"PT","lastUpdated":"2012-01-17","type":{"class":"P","code":"PPL"},"region":{"a1":"03","a2":"0211","a3":"021109"},"meta":{"pop":"4936","dem":"153","tz":"Europe/Lisbon"}},{"id":"2263228","name":"São Roque","ascii_name":"Sao Roque","lat":"32.66667","lon":"-16.91667","country":"PT","lastUpdated":"2018-01-11","type":{"class":"P","code":"PPL"},"region":{"a1":"10","a2":"3103","a3":"310301"},"meta":{"pop":"9385","dem":"294","tz":"Atlantic/Madeira"}},{"id":"2263245","name":"São Pedro da Cadeira","ascii_name":"Sao Pedro da Cadeira","lat":"39.06983","lon":"-9.37174","country":"PT","lastUpdated":"2018-12-04","type":{"class":"P","code":"PPL"},"region":{"a1":"14","a2":"1113","a3":"111314"},"meta":{"pop":"4452","dem":"61","tz":"Europe/Lisbon"}},{"id":"2263262","name":"São Miguel de Rio Torto","ascii_name":"Sao Miguel de Rio Torto","lat":"39.43333","lon":"-8.21667","country":"PT","lastUpdated":"2018-05-17","type":{"class":"P","code":"PPL"},"region":{"a1":"18","a2":"1401","a3":"140112"},"meta":{"pop":"4881","dem":"143","tz":"Europe/Lisbon"}},{"id":"2263275","name":"São Martinho do Porto","ascii_name":"Sao Martinho do Porto","lat":"39.51444","lon":"-9.13111","country":"PT","lastUpdated":"2018-09-05","type":{"class":"P","code":"PPL"},"region":{"a1":"13","a2":"1001","a3":"100112"},"meta":{"pop":"2868","dem":"13","tz":"Europe/Lisbon"}},{"id":"2263284","name":"São Martinho","ascii_name":"Sao Martinho","lat":"32.6448","lon":"-16.93843","country":"PT","lastUpdated":"2018-02-09","type":{"class":"P","code":"PPL"},"region":{"a1":"10","a2":"3103","a3":"310307"},"meta":{"pop":"26482","dem":"198","tz":"Atlantic/Madeira"}},{"id":"2263286","name":"São Marcos da Serra","ascii_name":"Sao Marcos da Serra","lat":"37.361","lon":"-8.37764","country":"PT","lastUpdated":"2017-11-09","type":{"class":"P","code":"PPL"},"region":{"a1":"09","a2":"0813","a3":"081306"},"meta":{"pop":"1352","dem":"115","tz":"Europe/Lisbon"}},{"id":"2263298","name":"São Luis","ascii_name":"Sao Luis","lat":"37.71556","lon":"-8.66472","country":"PT","lastUpdated":"2018-05-16","type":{"class":"P","code":"PPL"},"region":{"a1":"03","a2":"0211","a3":"021106"},"meta":{"pop":"1006","dem":"158","tz":"Europe/Lisbon"}},{"id":"2263311","name":"São Julião","ascii_name":"Sao Juliao","lat":"39.32268","lon":"-7.31106","country":"PT","lastUpdated":"2011-09-04","type":{"class":"P","code":"PPLA3"},"region":{"a1":"16","a2":"1214","a3":"121407"},"meta":{"pop":"0","dem":"563","tz":"Europe/Lisbon"}},{"id":"2263320","name":"São Jorge","ascii_name":"Sao Jorge","lat":"32.81667","lon":"-16.9","country":"PT","lastUpdated":"2018-03-01","type":{"class":"P","code":"PPL"},"region":{"a1":"10","a2":"3109","a3":"310906"},"meta":{"pop":"1473","dem":"73","tz":"Atlantic/Madeira"}},{"id":"2263322","name":"São João dos Montes","ascii_name":"Sao Joao dos Montes","lat":"38.93944","lon":"-9.01892","country":"PT","lastUpdated":"2011-08-28","type":{"class":"P","code":"PPL"},"region":{"a1":"14","a2":"1114","a3":"111407"},"meta":{"pop":"4772","dem":"133","tz":"Europe/Lisbon"}},{"id":"2263326","name":"São João da Talha","ascii_name":"Sao Joao da Talha","lat":"38.82378","lon":"-9.09719","country":"PT","lastUpdated":"2018-01-29","type":{"class":"P","code":"PPL"},"region":{"a1":"14","a2":"1107","a3":"110715"},"meta":{"pop":"18925","dem":"66","tz":"Europe/Lisbon"}},{"id":"2263327","name":"São João das Lampas","ascii_name":"Sao Joao das Lampas","lat":"38.87376","lon":"-9.39842","country":"PT","lastUpdated":"2011-08-28","type":{"class":"P","code":"PPL"},"region":{"a1":"14","a2":"1111","a3":"111110"},"meta":{"pop":"10484","dem":"154","tz":"Europe/Lisbon"}},{"id":"2263352","name":"São Domingos de Rana","ascii_name":"Sao Domingos de Rana","lat":"38.70194","lon":"-9.34083","country":"PT","lastUpdated":"2018-02-13","type":{"class":"P","code":"PPL"},"region":{"a1":"14","a2":"1105","a3":"110502"},"meta":{"pop":"46718","dem":"72","tz":"Europe/Lisbon"}},{"id":"2263377","name":"São Brás de Alportel","ascii_name":"Sao Bras de Alportel","lat":"37.1531","lon":"-7.88751","country":"PT","lastUpdated":"2020-06-10","type":{"class":"P","code":"PPLA2"},"region":{"a1":"09","a2":"0812","a3":"081201"},"meta":{"pop":"11153","dem":"254","tz":"Europe/Lisbon"}},{"id":"2263393","name":"São Bartolomeu de Messines","ascii_name":"Sao Bartolomeu de Messines","lat":"37.25648","lon":"-8.28672","country":"PT","lastUpdated":"2018-02-01","type":{"class":"P","code":"PPL"},"region":{"a1":"09","a2":"0813","a3":"081305"},"meta":{"pop":"8381","dem":"132","tz":"Europe/Lisbon"}},{"id":"2263401","name":"São Bartolomeu","ascii_name":"Sao Bartolomeu","lat":"39.27511","lon":"-9.27885","country":"PT","lastUpdated":"2018-08-24","type":{"class":"P","code":"PPL"},"region":{"a1":"14","a2":"1108","a3":"110807"},"meta":{"pop":"1041","dem":"119","tz":"Europe/Lisbon"}},{"id":"2263426","name":"Santo António da Charneca","ascii_name":"Santo Antonio da Charneca","lat":"38.62561","lon":"-9.03043","country":"PT","lastUpdated":"2018-12-04","type":{"class":"P","code":"PPL"},"region":{"a1":"19","a2":"1504","a3":"150407"},"meta":{"pop":"11143","dem":"49","tz":"Europe/Lisbon"}},{"id":"2263434","name":"Santo Antão do Tojal","ascii_name":"Santo Antao do Tojal","lat":"38.85151","lon":"-9.13975","country":"PT","lastUpdated":"2012-01-17","type":{"class":"P","code":"PPL"},"region":{"a1":"14","a2":"1107","a3":"110714"},"meta":{"pop":"4156","dem":"22","tz":"Europe/Lisbon"}},{"id":"2263438","name":"Santo André","ascii_name":"Santo Andre","lat":"39.05532","lon":"-8.24414","country":"PT","lastUpdated":"2018-12-04","type":{"class":"P","code":"PPL"},"region":{"a1":"16","a2":"1213","a3":"121302"},"meta":{"pop":"11213","dem":"94","tz":"Europe/Lisbon"}},{"id":"2263439","name":"Santo André","ascii_name":"Santo Andre","lat":"38.06078","lon":"-8.7822","country":"PT","lastUpdated":"2019-09-19","type":{"class":"P","code":"PPL"},"region":{"a1":"19","a2":"1509","a3":"150907"},"meta":{"pop":"10601","dem":"32","tz":"Europe/Lisbon"}},{"id":"2263458","name":"Santiago do Cacém","ascii_name":"Santiago do Cacem","lat":"38.01693","lon":"-8.69475","country":"PT","lastUpdated":"2018-04-30","type":{"class":"P","code":"PPLA2"},"region":{"a1":"19","a2":"1509","a3":"150906"},"meta":{"pop":"7797","dem":"220","tz":"Europe/Lisbon"}},{"id":"2263480","name":"Santarém","ascii_name":"Santarem","lat":"39.23333","lon":"-8.68333","country":"PT","lastUpdated":"2012-01-17","type":{"class":"P","code":"PPLA"},"region":{"a1":"18","a2":"1416","a3":"141612"},"meta":{"pop":"29385","dem":"107","tz":"Europe/Lisbon"}},{"id":"2263491","name":"Santana","ascii_name":"Santana","lat":"32.8","lon":"-16.88333","country":"PT","lastUpdated":"2012-01-17","type":{"class":"P","code":"PPL"},"region":{"a1":"10","a2":"3109","a3":"310903"},"meta":{"pop":"8804","dem":"492","tz":"Atlantic/Madeira"}},{"id":"2263508","name":"Santa Margarida da Coutada","ascii_name":"Santa Margarida da Coutada","lat":"39.45","lon":"-8.31667","country":"PT","lastUpdated":"2018-07-06","type":{"class":"P","code":"PPL"},"region":{"a1":"18","a2":"1408","a3":"140803"},"meta":{"pop":"1788","dem":"125","tz":"Europe/Lisbon"}},{"id":"2263518","name":"Santa Luzia","ascii_name":"Santa Luzia","lat":"37.10224","lon":"-7.66202","country":"PT","lastUpdated":"2017-09-16","type":{"class":"P","code":"PPL"},"region":{"a1":"09","a2":"0814","a3":"081408"},"meta":{"pop":"1455","dem":"10","tz":"Europe/Lisbon"}},{"id":"2263523","name":"Santa Iria da Azóia","ascii_name":"Santa Iria da Azoia","lat":"38.8411","lon":"-9.09908","country":"PT","lastUpdated":"2018-05-16","type":{"class":"P","code":"PPL"},"region":{"a1":"14","a2":"1107","a3":"110713"},"meta":{"pop":"18573","dem":"108","tz":"Europe/Lisbon"}},{"id":"2263540","name":"Santa Cruz","ascii_name":"Santa Cruz","lat":"32.68806","lon":"-16.79388","country":"PT","lastUpdated":"2019-09-10","type":{"class":"P","code":"PPL"},"region":{"a1":"10","a2":"3108","a3":"310805"},"meta":{"pop":"6010","dem":"22","tz":"Atlantic/Madeira"}},{"id":"2263547","name":"Santa Catarina da Serra","ascii_name":"Santa Catarina da Serra","lat":"39.6796","lon":"-8.68679","country":"PT","lastUpdated":"2012-01-17","type":{"class":"P","code":"PPL"},"region":{"a1":"13","a2":"1009","a3":"100922"},"meta":{"pop":"4405","dem":"338","tz":"Europe/Lisbon"}},{"id":"2263558","name":"Santa Bárbara de Nexe","ascii_name":"Santa Barbara de Nexe","lat":"37.10619","lon":"-7.96648","country":"PT","lastUpdated":"2012-08-04","type":{"class":"P","code":"PPL"},"region":{"a1":"09","a2":"0805","a3":"080503"},"meta":{"pop":"4087","dem":"162","tz":"Europe/Lisbon"}},{"id":"2263584","name":"Samouco","ascii_name":"Samouco","lat":"38.72035","lon":"-9.00471","country":"PT","lastUpdated":"2018-07-04","type":{"class":"P","code":"PPL"},"region":{"a1":"19","a2":"1502","a3":"150202"},"meta":{"pop":"3143","dem":"11","tz":"Europe/Lisbon"}},{"id":"2263586","name":"Samora Correia","ascii_name":"Samora Correia","lat":"38.93709","lon":"-8.87178","country":"PT","lastUpdated":"2018-07-04","type":{"class":"P","code":"PPL"},"region":{"a1":"18","a2":"1405","a3":"140502"},"meta":{"pop":"14154","dem":"10","tz":"Europe/Lisbon"}},{"id":"2263596","name":"Salvaterra de Magos","ascii_name":"Salvaterra de Magos","lat":"39.02788","lon":"-8.7935","country":"PT","lastUpdated":"2014-04-06","type":{"class":"P","code":"PPLA2"},"region":{"a1":"18","a2":"1415","a3":"141504"},"meta":{"pop":"5165","dem":"13","tz":"Europe/Lisbon"}},{"id":"2263600","name":"Salvada","ascii_name":"Salvada","lat":"37.93771","lon":"-7.77448","country":"PT","lastUpdated":"2018-02-12","type":{"class":"P","code":"PPL"},"region":{"a1":"03","a2":"0205","a3":"020508"},"meta":{"pop":"1352","dem":"183","tz":"Europe/Lisbon"}},{"id":"2263609","name":"Salir de Matos","ascii_name":"Salir de Matos","lat":"39.43186","lon":"-9.09479","country":"PT","lastUpdated":"2018-08-24","type":{"class":"P","code":"PPL"},"region":{"a1":"13","a2":"1006","a3":"100609"},"meta":{"pop":"2583","dem":"47","tz":"Europe/Lisbon"}},{"id":"2263650","name":"Sagres","ascii_name":"Sagres","lat":"37.00864","lon":"-8.94311","country":"PT","lastUpdated":"2012-01-17","type":{"class":"P","code":"PPL"},"region":{"a1":"09","a2":"0815","a3":"081504"},"meta":{"pop":"1939","dem":"31","tz":"Europe/Lisbon"}},{"id":"2263667","name":"Sacavém","ascii_name":"Sacavem","lat":"38.79202","lon":"-9.10801","country":"PT","lastUpdated":"2011-08-28","type":{"class":"P","code":"PPL"},"region":{"a1":"14","a2":"1107","a3":"110712"},"meta":{"pop":"17718","dem":"39","tz":"Europe/Lisbon"}},{"id":"2263732","name":"Rosairinho","ascii_name":"Rosairinho","lat":"38.67734","lon":"-9.00836","country":"PT","lastUpdated":"2018-03-03","type":{"class":"P","code":"PPL"},"region":{"a1":"19","a2":"1506","a3":"150604"},"meta":{"pop":"2377","dem":"9","tz":"Europe/Lisbon"}},{"id":"2263823","name":"Rio Maior","ascii_name":"Rio Maior","lat":"39.33732","lon":"-8.93906","country":"PT","lastUpdated":"2018-04-30","type":{"class":"P","code":"PPLA2"},"region":{"a1":"18","a2":"1414","a3":"141408"},"meta":{"pop":"12064","dem":"82","tz":"Europe/Lisbon"}},{"id":"2263827","name":"Rio de Mouro","ascii_name":"Rio de Mouro","lat":"38.76613","lon":"-9.32804","country":"PT","lastUpdated":"2018-02-14","type":{"class":"P","code":"PPL"},"region":{"a1":"14","a2":"1111","a3":"111108"},"meta":{"pop":"54695","dem":"121","tz":"Europe/Lisbon"}},{"id":"2263905","name":"Ribeira Brava","ascii_name":"Ribeira Brava","lat":"32.67483","lon":"-17.06288","country":"PT","lastUpdated":"2018-03-01","type":{"class":"P","code":"PPL"},"region":{"a1":"10","a2":"3107","a3":"310702"},"meta":{"pop":"5932","dem":"25","tz":"Atlantic/Madeira"}},{"id":"2263923","name":"Riachos","ascii_name":"Riachos","lat":"39.44472","lon":"-8.5142","country":"PT","lastUpdated":"2018-07-04","type":{"class":"P","code":"PPL"},"region":{"a1":"18","a2":"1419","a3":"141910"},"meta":{"pop":"5463","dem":"42","tz":"Europe/Lisbon"}},{"id":"2263974","name":"Reguengos de Monsaraz","ascii_name":"Reguengos de Monsaraz","lat":"38.42529","lon":"-7.53494","country":"PT","lastUpdated":"2014-04-06","type":{"class":"P","code":"PPLA2"},"region":{"a1":"08","a2":"0711","a3":"071104"},"meta":{"pop":"7217","dem":"218","tz":"Europe/Lisbon"}},{"id":"2263982","name":"Reguengo","ascii_name":"Reguengo","lat":"39.29801","lon":"-7.39234","country":"PT","lastUpdated":"2011-09-04","type":{"class":"P","code":"PPLA3"},"region":{"a1":"16","a2":"1214","a3":"121405"},"meta":{"pop":"0","dem":"604","tz":"Europe/Lisbon"}},{"id":"2264009","name":"Redondo","ascii_name":"Redondo","lat":"38.64872","lon":"-7.54708","country":"PT","lastUpdated":"2014-04-06","type":{"class":"P","code":"PPLA2"},"region":{"a1":"08","a2":"0710","a3":"071002"},"meta":{"pop":"5845","dem":"298","tz":"Europe/Lisbon"}},{"id":"2264087","name":"Ramada","ascii_name":"Ramada","lat":"38.80368","lon":"-9.1877","country":"PT","lastUpdated":"2018-02-14","type":{"class":"P","code":"PPL"},"region":{"a1":"14","a2":"1116","a3":"111607"},"meta":{"pop":"17535","dem":"134","tz":"Europe/Lisbon"}},{"id":"2264169","name":"Quinta do Anjo","ascii_name":"Quinta do Anjo","lat":"38.56753","lon":"-8.94228","country":"PT","lastUpdated":"2012-01-17","type":{"class":"P","code":"PPL"},"region":{"a1":"19","a2":"1508","a3":"150804"},"meta":{"pop":"9124","dem":"94","tz":"Europe/Lisbon"}},{"id":"2264268","name":"Queluz","ascii_name":"Queluz","lat":"38.75657","lon":"-9.25451","country":"PT","lastUpdated":"2020-07-15","type":{"class":"P","code":"PPL"},"region":{"a1":"14","a2":"1111","a3":"111107"},"meta":{"pop":"103399","dem":"125","tz":"Europe/Lisbon"}},{"id":"2264270","name":"Queijas","ascii_name":"Queijas","lat":"38.71925","lon":"-9.26255","country":"PT","lastUpdated":"2019-01-13","type":{"class":"P","code":"PPLA3"},"region":{"a1":"14","a2":"1110","a3":"111010"},"meta":{"pop":"8828","elv":"94","dem":"99","tz":"Europe/Lisbon"}},{"id":"2264299","name":"Quarteira","ascii_name":"Quarteira","lat":"37.06946","lon":"-8.10064","country":"PT","lastUpdated":"2012-01-17","type":{"class":"P","code":"PPL"},"region":{"a1":"09","a2":"0808","a3":"080805"},"meta":{"pop":"18783","dem":"23","tz":"Europe/Lisbon"}},{"id":"2264314","name":"Proença-a-Nova","ascii_name":"Proenca-a-Nova","lat":"39.7522","lon":"-7.9239","country":"PT","lastUpdated":"2014-04-06","type":{"class":"P","code":"PPLA2"},"region":{"a1":"06","a2":"0508","a3":"050804"},"meta":{"pop":"4590","dem":"464","tz":"Europe/Lisbon"}},{"id":"2264330","name":"Praia do Ribatejo","ascii_name":"Praia do Ribatejo","lat":"39.46667","lon":"-8.35","country":"PT","lastUpdated":"2018-03-06","type":{"class":"P","code":"PPL"},"region":{"a1":"18","a2":"1420","a3":"142002"},"meta":{"pop":"1702","dem":"45","tz":"Europe/Lisbon"}},{"id":"2264341","name":"Pragal","ascii_name":"Pragal","lat":"38.67459","lon":"-9.16981","country":"PT","lastUpdated":"2012-08-04","type":{"class":"P","code":"PPL"},"region":{"a1":"19","a2":"1503","a3":"150307"},"meta":{"pop":"7701","dem":"96","tz":"Europe/Lisbon"}},{"id":"2264351","name":"Póvoa e Meadas","ascii_name":"Povoa e Meadas","lat":"39.51046","lon":"-7.51765","country":"PT","lastUpdated":"2011-09-04","type":{"class":"P","code":"PPLA3"},"region":{"a1":"16","a2":"1205","a3":"120501"},"meta":{"pop":"0","dem":"335","tz":"Europe/Lisbon"}},{"id":"2264357","name":"Póvoa de Santo Adrião","ascii_name":"Povoa de Santo Adriao","lat":"38.8","lon":"-9.16667","country":"PT","lastUpdated":"2018-07-04","type":{"class":"P","code":"PPL"},"region":{"a1":"14","a2":"1116","a3":"111606"},"meta":{"pop":"14897","dem":"51","tz":"Europe/Lisbon"}},{"id":"2264359","name":"Póvoa de Santa Iria","ascii_name":"Povoa de Santa Iria","lat":"38.86101","lon":"-9.06453","country":"PT","lastUpdated":"2020-06-10","type":{"class":"P","code":"PPL"},"region":{"a1":"14","a2":"1114","a3":"111406"},"meta":{"pop":"28901","dem":"18","tz":"Europe/Lisbon"}},{"id":"2264403","name":"Porto Salvo","ascii_name":"Porto Salvo","lat":"38.72293","lon":"-9.30473","country":"PT","lastUpdated":"2018-08-31","type":{"class":"P","code":"PPL"},"region":{"a1":"14","a2":"1110","a3":"111009"},"meta":{"pop":"13867","dem":"99","tz":"Europe/Lisbon"}},{"id":"2264412","name":"Porto Moniz","ascii_name":"Porto Moniz","lat":"32.86681","lon":"-17.16667","country":"PT","cc2":"PT","lastUpdated":"2017-09-27","type":{"class":"P","code":"PPL"},"region":{"a1":"10","a2":"3106","a3":"310602"},"meta":{"pop":"2762","dem":"24","tz":"Atlantic/Madeira"}},{"id":"2264427","name":"Porto de Mós","ascii_name":"Porto de Mos","lat":"39.60191","lon":"-8.81839","country":"PT","lastUpdated":"2014-04-06","type":{"class":"P","code":"PPLA2"},"region":{"a1":"13","a2":"1016","a3":"101611"},"meta":{"pop":"6032","dem":"136","tz":"Europe/Lisbon"}},{"id":"2264440","name":"Porto da Cruz","ascii_name":"Porto da Cruz","lat":"32.76667","lon":"-16.83333","country":"PT","lastUpdated":"2018-03-01","type":{"class":"P","code":"PPL"},"region":{"a1":"10","a2":"3104","a3":"310404"},"meta":{"pop":"2597","dem":"220","tz":"Atlantic/Madeira"}},{"id":"2264442","name":"Porto Covo","ascii_name":"Porto Covo","lat":"37.85256","lon":"-8.79018","country":"PT","lastUpdated":"2011-08-28","type":{"class":"P","code":"PPL"},"region":{"a1":"19","a2":"1513","a3":"151302"},"meta":{"pop":"1400","dem":"31","tz":"Europe/Lisbon"}},{"id":"2264456","name":"Portimão","ascii_name":"Portimao","lat":"37.13856","lon":"-8.53775","country":"PT","lastUpdated":"2018-06-05","type":{"class":"P","code":"PPL"},"region":{"a1":"09","a2":"0811","a3":"081103"},"meta":{"pop":"38487","dem":"13","tz":"Europe/Lisbon"}},{"id":"2264503","name":"Portel","ascii_name":"Portel","lat":"38.30697","lon":"-7.70244","country":"PT","lastUpdated":"2014-04-06","type":{"class":"P","code":"PPLA2"},"region":{"a1":"08","a2":"0709","a3":"070905"},"meta":{"pop":"0","dem":"297","tz":"Europe/Lisbon"}},{"id":"2264508","name":"Portalegre","ascii_name":"Portalegre","lat":"39.29379","lon":"-7.43122","country":"PT","lastUpdated":"2019-03-29","type":{"class":"P","code":"PPLA"},"region":{"a1":"16","a2":"1214","a3":"121408"},"meta":{"pop":"15581","dem":"460","tz":"Europe/Lisbon"}},{"id":"2264519","name":"Porches","ascii_name":"Porches","lat":"37.12665","lon":"-8.40162","country":"PT","lastUpdated":"2018-06-13","type":{"class":"P","code":"PPL"},"region":{"a1":"09","a2":"0806","a3":"080604"},"meta":{"pop":"2011","dem":"80","tz":"Europe/Lisbon"}},{"id":"2264526","name":"Pontinha","ascii_name":"Pontinha","lat":"38.76771","lon":"-9.19935","country":"PT","lastUpdated":"2012-01-17","type":{"class":"P","code":"PPL"},"region":{"a1":"14","a2":"1116","a3":"111605"},"meta":{"pop":"23249","dem":"98","tz":"Europe/Lisbon"}},{"id":"2264527","name":"Pontével","ascii_name":"Pontevel","lat":"39.14945","lon":"-8.8388","country":"PT","lastUpdated":"2018-07-04","type":{"class":"P","code":"PPL"},"region":{"a1":"18","a2":"1406","a3":"140604"},"meta":{"pop":"4435","dem":"54","tz":"Europe/Lisbon"}},{"id":"2264538","name":"Ponte de Sôr","ascii_name":"Ponte de Sor","lat":"39.24964","lon":"-8.01009","country":"PT","lastUpdated":"2014-04-06","type":{"class":"P","code":"PPLA2"},"region":{"a1":"16","a2":"1213","a3":"121303"},"meta":{"pop":"11062","dem":"108","tz":"Europe/Lisbon"}},{"id":"2264557","name":"Ponta do Sol","ascii_name":"Ponta do Sol","lat":"32.6798","lon":"-17.1","country":"PT","lastUpdated":"2017-09-27","type":{"class":"P","code":"PPL"},"region":{"a1":"10","a2":"3105","a3":"310503"},"meta":{"pop":"4235","dem":"76","tz":"Atlantic/Madeira"}},{"id":"2264575","name":"Pombal","ascii_name":"Pombal","lat":"39.91674","lon":"-8.62847","country":"PT","lastUpdated":"2014-04-06","type":{"class":"P","code":"PPLA2"},"region":{"a1":"13","a2":"1015","a3":"101509"},"meta":{"pop":"17355","dem":"69","tz":"Europe/Lisbon"}},{"id":"2264644","name":"Poceirão","ascii_name":"Poceirao","lat":"38.83095","lon":"-8.79365","country":"PT","lastUpdated":"2018-07-04","type":{"class":"P","code":"PPL"},"region":{"a1":"18","a2":"1405","a3":"140502"},"meta":{"pop":"4225","dem":"33","tz":"Europe/Lisbon"}},{"id":"2264691","name":"Pinheiro Grande","ascii_name":"Pinheiro Grande","lat":"39.39212","lon":"-8.4341","country":"PT","lastUpdated":"2018-05-23","type":{"class":"P","code":"PPL"},"region":{"a1":"18","a2":"1407","a3":"140703"},"meta":{"pop":"1051","dem":"46","tz":"Europe/Lisbon"}},{"id":"2264718","name":"Pinhal Novo","ascii_name":"Pinhal Novo","lat":"38.63106","lon":"-8.91376","country":"PT","lastUpdated":"2012-01-17","type":{"class":"P","code":"PPL"},"region":{"a1":"19","a2":"1508","a3":"150803"},"meta":{"pop":"23510","dem":"41","tz":"Europe/Lisbon"}},{"id":"2264736","name":"Piedade","ascii_name":"Piedade","lat":"38.67005","lon":"-9.15852","country":"PT","lastUpdated":"2018-01-31","type":{"class":"P","code":"PPL"},"region":{"a1":"19","a2":"1503","a3":"150310"},"meta":{"pop":"19472","dem":"9","tz":"Europe/Lisbon"}},{"id":"2264811","name":"Pero Pinheiro","ascii_name":"Pero Pinheiro","lat":"38.85783","lon":"-9.32352","country":"PT","lastUpdated":"2018-07-04","type":{"class":"P","code":"PPL"},"region":{"a1":"14","a2":"1111","a3":"111114"},"meta":{"pop":"4792","dem":"158","tz":"Europe/Lisbon"}},{"id":"2264900","name":"Pêra","ascii_name":"Pera","lat":"37.12296","lon":"-8.34115","country":"PT","lastUpdated":"2018-06-13","type":{"class":"P","code":"PPL"},"region":{"a1":"09","a2":"0813","a3":"081304"},"meta":{"pop":"1951","dem":"41","tz":"Europe/Lisbon"}},{"id":"2264923","name":"Peniche","ascii_name":"Peniche","lat":"39.3558","lon":"-9.38112","country":"PT","lastUpdated":"2011-08-28","type":{"class":"P","code":"PPL"},"region":{"a1":"13","a2":"1014","a3":"101403"},"meta":{"pop":"15662","dem":"17","tz":"Europe/Lisbon"}},{"id":"2264933","name":"Penedo Gordo","ascii_name":"Penedo Gordo","lat":"37.98477","lon":"-7.91651","country":"PT","lastUpdated":"2018-02-12","type":{"class":"P","code":"PPL"},"region":{"a1":"03","a2":"0205","a3":"020513"},"meta":{"pop":"1167","dem":"205","tz":"Europe/Lisbon"}},{"id":"2264988","name":"Pego","ascii_name":"Pego","lat":"39.46146","lon":"-8.14955","country":"PT","lastUpdated":"2018-07-06","type":{"class":"P","code":"PPL"},"region":{"a1":"18","a2":"1401","a3":"140107"},"meta":{"pop":"2431","dem":"94","tz":"Europe/Lisbon"}},{"id":"2265000","name":"Pedrógão Grande","ascii_name":"Pedrogao Grande","lat":"39.91835","lon":"-8.1459","country":"PT","lastUpdated":"2018-06-27","type":{"class":"P","code":"PPLA2"},"region":{"a1":"13","a2":"1013","a3":"101302"},"meta":{"pop":"3915","dem":"400","tz":"Europe/Lisbon"}},{"id":"2265120","name":"Pataias","ascii_name":"Pataias","lat":"39.66978","lon":"-8.9958","country":"PT","lastUpdated":"2020-07-20","type":{"class":"P","code":"PPL"},"region":{"a1":"13","a2":"1001","a3":"100110"},"meta":{"pop":"5510","dem":"126","tz":"Europe/Lisbon"}},{"id":"2265169","name":"Parede","ascii_name":"Parede","lat":"38.69282","lon":"-9.35412","country":"PT","lastUpdated":"2012-02-01","type":{"class":"P","code":"PPL"},"region":{"a1":"14","a2":"1105","a3":"110505"},"meta":{"pop":"17212","dem":"52","tz":"Europe/Lisbon"}},{"id":"2265180","name":"Parchal","ascii_name":"Parchal","lat":"37.13827","lon":"-8.51703","country":"PT","lastUpdated":"2018-02-12","type":{"class":"P","code":"PPL"},"region":{"a1":"09","a2":"0806","a3":"080606"},"meta":{"pop":"4019","dem":"9","tz":"Europe/Lisbon"}},{"id":"2265223","name":"Palmela","ascii_name":"Palmela","lat":"38.56902","lon":"-8.90126","country":"PT","lastUpdated":"2014-04-06","type":{"class":"P","code":"PPLA2"},"region":{"a1":"19","a2":"1508","a3":"150802"},"meta":{"pop":"16934","dem":"190","tz":"Europe/Lisbon"}},{"id":"2265300","name":"Paialvo","ascii_name":"Paialvo","lat":"39.56399","lon":"-8.46835","country":"PT","lastUpdated":"2018-06-27","type":{"class":"P","code":"PPL"},"region":{"a1":"18","a2":"1419","a3":"141902"},"meta":{"pop":"2599","dem":"98","tz":"Europe/Lisbon"}},{"id":"2265315","name":"Paderne","ascii_name":"Paderne","lat":"37.17935","lon":"-8.2015","country":"PT","lastUpdated":"2017-11-07","type":{"class":"P","code":"PPL"},"region":{"a1":"09","a2":"0801","a3":"080103"},"meta":{"pop":"3304","dem":"57","tz":"Europe/Lisbon"}},{"id":"2265326","name":"Paço de Arcos","ascii_name":"Paco de Arcos","lat":"38.69569","lon":"-9.29143","country":"PT","lastUpdated":"2011-08-28","type":{"class":"P","code":"PPL"},"region":{"a1":"14","a2":"1110","a3":"111005"},"meta":{"pop":"25974","dem":"15","tz":"Europe/Lisbon"}},{"id":"2265386","name":"Ourique","ascii_name":"Ourique","lat":"37.6539","lon":"-8.22569","country":"PT","lastUpdated":"2018-04-30","type":{"class":"P","code":"PPLA2"},"region":{"a1":"03","a2":"0212","a3":"021203"},"meta":{"pop":"0","dem":"241","tz":"Europe/Lisbon"}},{"id":"2265388","name":"Ourém","ascii_name":"Ourem","lat":"39.64167","lon":"-8.5919","country":"PT","lastUpdated":"2018-04-30","type":{"class":"P","code":"PPLA2"},"region":{"a1":"18","a2":"1421","a3":"142111"},"meta":{"pop":"12729","dem":"315","tz":"Europe/Lisbon"}},{"id":"2265394","name":"Ota","ascii_name":"Ota","lat":"39.11199","lon":"-8.99105","country":"PT","lastUpdated":"2018-06-26","type":{"class":"P","code":"PPL"},"region":{"a1":"14","a2":"1101","a3":"110109"},"meta":{"pop":"1289","dem":"42","tz":"Europe/Lisbon"}},{"id":"2265422","name":"Olival Basto","ascii_name":"Olival Basto","lat":"38.79079","lon":"-9.16621","country":"PT","lastUpdated":"2021-07-09","type":{"class":"P","code":"PPL"},"region":{"a1":"14","a2":"1116","a3":"111604"},"meta":{"pop":"5959","dem":"22","tz":"Europe/Lisbon"}},{"id":"2265432","name":"Olivais","ascii_name":"Olivais","lat":"38.76994","lon":"-9.10674","country":"PT","lastUpdated":"2018-03-15","type":{"class":"P","code":"PPL"},"region":{"a1":"14","a2":"1106","a3":"110633"},"meta":{"pop":"33788","dem":"33","tz":"Europe/Lisbon"}},{"id":"2265434","name":"Olhos de Água","ascii_name":"Olhos de Agua","lat":"37.09024","lon":"-8.19168","country":"PT","lastUpdated":"2019-10-21","type":{"class":"P","code":"PPL"},"region":{"a1":"09","a2":"0801","a3":"080105"},"meta":{"pop":"3221","dem":"20","tz":"Europe/Lisbon"}},{"id":"2265447","name":"Olhão","ascii_name":"Olhao","lat":"37.0286","lon":"-7.8411","country":"PT","lastUpdated":"2020-02-05","type":{"class":"P","code":"PPLA2"},"region":{"a1":"09","a2":"0810","a3":"081003"},"meta":{"pop":"29239","dem":"11","tz":"Europe/Lisbon"}},{"id":"2265450","name":"Oleiros","ascii_name":"Oleiros","lat":"39.91893","lon":"-7.9137","country":"PT","lastUpdated":"2018-09-11","type":{"class":"P","code":"PPLA2"},"region":{"a1":"06","a2":"0506","a3":"050608"},"meta":{"pop":"5721","dem":"510","tz":"Europe/Lisbon"}},{"id":"2265464","name":"Oeiras","ascii_name":"Oeiras","lat":"38.69105","lon":"-9.31085","country":"PT","lastUpdated":"2018-03-09","type":{"class":"P","code":"PPLA2"},"region":{"a1":"14","a2":"1110","a3":"111004"},"meta":{"pop":"35000","dem":"36","tz":"Europe/Lisbon"}},{"id":"2265467","name":"Odivelas","ascii_name":"Odivelas","lat":"38.79269","lon":"-9.1838","country":"PT","lastUpdated":"2011-08-28","type":{"class":"P","code":"PPL"},"region":{"a1":"14","a2":"1116","a3":"111603"},"meta":{"pop":"54624","dem":"50","tz":"Europe/Lisbon"}},{"id":"2265472","name":"Odemira","ascii_name":"Odemira","lat":"37.59798","lon":"-8.63972","country":"PT","lastUpdated":"2018-04-30","type":{"class":"P","code":"PPL"},"region":{"a1":"03","a2":"0211","a3":"021108"},"meta":{"pop":"5830","dem":"52","tz":"Europe/Lisbon"}},{"id":"2265485","name":"Óbidos","ascii_name":"Obidos","lat":"39.36055","lon":"-9.1567","country":"PT","lastUpdated":"2018-02-10","type":{"class":"P","code":"PPLA2"},"region":{"a1":"13","a2":"1012","a3":"101205"},"meta":{"pop":"11187","dem":"48","tz":"Europe/Lisbon"}},{"id":"2265494","name":"Nossa Senhora do Monte","ascii_name":"Nossa Senhora do Monte","lat":"32.66667","lon":"-16.9","country":"PT","lastUpdated":"2012-01-17","type":{"class":"P","code":"PPL"},"region":{"a1":"10","a2":"3103","a3":"310302"},"meta":{"pop":"7444","dem":"350","tz":"Atlantic/Madeira"}},{"id":"2265525","name":"Nisa","ascii_name":"Nisa","lat":"39.51499","lon":"-7.64908","country":"PT","lastUpdated":"2018-06-27","type":{"class":"P","code":"PPLA2"},"region":{"a1":"16","a2":"1212","a3":"121206"},"meta":{"pop":"7450","dem":"307","tz":"Europe/Lisbon"}},{"id":"2265537","name":"Neves","ascii_name":"Neves","lat":"38.0227","lon":"-7.81344","country":"PT","lastUpdated":"2018-02-12","type":{"class":"P","code":"PPL"},"region":{"a1":"03","a2":"0205","a3":"020506"},"meta":{"pop":"1747","dem":"164","tz":"Europe/Lisbon"}},{"id":"2265552","name":"Nazaré","ascii_name":"Nazare","lat":"39.60289","lon":"-9.06836","country":"PT","lastUpdated":"2018-02-10","type":{"class":"P","code":"PPLA2"},"region":{"a1":"13","a2":"1011","a3":"101102"},"meta":{"pop":"8993","dem":"46","tz":"Europe/Lisbon"}},{"id":"2265591","name":"Nadadouro","ascii_name":"Nadadouro","lat":"39.41927","lon":"-9.19091","country":"PT","lastUpdated":"2018-07-05","type":{"class":"P","code":"PPL"},"region":{"a1":"13","a2":"1006","a3":"100608"},"meta":{"pop":"1904","dem":"45","tz":"Europe/Lisbon"}},{"id":"2265680","name":"Mourão","ascii_name":"Mourao","lat":"38.38356","lon":"-7.34189","country":"PT","lastUpdated":"2014-04-06","type":{"class":"P","code":"PPLA2"},"region":{"a1":"08","a2":"0708","a3":"070803"},"meta":{"pop":"0","dem":"178","tz":"Europe/Lisbon"}},{"id":"2265686","name":"Moura","ascii_name":"Moura","lat":"38.1401","lon":"-7.44856","country":"PT","lastUpdated":"2014-04-06","type":{"class":"P","code":"PPLA2"},"region":{"a1":"03","a2":"0210","a3":"021004"},"meta":{"pop":"9360","dem":"190","tz":"Europe/Lisbon"}},{"id":"2265726","name":"Moscavide e Portela","ascii_name":"Moscavide e Portela","lat":"38.77929","lon":"-9.10222","country":"PT","lastUpdated":"2018-03-15","type":{"class":"P","code":"PPL"},"region":{"a1":"14","a2":"1107","a3":"110709"},"meta":{"pop":"22488","dem":"32","tz":"Europe/Lisbon"}},{"id":"2265762","name":"Mora","ascii_name":"Mora","lat":"38.94351","lon":"-8.16434","country":"PT","lastUpdated":"2018-06-12","type":{"class":"P","code":"PPLA2"},"region":{"a1":"08","a2":"0707","a3":"070703"},"meta":{"pop":"0","dem":"113","tz":"Europe/Lisbon"}},{"id":"2265788","name":"Montijo","ascii_name":"Montijo","lat":"38.70675","lon":"-8.97388","country":"PT","lastUpdated":"2014-04-06","type":{"class":"P","code":"PPLA2"},"region":{"a1":"19","a2":"1507","a3":"150702"},"meta":{"pop":"30011","dem":"9","tz":"Europe/Lisbon"}},{"id":"2265841","name":"Monte Redondo","ascii_name":"Monte Redondo","lat":"39.8993","lon":"-8.83171","country":"PT","lastUpdated":"2018-12-04","type":{"class":"P","code":"PPL"},"region":{"a1":"13","a2":"1009","a3":"100917"},"meta":{"pop":"4463","dem":"47","tz":"Europe/Lisbon"}},{"id":"2265844","name":"Monte Real","ascii_name":"Monte Real","lat":"39.8521","lon":"-8.86349","country":"PT","lastUpdated":"2018-02-14","type":{"class":"P","code":"PPL"},"region":{"a1":"13","a2":"1009","a3":"100916"},"meta":{"pop":"5756","dem":"20","tz":"Europe/Lisbon"}},{"id":"2265888","name":"Montemor-o-Novo","ascii_name":"Montemor-o-Novo","lat":"38.64812","lon":"-8.21455","country":"PT","lastUpdated":"2014-04-06","type":{"class":"P","code":"PPLA2"},"region":{"a1":"08","a2":"0706","a3":"070603"},"meta":{"pop":"12854","dem":"247","tz":"Europe/Lisbon"}},{"id":"2265914","name":"Monte Gordo","ascii_name":"Monte Gordo","lat":"37.18192","lon":"-7.45225","country":"PT","lastUpdated":"2012-01-17","type":{"class":"P","code":"PPL"},"region":{"a1":"09","a2":"0816","a3":"081603"},"meta":{"pop":"4282","dem":"10","tz":"Europe/Lisbon"}},{"id":"2265927","name":"Monte Estoril","ascii_name":"Monte Estoril","lat":"38.70636","lon":"-9.40595","country":"PT","lastUpdated":"2018-02-06","type":{"class":"P","code":"PPL"},"region":{"a1":"14","a2":"1105","a3":"110503"},"meta":{"pop":"23375","dem":"43","tz":"Europe/Lisbon"}},{"id":"2266234","name":"Montargil","ascii_name":"Montargil","lat":"39.07771","lon":"-8.17044","country":"PT","lastUpdated":"2018-08-25","type":{"class":"P","code":"PPL"},"region":{"a1":"16","a2":"1213","a3":"121302"},"meta":{"pop":"2316","dem":"155","tz":"Europe/Lisbon"}},{"id":"2266235","name":"Montalvo","ascii_name":"Montalvo","lat":"39.48333","lon":"-8.3","country":"PT","lastUpdated":"2018-05-17","type":{"class":"P","code":"PPL"},"region":{"a1":"18","a2":"1408","a3":"140802"},"meta":{"pop":"1275","dem":"68","tz":"Europe/Lisbon"}},{"id":"2266240","name":"Montalvinho","ascii_name":"Montalvinho","lat":"39.48333","lon":"-8.3","country":"PT","lastUpdated":"2018-05-23","type":{"class":"P","code":"PPL"},"region":{"a1":"18","a2":"1408","a3":"140802"},"meta":{"pop":"1275","dem":"68","tz":"Europe/Lisbon"}},{"id":"2266249","name":"Monsanto","ascii_name":"Monsanto","lat":"39.46203","lon":"-8.7118","country":"PT","lastUpdated":"2012-01-17","type":{"class":"P","code":"PPL"},"region":{"a1":"18","a2":"1402","a3":"140208"},"meta":{"pop":"50000","dem":"143","tz":"Europe/Lisbon"}},{"id":"2266259","name":"Monforte","ascii_name":"Monforte","lat":"39.05318","lon":"-7.43689","country":"PT","lastUpdated":"2018-08-25","type":{"class":"P","code":"PPL"},"region":{"a1":"16","a2":"1211","a3":"121102"},"meta":{"pop":"3329","dem":"285","tz":"Europe/Lisbon"}},{"id":"2266268","name":"Monchique","ascii_name":"Monchique","lat":"37.31775","lon":"-8.55529","country":"PT","lastUpdated":"2014-04-06","type":{"class":"P","code":"PPLA2"},"region":{"a1":"09","a2":"0809","a3":"080903"},"meta":{"pop":"5421","dem":"439","tz":"Europe/Lisbon"}},{"id":"2266272","name":"Moncarapacho","ascii_name":"Moncarapacho","lat":"37.0836","lon":"-7.78763","country":"PT","lastUpdated":"2018-01-31","type":{"class":"P","code":"PPL"},"region":{"a1":"09","a2":"0810","a3":"081002"},"meta":{"pop":"8545","dem":"50","tz":"Europe/Lisbon"}},{"id":"2266298","name":"Moita dos Ferreiros","ascii_name":"Moita dos Ferreiros","lat":"39.24825","lon":"-9.22355","country":"PT","lastUpdated":"2018-07-05","type":{"class":"P","code":"PPL"},"region":{"a1":"14","a2":"1108","a3":"110803"},"meta":{"pop":"1734","dem":"93","tz":"Europe/Lisbon"}},{"id":"2266319","name":"Moita","ascii_name":"Moita","lat":"38.65078","lon":"-8.99038","country":"PT","lastUpdated":"2014-04-06","type":{"class":"P","code":"PPLA2"},"region":{"a1":"19","a2":"1506","a3":"150603"},"meta":{"pop":"17795","dem":"10","tz":"Europe/Lisbon"}},{"id":"2266380","name":"Mira","ascii_name":"Mira","lat":"39.54315","lon":"-8.71505","country":"PT","lastUpdated":"2018-05-22","type":{"class":"P","code":"PPL"},"region":{"a1":"13","a2":"1016","a3":"101608"},"meta":{"pop":"3775","dem":"255","tz":"Europe/Lisbon"}},{"id":"2266388","name":"Minde","ascii_name":"Minde","lat":"39.51631","lon":"-8.68799","country":"PT","lastUpdated":"2018-05-22","type":{"class":"P","code":"PPL"},"region":{"a1":"18","a2":"1402","a3":"140206"},"meta":{"pop":"3293","dem":"204","tz":"Europe/Lisbon"}},{"id":"2266389","name":"Minas de São Domingos","ascii_name":"Minas de Sao Domingos","lat":"37.67322","lon":"-7.49765","country":"PT","lastUpdated":"2018-03-15","type":{"class":"P","code":"PPL"},"region":{"a1":"03","a2":"0209","a3":"020902"},"meta":{"pop":"2500","dem":"158","tz":"Europe/Lisbon"}},{"id":"2266411","name":"Milharado","ascii_name":"Milharado","lat":"38.94732","lon":"-9.19914","country":"PT","lastUpdated":"2018-07-04","type":{"class":"P","code":"PPL"},"region":{"a1":"14","a2":"1109","a3":"110911"},"meta":{"pop":"5935","dem":"211","tz":"Europe/Lisbon"}},{"id":"2266425","name":"Mexilhoeira Grande","ascii_name":"Mexilhoeira Grande","lat":"37.15858","lon":"-8.61487","country":"PT","lastUpdated":"2017-11-07","type":{"class":"P","code":"PPL"},"region":{"a1":"09","a2":"0811","a3":"081102"},"meta":{"pop":"4029","dem":"40","tz":"Europe/Lisbon"}},{"id":"2266442","name":"Mértola","ascii_name":"Mertola","lat":"37.64304","lon":"-7.6611","country":"PT","lastUpdated":"2018-03-15","type":{"class":"P","code":"PPLA2"},"region":{"a1":"03","a2":"0209","a3":"020904"},"meta":{"pop":"7274","dem":"57","tz":"Europe/Lisbon"}},{"id":"2266464","name":"Mem Martins","ascii_name":"Mem Martins","lat":"38.79443","lon":"-9.34284","country":"PT","lastUpdated":"2018-05-18","type":{"class":"P","code":"PPL"},"region":{"a1":"14","a2":"1111","a3":"111112"},"meta":{"pop":"9000","dem":"167","tz":"Europe/Lisbon"}},{"id":"2266523","name":"Meca","ascii_name":"Meca","lat":"39.08178","lon":"-9.03459","country":"PT","lastUpdated":"2018-06-26","type":{"class":"P","code":"PPL"},"region":{"a1":"14","a2":"1101","a3":"110107"},"meta":{"pop":"1719","dem":"110","tz":"Europe/Lisbon"}},{"id":"2266621","name":"Massamá","ascii_name":"Massama","lat":"38.75279","lon":"-9.2811","country":"PT","lastUpdated":"2021-01-21","type":{"class":"P","code":"PPL"},"region":{"a1":"14","a2":"1111"},"meta":{"pop":"28112","dem":"142","tz":"Europe/Lisbon"}},{"id":"2266633","name":"Marvão","ascii_name":"Marvao","lat":"39.39377","lon":"-7.37663","country":"PT","lastUpdated":"2018-04-30","type":{"class":"P","code":"PPL"},"region":{"a1":"16","a2":"1210","a3":"121002"},"meta":{"pop":"3739","dem":"825","tz":"Europe/Lisbon"}},{"id":"2266680","name":"Marmelete","ascii_name":"Marmelete","lat":"37.31014","lon":"-8.66813","country":"PT","lastUpdated":"2018-06-27","type":{"class":"P","code":"PPL"},"region":{"a1":"09","a2":"0809","a3":"080902"},"meta":{"pop":"1087","dem":"366","tz":"Europe/Lisbon"}},{"id":"2266702","name":"Marinhais","ascii_name":"Marinhais","lat":"39.0473","lon":"-8.70236","country":"PT","lastUpdated":"2012-01-17","type":{"class":"P","code":"PPL"},"region":{"a1":"18","a2":"1415","a3":"141502"},"meta":{"pop":"5788","dem":"34","tz":"Europe/Lisbon"}},{"id":"2266703","name":"Marinha Grande","ascii_name":"Marinha Grande","lat":"39.74769","lon":"-8.93228","country":"PT","lastUpdated":"2018-05-01","type":{"class":"P","code":"PPLA2"},"region":{"a1":"13","a2":"1010","a3":"101001"},"meta":{"pop":"28916","dem":"91","tz":"Europe/Lisbon"}},{"id":"2266762","name":"Manta Rota","ascii_name":"Manta Rota","lat":"37.16849","lon":"-7.51804","country":"PT","lastUpdated":"2018-10-17","type":{"class":"P","code":"PPL"},"region":{"a1":"09","a2":"0816","a3":"081601"},"meta":{"pop":"1200","dem":"17","tz":"Europe/Lisbon"}},{"id":"2266777","name":"Malveira","ascii_name":"Malveira","lat":"38.93213","lon":"-9.25779","country":"PT","lastUpdated":"2018-07-04","type":{"class":"P","code":"PPL"},"region":{"a1":"14","a2":"1109","a3":"110910"},"meta":{"pop":"4747","dem":"253","tz":"Europe/Lisbon"}},{"id":"2266865","name":"Mafra","ascii_name":"Mafra","lat":"38.93793","lon":"-9.32756","country":"PT","lastUpdated":"2014-04-06","type":{"class":"P","code":"PPLA2"},"region":{"a1":"14","a2":"1109","a3":"110909"},"meta":{"pop":"12259","elv":"300","dem":"230","tz":"Europe/Lisbon"}},{"id":"2266882","name":"Madalena","ascii_name":"Madalena","lat":"39.57133","lon":"-8.44635","country":"PT","lastUpdated":"2018-06-27","type":{"class":"P","code":"PPL"},"region":{"a1":"18","a2":"1418","a3":"141807"},"meta":{"pop":"3466","dem":"112","tz":"Europe/Lisbon"}},{"id":"2266895","name":"Machico","ascii_name":"Machico","lat":"32.7162","lon":"-16.76758","country":"PT","lastUpdated":"2017-09-16","type":{"class":"P","code":"PPL"},"region":{"a1":"10","a2":"3104","a3":"310403"},"meta":{"pop":"12567","dem":"39","tz":"Atlantic/Madeira"}},{"id":"2266914","name":"Maceira","ascii_name":"Maceira","lat":"39.68853","lon":"-8.89423","country":"PT","lastUpdated":"2018-07-04","type":{"class":"P","code":"PPL"},"region":{"a1":"13","a2":"1009","a3":"100913"},"meta":{"pop":"9831","dem":"164","tz":"Europe/Lisbon"}},{"id":"2266924","name":"Mação","ascii_name":"Macao","lat":"39.55573","lon":"-7.99421","country":"PT","lastUpdated":"2018-04-30","type":{"class":"P","code":"PPLA2"},"region":{"a1":"18","a2":"1413","a3":"141306"},"meta":{"pop":"0","dem":"315","tz":"Europe/Lisbon"}},{"id":"2266938","name":"Luz","ascii_name":"Luz","lat":"37.09216","lon":"-7.70433","country":"PT","lastUpdated":"2011-08-28","type":{"class":"P","code":"PPL"},"region":{"a1":"09","a2":"0814","a3":"081403"},"meta":{"pop":"3627","dem":"39","tz":"Europe/Lisbon"}},{"id":"2266961","name":"Lourinhã","ascii_name":"Lourinha","lat":"39.24166","lon":"-9.31254","country":"PT","lastUpdated":"2018-01-15","type":{"class":"P","code":"PPLA2"},"region":{"a1":"14","a2":"1108","a3":"110811"},"meta":{"pop":"9196","dem":"15","tz":"Europe/Lisbon"}},{"id":"2266974","name":"Louriçal","ascii_name":"Lourical","lat":"40.0039","lon":"-8.73736","country":"PT","lastUpdated":"2012-02-01","type":{"class":"P","code":"PPL"},"region":{"a1":"13","a2":"1015","a3":"101506"},"meta":{"pop":"5085","dem":"29","tz":"Europe/Lisbon"}},{"id":"2266977","name":"Loures","ascii_name":"Loures","lat":"38.83091","lon":"-9.16845","country":"PT","lastUpdated":"2018-04-30","type":{"class":"P","code":"PPL"},"region":{"a1":"14","a2":"1107","a3":"110707"},"meta":{"pop":"66231","dem":"23","tz":"Europe/Lisbon"}},{"id":"2266988","name":"Loulé","ascii_name":"Loule","lat":"37.13772","lon":"-8.01968","country":"PT","lastUpdated":"2018-05-01","type":{"class":"P","code":"PPLA2"},"region":{"a1":"09","a2":"0808","a3":"080808"},"meta":{"pop":"23109","dem":"186","tz":"Europe/Lisbon"}},{"id":"2267057","name":"Lisbon","ascii_name":"Lisbon","lat":"38.71667","lon":"-9.13333","country":"PT","lastUpdated":"2019-07-12","type":{"class":"P","code":"PPLC"},"region":{"a1":"14","a2":"1106"},"meta":{"pop":"517802","dem":"45","tz":"Europe/Lisbon"}},{"id":"2267067","name":"Linda-a-Velha","ascii_name":"Linda-a-Velha","lat":"38.71446","lon":"-9.2422","country":"PT","lastUpdated":"2012-01-17","type":{"class":"P","code":"PPL"},"region":{"a1":"14","a2":"1110","a3":"111008"},"meta":{"pop":"20895","dem":"90","tz":"Europe/Lisbon"}},{"id":"2267095","name":"Leiria","ascii_name":"Leiria","lat":"39.74362","lon":"-8.80705","country":"PT","lastUpdated":"2017-04-02","type":{"class":"P","code":"PPLA"},"region":{"a1":"13","a2":"1009","a3":"100912"},"meta":{"pop":"45112","dem":"33","tz":"Europe/Lisbon"}},{"id":"2267112","name":"Lavradio","ascii_name":"Lavradio","lat":"38.66808","lon":"-9.05204","country":"PT","lastUpdated":"2018-02-22","type":{"class":"P","code":"PPL"},"region":{"a1":"19","a2":"1504","a3":"150402"},"meta":{"pop":"21877","dem":"10","tz":"Europe/Lisbon"}},{"id":"2267131","name":"Laranjeiro","ascii_name":"Laranjeiro","lat":"37.06799","lon":"-7.8078","country":"PT","lastUpdated":"2018-01-31","type":{"class":"P","code":"PPL"},"region":{"a1":"09","a2":"0810","a3":"081002"},"meta":{"pop":"20473","dem":"50","tz":"Europe/Lisbon"}},{"id":"2267141","name":"Laranjeira","ascii_name":"Laranjeira","lat":"38.65599","lon":"-9.15376","country":"PT","lastUpdated":"2018-02-11","type":{"class":"P","code":"PPL"},"region":{"a1":"19","a2":"1503","a3":"150310"},"meta":{"pop":"20988","dem":"55","tz":"Europe/Lisbon"}},{"id":"2267226","name":"Lagos","ascii_name":"Lagos","lat":"37.10202","lon":"-8.67422","country":"PT","lastUpdated":"2018-09-14","type":{"class":"P","code":"PPL"},"region":{"a1":"09","a2":"0807","a3":"080706"},"meta":{"pop":"18831","dem":"12","tz":"Europe/Lisbon"}},{"id":"2267254","name":"Lagoa","ascii_name":"Lagoa","lat":"37.13535","lon":"-8.45319","country":"PT","lastUpdated":"2014-04-06","type":{"class":"P","code":"PPLA2"},"region":{"a1":"09","a2":"0806","a3":"080603"},"meta":{"pop":"6301","dem":"53","tz":"Europe/Lisbon"}},{"id":"2267427","name":"Idanha-a-Nova","ascii_name":"Idanha-a-Nova","lat":"39.92316","lon":"-7.24082","country":"PT","lastUpdated":"2014-04-06","type":{"class":"P","code":"PPLA2"},"region":{"a1":"06","a2":"0505","a3":"050503"},"meta":{"pop":"0","dem":"387","tz":"Europe/Lisbon"}},{"id":"2267489","name":"Guia","ascii_name":"Guia","lat":"37.12959","lon":"-8.29963","country":"PT","lastUpdated":"2014-04-06","type":{"class":"P","code":"PPL"},"region":{"a1":"09","a2":"0801","a3":"080102"},"meta":{"pop":"4173","dem":"49","tz":"Europe/Lisbon"}},{"id":"2267538","name":"Grândola","ascii_name":"Grandola","lat":"38.17718","lon":"-8.56675","country":"PT","lastUpdated":"2014-04-06","type":{"class":"P","code":"PPLA2"},"region":{"a1":"19","a2":"1505","a3":"150502"},"meta":{"pop":"10737","dem":"102","tz":"Europe/Lisbon"}},{"id":"2267624","name":"Golegã","ascii_name":"Golega","lat":"39.40474","lon":"-8.48625","country":"PT","lastUpdated":"2014-04-06","type":{"class":"P","code":"PPLA2"},"region":{"a1":"18","a2":"1412","a3":"141202"},"meta":{"pop":"3830","dem":"25","tz":"Europe/Lisbon"}},{"id":"2267681","name":"Gavião","ascii_name":"Gaviao","lat":"39.46443","lon":"-7.93449","country":"PT","lastUpdated":"2018-07-04","type":{"class":"P","code":"PPLA2"},"region":{"a1":"16","a2":"1209","a3":"120904"},"meta":{"pop":"4132","dem":"284","tz":"Europe/Lisbon"}},{"id":"2267792","name":"Fuzeta","ascii_name":"Fuzeta","lat":"37.05429","lon":"-7.74699","country":"PT","lastUpdated":"2017-09-16","type":{"class":"P","code":"PPL"},"region":{"a1":"09","a2":"0810","a3":"081001"},"meta":{"pop":"2146","dem":"13","tz":"Europe/Lisbon"}},{"id":"2267827","name":"Funchal","ascii_name":"Funchal","lat":"32.66568","lon":"-16.92547","country":"PT","lastUpdated":"2019-09-05","type":{"class":"P","code":"PPLA"},"region":{"a1":"10","a2":"3103","a3":"310309"},"meta":{"pop":"100847","dem":"280","tz":"Atlantic/Madeira"}},{"id":"2267832","name":"Fronteira","ascii_name":"Fronteira","lat":"39.05629","lon":"-7.64868","country":"PT","lastUpdated":"2018-04-30","type":{"class":"P","code":"PPLA2"},"region":{"a1":"16","a2":"1208","a3":"120802"},"meta":{"pop":"0","dem":"257","tz":"Europe/Lisbon"}},{"id":"2267937","name":"Foz do Arelho","ascii_name":"Foz do Arelho","lat":"39.43672","lon":"-9.21374","country":"PT","lastUpdated":"2018-05-23","type":{"class":"P","code":"PPL"},"region":{"a1":"13","a2":"1006","a3":"100606"},"meta":{"pop":"1339","dem":"22","tz":"Europe/Lisbon"}},{"id":"2267962","name":"Fortios","ascii_name":"Fortios","lat":"39.32494","lon":"-7.50057","country":"PT","lastUpdated":"2011-09-04","type":{"class":"P","code":"PPLA3"},"region":{"a1":"16","a2":"1214","a3":"121404"},"meta":{"pop":"0","dem":"397","tz":"Europe/Lisbon"}},{"id":"2268126","name":"Fontanelas","ascii_name":"Fontanelas","lat":"38.84806","lon":"-9.43942","country":"PT","lastUpdated":"2018-11-11","type":{"class":"P","code":"PPL"},"region":{"a1":"14","a2":"1111","a3":"111110"},"meta":{"pop":"6001","dem":"129","tz":"Europe/Lisbon"}},{"id":"2268188","name":"Figueiró dos Vinhos","ascii_name":"Figueiro dos Vinhos","lat":"39.90413","lon":"-8.27511","country":"PT","lastUpdated":"2018-05-01","type":{"class":"P","code":"PPLA2"},"region":{"a1":"13","a2":"1008","a3":"100804"},"meta":{"pop":"0","dem":"464","tz":"Europe/Lisbon"}},{"id":"2268246","name":"Ferrel","ascii_name":"Ferrel","lat":"39.36398","lon":"-9.31541","country":"PT","lastUpdated":"2018-01-15","type":{"class":"P","code":"PPL"},"region":{"a1":"13","a2":"1014","a3":"101406"},"meta":{"pop":"2649","dem":"28","tz":"Europe/Lisbon"}},{"id":"2268250","name":"Ferreiras","ascii_name":"Ferreiras","lat":"37.12926","lon":"-8.23759","country":"PT","lastUpdated":"2014-04-06","type":{"class":"P","code":"PPL"},"region":{"a1":"09","a2":"0801","a3":"080104"},"meta":{"pop":"5157","dem":"80","tz":"Europe/Lisbon"}},{"id":"2268251","name":"Ferreira do Zêzere","ascii_name":"Ferreira do Zezere","lat":"39.69406","lon":"-8.29213","country":"PT","lastUpdated":"2018-04-30","type":{"class":"P","code":"PPLA2"},"region":{"a1":"18","a2":"1411","a3":"141106"},"meta":{"pop":"0","dem":"355","tz":"Europe/Lisbon"}},{"id":"2268252","name":"Ferreira do Alentejo","ascii_name":"Ferreira do Alentejo","lat":"38.05972","lon":"-8.11408","country":"PT","lastUpdated":"2021-05-26","type":{"class":"P","code":"PPLA2"},"region":{"a1":"03","a2":"0205","a3":"020505"},"meta":{"pop":"4689","dem":"137","tz":"Europe/Lisbon"}},{"id":"2268282","name":"Ferragudo","ascii_name":"Ferragudo","lat":"37.12474","lon":"-8.51915","country":"PT","lastUpdated":"2017-09-16","type":{"class":"P","code":"PPL"},"region":{"a1":"09","a2":"0806","a3":"080602"},"meta":{"pop":"1973","dem":"5","tz":"Europe/Lisbon"}},{"id":"2268313","name":"Fazendas de Almeirim","ascii_name":"Fazendas de Almeirim","lat":"39.17553","lon":"-8.56927","country":"PT","lastUpdated":"2012-08-04","type":{"class":"P","code":"PPL"},"region":{"a1":"18","a2":"1403","a3":"140303"},"meta":{"pop":"6635","dem":"77","tz":"Europe/Lisbon"}},{"id":"2268326","name":"Fátima","ascii_name":"Fatima","lat":"39.62071","lon":"-8.65237","country":"PT","lastUpdated":"2018-03-15","type":{"class":"P","code":"PPL"},"region":{"a1":"18","a2":"1421","a3":"142106"},"meta":{"pop":"11798","dem":"358","tz":"Europe/Lisbon"}},{"id":"2268339","name":"Faro","ascii_name":"Faro","lat":"37.01869","lon":"-7.92716","country":"PT","lastUpdated":"2019-02-18","type":{"class":"P","code":"PPLA"},"region":{"a1":"09","a2":"0805","a3":"080505"},"meta":{"pop":"41355","dem":"24","tz":"Europe/Lisbon"}},{"id":"2268358","name":"Famões","ascii_name":"Famoes","lat":"38.78804","lon":"-9.21033","country":"PT","lastUpdated":"2018-07-04","type":{"class":"P","code":"PPL"},"region":{"a1":"14","a2":"1116","a3":"111602"},"meta":{"pop":"9435","dem":"125","tz":"Europe/Lisbon"}},{"id":"2268360","name":"Famalicão","ascii_name":"Famalicao","lat":"39.53642","lon":"-9.08308","country":"PT","lastUpdated":"2018-05-23","type":{"class":"P","code":"PPL"},"region":{"a1":"13","a2":"1011","a3":"101101"},"meta":{"pop":"1740","dem":"35","tz":"Europe/Lisbon"}},{"id":"2268382","name":"Fajã da Ovelha","ascii_name":"Faja da Ovelha","lat":"32.77457","lon":"-17.23412","country":"PT","cc2":"PT","lastUpdated":"2011-09-04","type":{"class":"P","code":"PPL"},"region":{"a1":"10","a2":"3101","a3":"310104"},"meta":{"pop":"1016","dem":"480","tz":"Atlantic/Madeira"}},{"id":"2268388","name":"Faial","ascii_name":"Faial","lat":"32.78333","lon":"-16.85","country":"PT","lastUpdated":"2018-03-01","type":{"class":"P","code":"PPL"},"region":{"a1":"10","a2":"3109","a3":"310902"},"meta":{"pop":"1567","dem":"-128","tz":"Atlantic/Madeira"}},{"id":"2268406","name":"Évora","ascii_name":"Evora","lat":"38.56667","lon":"-7.9","country":"PT","cc2":"PT","lastUpdated":"2018-05-01","type":{"class":"P","code":"PPLA"},"region":{"a1":"08","a2":"0705","a3":"070521"},"meta":{"pop":"55620","dem":"269","tz":"Europe/Lisbon"}},{"id":"2268411","name":"Estremoz","ascii_name":"Estremoz","lat":"38.84432","lon":"-7.58585","country":"PT","lastUpdated":"2014-04-06","type":{"class":"P","code":"PPLA2"},"region":{"a1":"08","a2":"0704","a3":"070406"},"meta":{"pop":"9350","dem":"417","tz":"Europe/Lisbon"}},{"id":"2268419","name":"Estreito da Calheta","ascii_name":"Estreito da Calheta","lat":"32.73704","lon":"-17.18674","country":"PT","lastUpdated":"2011-09-04","type":{"class":"P","code":"PPL"},"region":{"a1":"10","a2":"3101","a3":"310103"},"meta":{"pop":"1630","dem":"372","tz":"Atlantic/Madeira"}},{"id":"2268436","name":"Estoril","ascii_name":"Estoril","lat":"38.70571","lon":"-9.39773","country":"PT","cc2":"PT","lastUpdated":"2018-02-10","type":{"class":"P","code":"PPL"},"region":{"a1":"14","a2":"1105","a3":"110504"},"meta":{"pop":"23700","dem":"24","tz":"Europe/Lisbon"}},{"id":"2268437","name":"Estômbar","ascii_name":"Estombar","lat":"37.14629","lon":"-8.48505","country":"PT","lastUpdated":"2011-08-28","type":{"class":"P","code":"PPL"},"region":{"a1":"09","a2":"0806","a3":"080601"},"meta":{"pop":"8590","dem":"29","tz":"Europe/Lisbon"}},{"id":"2268438","name":"Estói","ascii_name":"Estoi","lat":"37.09503","lon":"-7.89445","country":"PT","lastUpdated":"2017-11-09","type":{"class":"P","code":"PPL"},"region":{"a1":"09","a2":"0805","a3":"080502"},"meta":{"pop":"3538","dem":"115","tz":"Europe/Lisbon"}},{"id":"2268563","name":"Ericeira","ascii_name":"Ericeira","lat":"38.96275","lon":"-9.41563","country":"PT","lastUpdated":"2011-08-28","type":{"class":"P","code":"PPL"},"region":{"a1":"14","a2":"1109","a3":"110906"},"meta":{"pop":"7538","dem":"33","tz":"Europe/Lisbon"}},{"id":"2268575","name":"Entroncamento","ascii_name":"Entroncamento","lat":"39.46667","lon":"-8.46667","country":"PT","lastUpdated":"2014-04-06","type":{"class":"P","code":"PPLA2"},"region":{"a1":"18","a2":"1410","a3":"141001"},"meta":{"pop":"19887","dem":"34","tz":"Europe/Lisbon"}},{"id":"2268615","name":"Elvas","ascii_name":"Elvas","lat":"38.8815","lon":"-7.16282","country":"PT","lastUpdated":"2018-04-30","type":{"class":"P","code":"PPLA2"},"region":{"a1":"16","a2":"1207","a3":"120702"},"meta":{"pop":"9904","dem":"326","tz":"Europe/Lisbon"}},{"id":"2268746","name":"Curral das Freiras","ascii_name":"Curral das Freiras","lat":"32.72029","lon":"-16.96993","country":"PT","lastUpdated":"2011-09-04","type":{"class":"P","code":"PPL"},"region":{"a1":"10","a2":"3102","a3":"310202"},"meta":{"pop":"1673","dem":"435","tz":"Atlantic/Madeira"}},{"id":"2268789","name":"Cuba","ascii_name":"Cuba","lat":"38.16544","lon":"-7.8924","country":"PT","lastUpdated":"2018-04-30","type":{"class":"P","code":"PPLA2"},"region":{"a1":"03","a2":"0207","a3":"020701"},"meta":{"pop":"4878","dem":"180","tz":"Europe/Lisbon"}},{"id":"2268916","name":"Costa de Caparica","ascii_name":"Costa de Caparica","lat":"38.64458","lon":"-9.23556","country":"PT","lastUpdated":"2011-08-28","type":{"class":"P","code":"PPL"},"region":{"a1":"19","a2":"1503","a3":"150303"},"meta":{"pop":"14231","dem":"11","tz":"Europe/Lisbon"}},{"id":"2268946","name":"Coruche","ascii_name":"Coruche","lat":"38.95955","lon":"-8.52524","country":"PT","lastUpdated":"2018-04-30","type":{"class":"P","code":"PPLA2"},"region":{"a1":"18","a2":"1409","a3":"140901"},"meta":{"pop":"8776","dem":"21","tz":"Europe/Lisbon"}},{"id":"2269041","name":"Corroios","ascii_name":"Corroios","lat":"38.64004","lon":"-9.1508","country":"PT","lastUpdated":"2018-01-31","type":{"class":"P","code":"PPL"},"region":{"a1":"19","a2":"1510","a3":"151005"},"meta":{"pop":"52520","dem":"7","tz":"Europe/Lisbon"}},{"id":"2269088","name":"Constância","ascii_name":"Constancia","lat":"39.47796","lon":"-8.33636","country":"PT","lastUpdated":"2018-05-17","type":{"class":"P","code":"PPLA2"},"region":{"a1":"18","a2":"1408","a3":"140801"},"meta":{"pop":"993","dem":"64","tz":"Europe/Lisbon"}},{"id":"2269108","name":"Conceição","ascii_name":"Conceicao","lat":"37.14789","lon":"-7.60426","country":"PT","lastUpdated":"2017-09-19","type":{"class":"P","code":"PPL"},"region":{"a1":"09","a2":"0814","a3":"081402"},"meta":{"pop":"2519","dem":"29","tz":"Europe/Lisbon"}},{"id":"2269114","name":"Comporta","ascii_name":"Comporta","lat":"38.38059","lon":"-8.78608","country":"PT","lastUpdated":"2018-02-19","type":{"class":"P","code":"PPL"},"region":{"a1":"19","a2":"1501","a3":"150106"},"meta":{"pop":"1268","dem":"9","tz":"Europe/Lisbon"}},{"id":"2269142","name":"Colares","ascii_name":"Colares","lat":"38.79921","lon":"-9.44691","country":"PT","lastUpdated":"2012-01-17","type":{"class":"P","code":"PPL"},"region":{"a1":"14","a2":"1111","a3":"111105"},"meta":{"pop":"7905","dem":"43","tz":"Europe/Lisbon"}},{"id":"2269280","name":"Charneca","ascii_name":"Charneca","lat":"38.78351","lon":"-9.14348","country":"PT","lastUpdated":"2018-02-22","type":{"class":"P","code":"PPL"},"region":{"a1":"14","a2":"1107","a3":"110703"},"meta":{"pop":"10509","dem":"134","tz":"Europe/Lisbon"}},{"id":"2269282","name":"Charneca de Caparica","ascii_name":"Charneca de Caparica","lat":"38.62032","lon":"-9.19426","country":"PT","lastUpdated":"2018-02-22","type":{"class":"P","code":"PPL"},"region":{"a1":"19","a2":"1503","a3":"150309"},"meta":{"pop":"29763","dem":"78","tz":"Europe/Lisbon"}},{"id":"2269413","name":"Cercal","ascii_name":"Cercal","lat":"37.80129","lon":"-8.674","country":"PT","lastUpdated":"2018-05-16","type":{"class":"P","code":"PPL"},"region":{"a1":"19","a2":"1509","a3":"150903"},"meta":{"pop":"3772","dem":"158","tz":"Europe/Lisbon"}},{"id":"2269429","name":"Cela","ascii_name":"Cela","lat":"39.54075","lon":"-9.03449","country":"PT","lastUpdated":"2018-07-05","type":{"class":"P","code":"PPL"},"region":{"a1":"13","a2":"1001","a3":"100106"},"meta":{"pop":"3264","dem":"181","tz":"Europe/Lisbon"}},{"id":"2269449","name":"Caxias","ascii_name":"Caxias","lat":"38.70314","lon":"-9.27666","country":"PT","lastUpdated":"2018-01-31","type":{"class":"P","code":"PPL"},"region":{"a1":"14","a2":"1110","a3":"111011"},"meta":{"pop":"9007","dem":"32","tz":"Europe/Lisbon"}},{"id":"2269494","name":"Castro Verde","ascii_name":"Castro Verde","lat":"37.69828","lon":"-8.08581","country":"PT","lastUpdated":"2014-04-06","type":{"class":"P","code":"PPLA2"},"region":{"a1":"03","a2":"0206","a3":"020602"},"meta":{"pop":"4857","dem":"242","tz":"Europe/Lisbon"}},{"id":"2269496","name":"Castro Marim","ascii_name":"Castro Marim","lat":"37.22068","lon":"-7.4435","country":"PT","lastUpdated":"2018-05-09","type":{"class":"P","code":"PPLA2"},"region":{"a1":"09","a2":"0804","a3":"080402"},"meta":{"pop":"5089","dem":"6","tz":"Europe/Lisbon"}},{"id":"2269508","name":"Castelo de Vide","ascii_name":"Castelo de Vide","lat":"39.41624","lon":"-7.4568","country":"PT","cc2":"PT","lastUpdated":"2018-04-30","type":{"class":"P","code":"PPL"},"region":{"a1":"16","a2":"1205","a3":"120502"},"meta":{"pop":"3780","dem":"570","tz":"Europe/Lisbon"}},{"id":"2269514","name":"Castelo Branco","ascii_name":"Castelo Branco","lat":"39.82219","lon":"-7.49087","country":"PT","lastUpdated":"2012-01-17","type":{"class":"P","code":"PPLA"},"region":{"a1":"06","a2":"0502","a3":"050205"},"meta":{"pop":"33479","dem":"409","tz":"Europe/Lisbon"}},{"id":"2269556","name":"Castanheira do Ribatejo","ascii_name":"Castanheira do Ribatejo","lat":"38.99298","lon":"-8.97346","country":"PT","lastUpdated":"2012-01-17","type":{"class":"P","code":"PPL"},"region":{"a1":"14","a2":"1114","a3":"111405"},"meta":{"pop":"7651","dem":"22","tz":"Europe/Lisbon"}},{"id":"2269557","name":"Castanheira de Pêra","ascii_name":"Castanheira de Pera","lat":"40.00717","lon":"-8.21048","country":"PT","lastUpdated":"2020-06-10","type":{"class":"P","code":"PPLA2"},"region":{"a1":"13","a2":"1007","a3":"100701"},"meta":{"pop":"3331","dem":"478","tz":"Europe/Lisbon"}},{"id":"2269594","name":"Cascais","ascii_name":"Cascais","lat":"38.69681","lon":"-9.42147","country":"PT","lastUpdated":"2017-07-03","type":{"class":"P","code":"PPL"},"region":{"a1":"14","a2":"1105","a3":"110503"},"meta":{"pop":"36436","dem":"20","tz":"Europe/Lisbon"}},{"id":"2269946","name":"Carvoeiro","ascii_name":"Carvoeiro","lat":"37.09736","lon":"-8.46846","country":"PT","lastUpdated":"2018-02-12","type":{"class":"P","code":"PPL"},"region":{"a1":"09","a2":"0806","a3":"080605"},"meta":{"pop":"2784","dem":"42","tz":"Europe/Lisbon"}},{"id":"2270023","name":"Cartaxo","ascii_name":"Cartaxo","lat":"39.16022","lon":"-8.78741","country":"PT","lastUpdated":"2018-04-30","type":{"class":"P","code":"PPLA2"},"region":{"a1":"18","a2":"1406","a3":"140601"},"meta":{"pop":"10502","dem":"59","tz":"Europe/Lisbon"}},{"id":"2270084","name":"Carregado","ascii_name":"Carregado","lat":"39.02362","lon":"-8.97692","country":"PT","lastUpdated":"2012-01-17","type":{"class":"P","code":"PPL"},"region":{"a1":"14","a2":"1101","a3":"110115"},"meta":{"pop":"10474","dem":"21","tz":"Europe/Lisbon"}},{"id":"2270157","name":"Carnaxide","ascii_name":"Carnaxide","lat":"38.72706","lon":"-9.24671","country":"PT","lastUpdated":"2012-01-17","type":{"class":"P","code":"PPL"},"region":{"a1":"14","a2":"1110","a3":"111003"},"meta":{"pop":"23698","dem":"82","tz":"Europe/Lisbon"}},{"id":"2270184","name":"Carcavelos","ascii_name":"Carcavelos","lat":"38.69105","lon":"-9.32215","country":"PT","lastUpdated":"2012-02-01","type":{"class":"P","code":"PPL"},"region":{"a1":"14","a2":"1110","a3":"111004"},"meta":{"pop":"20366","dem":"30","tz":"Europe/Lisbon"}},{"id":"2270211","name":"Caranguejeira","ascii_name":"Caranguejeira","lat":"39.74619","lon":"-8.7074","country":"PT","lastUpdated":"2012-02-01","type":{"class":"P","code":"PPL"},"region":{"a1":"13","a2":"1009","a3":"100907"},"meta":{"pop":"5248","dem":"129","tz":"Europe/Lisbon"}},{"id":"2270229","name":"Caparica","ascii_name":"Caparica","lat":"38.66179","lon":"-9.20032","country":"PT","lastUpdated":"2018-02-06","type":{"class":"P","code":"PPL"},"region":{"a1":"19","a2":"1503","a3":"150302"},"meta":{"pop":"21167","dem":"98","tz":"Europe/Lisbon"}},{"id":"2270258","name":"Caniço","ascii_name":"Canico","lat":"32.65078","lon":"-16.83749","country":"PT","lastUpdated":"2019-10-10","type":{"class":"P","code":"PPLA3"},"region":{"a1":"10","a2":"3108","a3":"310803"},"meta":{"pop":"23368","dem":"216","tz":"Atlantic/Madeira"}},{"id":"2270266","name":"Caniçal","ascii_name":"Canical","lat":"32.73834","lon":"-16.73836","country":"PT","lastUpdated":"2011-09-04","type":{"class":"P","code":"PPL"},"region":{"a1":"10","a2":"3104","a3":"310402"},"meta":{"pop":"3893","dem":"21","tz":"Atlantic/Madeira"}},{"id":"2270273","name":"Canhas","ascii_name":"Canhas","lat":"32.69465","lon":"-17.09867","country":"PT","lastUpdated":"2018-03-01","type":{"class":"P","code":"PPL"},"region":{"a1":"10","a2":"3105","a3":"310503"},"meta":{"pop":"3769","dem":"364","tz":"Atlantic/Madeira"}},{"id":"2270290","name":"Caneças","ascii_name":"Canecas","lat":"38.81321","lon":"-9.22679","country":"PT","lastUpdated":"2016-03-10","type":{"class":"P","code":"PPL"},"region":{"a1":"14","a2":"1116","a3":"111601"},"meta":{"pop":"10978","dem":"234","tz":"Europe/Lisbon"}},{"id":"2270336","name":"Campo Maior","ascii_name":"Campo Maior","lat":"39.01774","lon":"-7.06497","country":"PT","lastUpdated":"2018-04-30","type":{"class":"P","code":"PPLA2"},"region":{"a1":"16","a2":"1204","a3":"120403"},"meta":{"pop":"8235","dem":"292","tz":"Europe/Lisbon"}},{"id":"2270357","name":"Campelos","ascii_name":"Campelos","lat":"39.19678","lon":"-9.23519","country":"PT","lastUpdated":"2018-07-05","type":{"class":"P","code":"PPL"},"region":{"a1":"14","a2":"1113","a3":"111302"},"meta":{"pop":"3667","dem":"109","tz":"Europe/Lisbon"}},{"id":"2270361","name":"Campanário","ascii_name":"Campanario","lat":"32.66578","lon":"-17.03576","country":"PT","lastUpdated":"2011-10-21","type":{"class":"P","code":"PPL"},"region":{"a1":"10","a2":"3107","a3":"310701"},"meta":{"pop":"3987","dem":"234","tz":"Atlantic/Madeira"}},{"id":"2270377","name":"Camarate","ascii_name":"Camarate","lat":"38.80358","lon":"-9.12809","country":"PT","lastUpdated":"2012-01-17","type":{"class":"P","code":"PPL"},"region":{"a1":"14","a2":"1107","a3":"110703"},"meta":{"pop":"20177","dem":"108","tz":"Europe/Lisbon"}},{"id":"2270380","name":"Câmara de Lobos","ascii_name":"Camara de Lobos","lat":"32.65043","lon":"-16.97718","country":"PT","lastUpdated":"2018-02-09","type":{"class":"P","code":"PPL"},"region":{"a1":"10","a2":"3102","a3":"310201"},"meta":{"pop":"32209","dem":"83","tz":"Atlantic/Madeira"}},{"id":"2270386","name":"Camacha","ascii_name":"Camacha","lat":"32.67919","lon":"-16.84462","country":"PT","lastUpdated":"2011-09-04","type":{"class":"P","code":"PPL"},"region":{"a1":"10","a2":"3108","a3":"310802"},"meta":{"pop":"7991","dem":"703","tz":"Atlantic/Madeira"}},{"id":"2270408","name":"Calheta","ascii_name":"Calheta","lat":"32.71667","lon":"-17.18333","country":"PT","lastUpdated":"2012-01-17","type":{"class":"P","code":"PPL"},"region":{"a1":"10"},"meta":{"pop":"1618","dem":"-9999","tz":"Atlantic/Madeira"}},{"id":"2270437","name":"Caldas da Rainha","ascii_name":"Caldas da Rainha","lat":"39.40326","lon":"-9.13839","country":"PT","lastUpdated":"2018-02-08","type":{"class":"P","code":"PPLA2"},"region":{"a1":"13","a2":"1006","a3":"100603"},"meta":{"pop":"27378","dem":"60","tz":"Europe/Lisbon"}},{"id":"2270475","name":"Cadaval","ascii_name":"Cadaval","lat":"39.24298","lon":"-9.10327","country":"PT","lastUpdated":"2018-08-24","type":{"class":"P","code":"PPLA2"},"region":{"a1":"14","a2":"1104","a3":"110402"},"meta":{"pop":"2500","dem":"105","tz":"Europe/Lisbon"}},{"id":"2270479","name":"Cadafais","ascii_name":"Cadafais","lat":"39.00461","lon":"-9.00419","country":"PT","lastUpdated":"2018-06-26","type":{"class":"P","code":"PPL"},"region":{"a1":"14","a2":"1101","a3":"110105"},"meta":{"pop":"1687","dem":"32","tz":"Europe/Lisbon"}},{"id":"2270486","name":"Cacilhas","ascii_name":"Cacilhas","lat":"38.68638","lon":"-9.14938","country":"PT","lastUpdated":"2018-02-11","type":{"class":"P","code":"PPL"},"region":{"a1":"19","a2":"1503","a3":"150306"},"meta":{"pop":"6494","dem":"20","tz":"Europe/Lisbon"}},{"id":"2270503","name":"Cacém","ascii_name":"Cacem","lat":"38.76698","lon":"-9.29793","country":"PT","lastUpdated":"2012-02-01","type":{"class":"P","code":"PPL"},"region":{"a1":"14","a2":"1111","a3":"111118"},"meta":{"pop":"93982","dem":"123","tz":"Europe/Lisbon"}},{"id":"2270581","name":"Cabeça Gorda","ascii_name":"Cabeca Gorda","lat":"37.92401","lon":"-7.7929","country":"PT","lastUpdated":"2018-02-12","type":{"class":"P","code":"PPL"},"region":{"a1":"03","a2":"0205","a3":"020504"},"meta":{"pop":"1386","dem":"189","tz":"Europe/Lisbon"}},{"id":"2270607","name":"Cabanas de Torres","ascii_name":"Cabanas de Torres","lat":"39.15581","lon":"-9.06588","country":"PT","lastUpdated":"2018-05-22","type":{"class":"P","code":"PPL"},"region":{"a1":"14","a2":"1101","a3":"110104"},"meta":{"pop":"1018","dem":"169","tz":"Europe/Lisbon"}},{"id":"2270649","name":"Bucelas","ascii_name":"Bucelas","lat":"38.90193","lon":"-9.11885","country":"PT","lastUpdated":"2012-01-17","type":{"class":"P","code":"PPL"},"region":{"a1":"14","a2":"1107","a3":"110702"},"meta":{"pop":"4614","dem":"91","tz":"Europe/Lisbon"}},{"id":"2270755","name":"Borba","ascii_name":"Borba","lat":"38.80553","lon":"-7.45465","country":"PT","lastUpdated":"2014-04-06","type":{"class":"P","code":"PPLA2"},"region":{"a1":"08","a2":"0703","a3":"070301"},"meta":{"pop":"4586","dem":"403","tz":"Europe/Lisbon"}},{"id":"2270770","name":"Bombarral","ascii_name":"Bombarral","lat":"39.26723","lon":"-9.15795","country":"PT","lastUpdated":"2014-04-06","type":{"class":"P","code":"PPLA2"},"region":{"a1":"13","a2":"1005","a3":"100501"},"meta":{"pop":"5852","dem":"47","tz":"Europe/Lisbon"}},{"id":"2270774","name":"Boliqueime","ascii_name":"Boliqueime","lat":"37.13718","lon":"-8.1582","country":"PT","lastUpdated":"2012-01-17","type":{"class":"P","code":"PPL"},"region":{"a1":"09","a2":"0808","a3":"080804"},"meta":{"pop":"4470","dem":"120","tz":"Europe/Lisbon"}},{"id":"2270813","name":"Bobadela","ascii_name":"Bobadela","lat":"38.80774","lon":"-9.09925","country":"PT","lastUpdated":"2011-08-28","type":{"class":"P","code":"PPL"},"region":{"a1":"14","a2":"1107","a3":"110722"},"meta":{"pop":"8399","dem":"44","tz":"Europe/Lisbon"}},{"id":"2270814","name":"Boavista dos Pinheiros","ascii_name":"Boavista dos Pinheiros","lat":"37.58058","lon":"-8.66441","country":"PT","lastUpdated":"2018-05-16","type":{"class":"P","code":"PPL"},"region":{"a1":"03","a2":"0211","a3":"021116"},"meta":{"pop":"1633","dem":"120","tz":"Europe/Lisbon"}},