[{"id":"3084876","name":"Stare Kurowo","ascii_name":"Stare Kurowo","lat":"52.85669","lon":"15.67749","country":"PL","lastUpdated":"2010-10-16","type":{"class":"P","code":"PPLA3"},"region":{"a1":"76","a2":"0806","a3":"080603"},"meta":{"pop":"2100","dem":"34","tz":"Europe/Warsaw"}},{"id":"3084890","name":"Stare Czarnowo","ascii_name":"Stare Czarnowo","lat":"53.27861","lon":"14.77906","country":"PL","cc2":"PL","lastUpdated":"2010-10-16","type":{"class":"P","code":"PPLA3"},"region":{"a1":"87","a2":"3206","a3":"320607"},"meta":{"pop":"520","dem":"39","tz":"Europe/Warsaw"}},{"id":"3084900","name":"Stare Bogaczowice","ascii_name":"Stare Bogaczowice","lat":"50.84752","lon":"16.19308","country":"PL","lastUpdated":"2010-09-12","type":{"class":"P","code":"PPL"},"region":{"a1":"72","a2":"0221","a3":"022107"},"meta":{"pop":"1450","dem":"367","tz":"Europe/Warsaw"}},{"id":"3084912","name":"Starcza","ascii_name":"Starcza","lat":"50.66421","lon":"19.0418","country":"PL","lastUpdated":"2010-09-06","type":{"class":"P","code":"PPL"},"region":{"a1":"83","a2":"2404","a3":"240416"},"meta":{"pop":"1232","dem":"285","tz":"Europe/Warsaw"}},{"id":"3084953","name":"Stara Kiszewa","ascii_name":"Stara Kiszewa","lat":"53.99006","lon":"18.16958","country":"PL","cc2":"PL","lastUpdated":"2010-09-13","type":{"class":"P","code":"PPL"},"region":{"a1":"82","a2":"2206","a3":"220608"},"meta":{"pop":"1480","dem":"122","tz":"Europe/Warsaw"}},{"id":"3084954","name":"Stara Kamienica","ascii_name":"Stara Kamienica","lat":"50.91602","lon":"15.57286","country":"PL","cc2":"PL","lastUpdated":"2010-09-09","type":{"class":"P","code":"PPL"},"region":{"a1":"72","a2":"0206","a3":"020609"},"meta":{"pop":"1253","dem":"373","tz":"Europe/Warsaw"}},{"id":"3084965","name":"Stara Dąbrowa","ascii_name":"Stara Dabrowa","lat":"53.42191","lon":"15.14405","country":"PL","cc2":"PL","lastUpdated":"2010-09-22","type":{"class":"P","code":"PPLA3"},"region":{"a1":"87","a2":"3214","a3":"321409"},"meta":{"pop":"618","dem":"60","tz":"Europe/Warsaw"}},{"id":"3084977","name":"Stanowice","ascii_name":"Stanowice","lat":"50.93106","lon":"16.37426","country":"PL","lastUpdated":"2010-09-07","type":{"class":"P","code":"PPL"},"region":{"a1":"72","a2":"0219","a3":"021906"},"meta":{"pop":"1200","dem":"224","tz":"Europe/Warsaw"}},{"id":"3084978","name":"Stanowice","ascii_name":"Stanowice","lat":"50.13037","lon":"18.67084","country":"PL","lastUpdated":"2010-09-07","type":{"class":"P","code":"PPL"},"region":{"a1":"83","a2":"2412","a3":"241201"},"meta":{"pop":"2254","dem":"266","tz":"Europe/Warsaw"}},{"id":"3085018","name":"Stanisław Górny","ascii_name":"Stanislaw Gorny","lat":"49.91155","lon":"19.62931","country":"PL","lastUpdated":"2010-10-23","type":{"class":"P","code":"PPL"},"region":{"a1":"77","a2":"1218","a3":"121809"},"meta":{"pop":"1017","dem":"351","tz":"Europe/Warsaw"}},{"id":"3085019","name":"Stanisław Dolny","ascii_name":"Stanislaw Dolny","lat":"49.9047","lon":"19.65334","country":"PL","lastUpdated":"2010-10-23","type":{"class":"P","code":"PPL"},"region":{"a1":"77","a2":"1218","a3":"121803"},"meta":{"pop":"2135","dem":"332","tz":"Europe/Warsaw"}},{"id":"3085045","name":"Środa Wielkopolska","ascii_name":"Sroda Wielkopolska","lat":"52.22843","lon":"17.27617","country":"PL","lastUpdated":"2019-09-05","type":{"class":"P","code":"PPLA2"},"region":{"a1":"86","a2":"3025","a3":"302504"},"meta":{"pop":"21757","dem":"92","tz":"Europe/Warsaw"}},{"id":"3085047","name":"Środa Śląska","ascii_name":"Sroda Slaska","lat":"51.16406","lon":"16.59508","country":"PL","cc2":"PL","lastUpdated":"2010-10-21","type":{"class":"P","code":"PPLA2"},"region":{"a1":"72","a2":"0218","a3":"021804"},"meta":{"pop":"8912","dem":"127","tz":"Europe/Warsaw"}},{"id":"3085056","name":"Śrem","ascii_name":"Srem","lat":"52.08868","lon":"17.01508","country":"PL","lastUpdated":"2022-04-07","type":{"class":"P","code":"PPLA2"},"region":{"a1":"86","a2":"3026","a3":"302604"},"meta":{"pop":"30404","dem":"79","tz":"Europe/Warsaw"}},{"id":"3085069","name":"Spytkowice","ascii_name":"Spytkowice","lat":"49.99671","lon":"19.51103","country":"PL","lastUpdated":"2010-09-09","type":{"class":"P","code":"PPL"},"region":{"a1":"77","a2":"1218","a3":"121806"},"meta":{"pop":"3898","dem":"227","tz":"Europe/Warsaw"}},{"id":"3085070","name":"Spytkowice","ascii_name":"Spytkowice","lat":"49.57744","lon":"19.83341","country":"PL","lastUpdated":"2010-10-30","type":{"class":"P","code":"PPLA3"},"region":{"a1":"77","a2":"1211","a3":"121113"},"meta":{"pop":"3390","dem":"522","tz":"Europe/Warsaw"}},{"id":"3085119","name":"Sosnówka","ascii_name":"Sosnowka","lat":"50.8183","lon":"15.72315","country":"PL","lastUpdated":"2022-04-01","type":{"class":"P","code":"PPL"},"region":{"a1":"72","a2":"0206","a3":"020608"},"meta":{"pop":"1200","dem":"399","tz":"Europe/Warsaw"}},{"id":"3085128","name":"Sosnowiec","ascii_name":"Sosnowiec","lat":"50.28682","lon":"19.10385","country":"PL","lastUpdated":"2010-09-28","type":{"class":"P","code":"PPL"},"region":{"a1":"83","a2":"2475","a3":"247501"},"meta":{"pop":"227295","dem":"256","tz":"Europe/Warsaw"}},{"id":"3085130","name":"Sosnowice","ascii_name":"Sosnowice","lat":"49.93995","lon":"19.71514","country":"PL","lastUpdated":"2010-11-03","type":{"class":"P","code":"PPL"},"region":{"a1":"77","a2":"1218","a3":"121802"},"meta":{"pop":"1087","dem":"229","tz":"Europe/Warsaw"}},{"id":"3085134","name":"Sośno","ascii_name":"Sosno","lat":"53.38922","lon":"17.68713","country":"PL","lastUpdated":"2010-09-16","type":{"class":"P","code":"PPLA3"},"region":{"a1":"73","a2":"0413","a3":"041303"},"meta":{"pop":"980","dem":"130","tz":"Europe/Warsaw"}},{"id":"3085138","name":"Sośnie","ascii_name":"Sosnie","lat":"51.47315","lon":"17.63383","country":"PL","cc2":"PL","lastUpdated":"2010-10-16","type":{"class":"P","code":"PPLA3"},"region":{"a1":"86","a2":"3017","a3":"301708"},"meta":{"pop":"1300","dem":"128","tz":"Europe/Warsaw"}},{"id":"3085141","name":"Sośnicowice","ascii_name":"Sosnicowice","lat":"50.27214","lon":"18.52982","country":"PL","cc2":"PL","lastUpdated":"2010-09-28","type":{"class":"P","code":"PPLA3"},"region":{"a1":"83","a2":"2405","a3":"240506"},"meta":{"pop":"1691","dem":"244","tz":"Europe/Warsaw"}},{"id":"3085149","name":"Sopotnia Wielka","ascii_name":"Sopotnia Wielka","lat":"49.56853","lon":"19.28289","country":"PL","lastUpdated":"2010-09-06","type":{"class":"P","code":"PPL"},"region":{"a1":"83","a2":"2417","a3":"241704"},"meta":{"pop":"1667","dem":"738","tz":"Europe/Warsaw"}},{"id":"3085151","name":"Sopot","ascii_name":"Sopot","lat":"54.4418","lon":"18.56003","country":"PL","lastUpdated":"2021-11-19","type":{"class":"P","code":"PPL"},"region":{"a1":"82","a2":"2264","a3":"226401"},"meta":{"pop":"37089","dem":"20","tz":"Europe/Warsaw"}},{"id":"3085158","name":"Sompolno","ascii_name":"Sompolno","lat":"52.38832","lon":"18.50282","country":"PL","cc2":"PL","lastUpdated":"2014-06-26","type":{"class":"P","code":"PPLA3"},"region":{"a1":"86","a2":"3010","a3":"301010"},"meta":{"pop":"3610","dem":"97","tz":"Europe/Warsaw"}},{"id":"3085159","name":"Somonino","ascii_name":"Somonino","lat":"54.27555","lon":"18.19885","country":"PL","lastUpdated":"2010-09-13","type":{"class":"P","code":"PPL"},"region":{"a1":"82","a2":"2205","a3":"220505"},"meta":{"pop":"2206","dem":"165","tz":"Europe/Warsaw"}},{"id":"3085172","name":"Solec Kujawski","ascii_name":"Solec Kujawski","lat":"53.08371","lon":"18.22572","country":"PL","lastUpdated":"2010-09-13","type":{"class":"P","code":"PPL"},"region":{"a1":"73","a2":"0403","a3":"040308"},"meta":{"pop":"15125","dem":"36","tz":"Europe/Warsaw"}},{"id":"3085182","name":"Szczerbice","ascii_name":"Szczerbice","lat":"50.09416","lon":"18.44896","country":"PL","lastUpdated":"2010-09-07","type":{"class":"P","code":"PPL"},"region":{"a1":"83","a2":"2412","a3":"241202"},"meta":{"pop":"2142","dem":"242","tz":"Europe/Warsaw"}},{"id":"3085187","name":"Sól","ascii_name":"Sol","lat":"49.48764","lon":"19.04171","country":"PL","lastUpdated":"2010-09-06","type":{"class":"P","code":"PPL"},"region":{"a1":"83","a2":"2417","a3":"241711"},"meta":{"pop":"1334","dem":"548","tz":"Europe/Warsaw"}},{"id":"3085219","name":"Sokolniki","ascii_name":"Sokolniki","lat":"51.30738","lon":"18.33275","country":"PL","lastUpdated":"2010-10-16","type":{"class":"P","code":"PPLA3"},"region":{"a1":"74","a2":"1018","a3":"101806"},"meta":{"pop":"1200","dem":"181","tz":"Europe/Warsaw"}},{"id":"3085252","name":"Sobótka","ascii_name":"Sobotka","lat":"50.89992","lon":"16.74441","country":"PL","cc2":"PL","lastUpdated":"2020-10-24","type":{"class":"P","code":"PPLA3"},"region":{"a1":"72","a2":"0223","a3":"022307"},"meta":{"pop":"6906","dem":"183","tz":"Europe/Warsaw"}},{"id":"3085357","name":"Smolec","ascii_name":"Smolec","lat":"51.07322","lon":"16.88221","country":"PL","cc2":"PL","lastUpdated":"2010-10-19","type":{"class":"P","code":"PPL"},"region":{"a1":"72","a2":"0223","a3":"022304"},"meta":{"pop":"2795","dem":"129","tz":"Europe/Warsaw"}},{"id":"3085360","name":"Smołdzino","ascii_name":"Smoldzino","lat":"54.66318","lon":"17.21369","country":"PL","cc2":"PL","lastUpdated":"2015-09-08","type":{"class":"P","code":"PPLA3"},"region":{"a1":"82","a2":"2212","a3":"221209"},"meta":{"pop":"984","dem":"5","tz":"Europe/Warsaw"}},{"id":"3085384","name":"Śmiłowo","ascii_name":"Smilowo","lat":"53.13647","lon":"16.92075","country":"PL","lastUpdated":"2010-09-11","type":{"class":"P","code":"PPL"},"region":{"a1":"86","a2":"3019","a3":"301903"},"meta":{"pop":"1145","dem":"91","tz":"Europe/Warsaw"}},{"id":"3085391","name":"Śmigiel","ascii_name":"Smigiel","lat":"52.01339","lon":"16.52704","country":"PL","lastUpdated":"2020-06-21","type":{"class":"P","code":"PPLA3"},"region":{"a1":"86","a2":"3011","a3":"301105"},"meta":{"pop":"5531","dem":"103","tz":"Europe/Warsaw"}},{"id":"3085414","name":"Smętowo Graniczne","ascii_name":"Smetowo Graniczne","lat":"53.74638","lon":"18.68586","country":"PL","lastUpdated":"2010-09-13","type":{"class":"P","code":"PPL"},"region":{"a1":"82","a2":"2213","a3":"221311"},"meta":{"pop":"3000","dem":"84","tz":"Europe/Warsaw"}},{"id":"3085450","name":"Słupsk","ascii_name":"Slupsk","lat":"54.46405","lon":"17.02872","country":"PL","lastUpdated":"2019-09-05","type":{"class":"P","code":"PPLA2"},"region":{"a1":"82","a2":"2263","a3":"226301"},"meta":{"pop":"98608","dem":"18","tz":"Europe/Warsaw"}},{"id":"3085457","name":"Słupno","ascii_name":"Slupno","lat":"52.50588","lon":"19.83736","country":"PL","lastUpdated":"2010-09-18","type":{"class":"P","code":"PPLA3"},"region":{"a1":"78","a2":"1419","a3":"141912"},"meta":{"pop":"790","dem":"90","tz":"Europe/Warsaw"}},{"id":"3085477","name":"Słupia","ascii_name":"Slupia","lat":"51.85518","lon":"19.96997","country":"PL","lastUpdated":"2010-10-16","type":{"class":"P","code":"PPLA3"},"region":{"a1":"74","a2":"1015","a3":"101509"},"meta":{"pop":"812","dem":"165","tz":"Europe/Warsaw"}},{"id":"3085479","name":"Słupia pod Kępnem","ascii_name":"Slupia pod Kepnem","lat":"51.23924","lon":"18.04255","country":"PL","lastUpdated":"2010-09-10","type":{"class":"P","code":"PPL"},"region":{"a1":"86","a2":"3008","a3":"300801"},"meta":{"pop":"1436","dem":"188","tz":"Europe/Warsaw"}},{"id":"3085480","name":"Słupia","ascii_name":"Slupia","lat":"50.60073","lon":"19.97435","country":"PL","lastUpdated":"2010-10-13","type":{"class":"P","code":"PPLA3"},"region":{"a1":"84","a2":"2602","a3":"260207"},"meta":{"pop":"937","dem":"277","tz":"Europe/Warsaw"}},{"id":"3085481","name":"Słupca","ascii_name":"Slupca","lat":"52.28733","lon":"17.87192","country":"PL","lastUpdated":"2020-04-22","type":{"class":"P","code":"PPLA2"},"region":{"a1":"86","a2":"3023","a3":"302301"},"meta":{"pop":"14476","dem":"94","tz":"Europe/Warsaw"}},{"id":"3085494","name":"Słubice","ascii_name":"Slubice","lat":"52.36942","lon":"19.93881","country":"PL","lastUpdated":"2010-09-18","type":{"class":"P","code":"PPLA3"},"region":{"a1":"78","a2":"1419","a3":"141911"},"meta":{"pop":"2110","dem":"66","tz":"Europe/Warsaw"}},{"id":"3085495","name":"Słubice","ascii_name":"Slubice","lat":"52.35088","lon":"14.56065","country":"PL","lastUpdated":"2015-09-06","type":{"class":"P","code":"PPLA2"},"region":{"a1":"76","a2":"0805","a3":"080505"},"meta":{"pop":"17567","dem":"23","tz":"Europe/Warsaw"}},{"id":"3085520","name":"Słońsk","ascii_name":"Slonsk","lat":"52.56345","lon":"14.80526","country":"PL","cc2":"PL","lastUpdated":"2010-10-16","type":{"class":"P","code":"PPLA3"},"region":{"a1":"76","a2":"0807","a3":"080703"},"meta":{"pop":"3000","dem":"16","tz":"Europe/Warsaw"}},{"id":"3085565","name":"Śliwice","ascii_name":"Sliwice","lat":"53.70875","lon":"18.1737","country":"PL","lastUpdated":"2010-09-16","type":{"class":"P","code":"PPLA3"},"region":{"a1":"73","a2":"0416","a3":"041605"},"meta":{"pop":"4600","dem":"113","tz":"Europe/Warsaw"}},{"id":"3085577","name":"Ślesin","ascii_name":"Slesin","lat":"53.16514","lon":"17.70258","country":"PL","lastUpdated":"2010-10-15","type":{"class":"P","code":"PPL"},"region":{"a1":"73","a2":"0410","a3":"041003"},"meta":{"pop":"1500","dem":"96","tz":"Europe/Warsaw"}},{"id":"3085578","name":"Ślesin","ascii_name":"Slesin","lat":"52.37039","lon":"18.30644","country":"PL","lastUpdated":"2014-06-26","type":{"class":"P","code":"PPLA3"},"region":{"a1":"86","a2":"3010","a3":"301012"},"meta":{"pop":"3182","dem":"91","tz":"Europe/Warsaw"}},{"id":"3085584","name":"Ślemień","ascii_name":"Slemien","lat":"49.71826","lon":"19.36735","country":"PL","lastUpdated":"2010-09-06","type":{"class":"P","code":"PPL"},"region":{"a1":"83","a2":"2417","a3":"241712"},"meta":{"pop":"1977","dem":"444","tz":"Europe/Warsaw"}},{"id":"3085609","name":"Sławoborze","ascii_name":"Slawoborze","lat":"53.88992","lon":"15.70667","country":"PL","cc2":"PL","lastUpdated":"2010-09-07","type":{"class":"P","code":"PPL"},"region":{"a1":"87","a2":"3216","a3":"321605"},"meta":{"pop":"2009","dem":"49","tz":"Europe/Warsaw"}},{"id":"3085610","name":"Sławno","ascii_name":"Slawno","lat":"54.36276","lon":"16.67888","country":"PL","lastUpdated":"2019-09-05","type":{"class":"P","code":"PPLA2"},"region":{"a1":"87","a2":"3213","a3":"321302"},"meta":{"pop":"13415","dem":"21","tz":"Europe/Warsaw"}},{"id":"3085616","name":"Sławków","ascii_name":"Slawkow","lat":"50.29943","lon":"19.38967","country":"PL","lastUpdated":"2010-10-20","type":{"class":"P","code":"PPLA3"},"region":{"a1":"83","a2":"2401","a3":"240108"},"meta":{"pop":"6901","dem":"308","tz":"Europe/Warsaw"}},{"id":"3085622","name":"Sławięcice","ascii_name":"Slawiecice","lat":"50.37207","lon":"18.32176","country":"PL","cc2":"PL","lastUpdated":"2010-09-25","type":{"class":"P","code":"PPLX"},"region":{"a1":"79","a2":"1603","a3":"160301"},"meta":{"pop":"2770","dem":"189","tz":"Europe/Warsaw"}},{"id":"3085637","name":"Sława","ascii_name":"Slawa","lat":"51.87623","lon":"16.07205","country":"PL","cc2":"PL","lastUpdated":"2010-10-16","type":{"class":"P","code":"PPLA3"},"region":{"a1":"76","a2":"0812","a3":"081201"},"meta":{"pop":"4038","dem":"59","tz":"Europe/Warsaw"}},{"id":"3085656","name":"Skwierzyna","ascii_name":"Skwierzyna","lat":"52.59914","lon":"15.50652","country":"PL","lastUpdated":"2020-04-22","type":{"class":"P","code":"PPLA3"},"region":{"a1":"76","a2":"0803","a3":"080305"},"meta":{"pop":"10051","dem":"30","tz":"Europe/Warsaw"}},{"id":"3085663","name":"Skulsk","ascii_name":"Skulsk","lat":"52.482","lon":"18.33112","country":"PL","cc2":"PL","lastUpdated":"2010-10-15","type":{"class":"P","code":"PPLA3"},"region":{"a1":"86","a2":"3010","a3":"301009"},"meta":{"pop":"1400","dem":"88","tz":"Europe/Warsaw"}},{"id":"3085668","name":"Skrzyszów","ascii_name":"Skrzyszow","lat":"49.94873","lon":"18.48879","country":"PL","lastUpdated":"2010-09-06","type":{"class":"P","code":"PPL"},"region":{"a1":"83","a2":"2415","a3":"241505"},"meta":{"pop":"3429","dem":"258","tz":"Europe/Warsaw"}},{"id":"3085709","name":"Skrwilno","ascii_name":"Skrwilno","lat":"53.01607","lon":"19.62364","country":"PL","lastUpdated":"2010-09-15","type":{"class":"P","code":"PPLA3"},"region":{"a1":"73","a2":"0412","a3":"041205"},"meta":{"pop":"1624","dem":"120","tz":"Europe/Warsaw"}},{"id":"3085757","name":"Skoroszyce","ascii_name":"Skoroszyce","lat":"50.59648","lon":"17.38243","country":"PL","cc2":"PL","lastUpdated":"2010-09-25","type":{"class":"P","code":"PPLA3"},"region":{"a1":"79","a2":"1607","a3":"160709"},"meta":{"pop":"1400","dem":"179","tz":"Europe/Warsaw"}},{"id":"3085761","name":"Skorogoszcz","ascii_name":"Skorogoszcz","lat":"50.75916","lon":"17.68198","country":"PL","cc2":"PL","lastUpdated":"2010-10-21","type":{"class":"P","code":"PPL"},"region":{"a1":"79","a2":"1601","a3":"160104"},"meta":{"pop":"1200","dem":"145","tz":"Europe/Warsaw"}},{"id":"3085766","name":"Skórcz","ascii_name":"Skorcz","lat":"53.79436","lon":"18.52561","country":"PL","lastUpdated":"2010-09-13","type":{"class":"P","code":"PPL"},"region":{"a1":"82","a2":"2213","a3":"221302"},"meta":{"pop":"3564","dem":"84","tz":"Europe/Warsaw"}},{"id":"3085771","name":"Skomlin","ascii_name":"Skomlin","lat":"51.17089","lon":"18.38699","country":"PL","lastUpdated":"2010-09-06","type":{"class":"P","code":"PPL"},"region":{"a1":"74","a2":"1017","a3":"101708"},"meta":{"pop":"1656","dem":"185","tz":"Europe/Warsaw"}},{"id":"3085772","name":"Skomielna Czarna","ascii_name":"Skomielna Czarna","lat":"49.72709","lon":"19.83633","country":"PL","cc2":"PL","lastUpdated":"2010-09-27","type":{"class":"P","code":"PPL"},"region":{"a1":"77","a2":"1209","a3":"120908"},"meta":{"pop":"1400","dem":"477","tz":"Europe/Warsaw"}},{"id":"3085781","name":"Skoki","ascii_name":"Skoki","lat":"52.67222","lon":"17.16107","country":"PL","cc2":"PL","lastUpdated":"2019-09-05","type":{"class":"P","code":"PPLA3"},"region":{"a1":"86","a2":"3028","a3":"302805"},"meta":{"pop":"3972","dem":"85","tz":"Europe/Warsaw"}},{"id":"3085786","name":"Skoczów","ascii_name":"Skoczow","lat":"49.80089","lon":"18.7877","country":"PL","lastUpdated":"2011-07-31","type":{"class":"P","code":"PPLA3"},"region":{"a1":"83","a2":"2403","a3":"240310"},"meta":{"pop":"14810","dem":"293","tz":"Europe/Warsaw"}},{"id":"3085802","name":"Skępe","ascii_name":"Skepe","lat":"52.86798","lon":"19.35604","country":"PL","lastUpdated":"2010-09-15","type":{"class":"P","code":"PPLA3"},"region":{"a1":"73","a2":"0408","a3":"040807"},"meta":{"pop":"3539","dem":"116","tz":"Europe/Warsaw"}},{"id":"3085805","name":"Skawinki","ascii_name":"Skawinki","lat":"49.82281","lon":"19.71256","country":"PL","lastUpdated":"2010-10-23","type":{"class":"P","code":"PPL"},"region":{"a1":"77","a2":"1218","a3":"121804"},"meta":{"pop":"1600","dem":"376","tz":"Europe/Warsaw"}},{"id":"3085807","name":"Skawina","ascii_name":"Skawina","lat":"49.97524","lon":"19.82869","country":"PL","lastUpdated":"2021-02-03","type":{"class":"P","code":"PPL"},"region":{"a1":"77","a2":"1206","a3":"120611"},"meta":{"pop":"23647","dem":"218","tz":"Europe/Warsaw"}},{"id":"3085809","name":"Skawica","ascii_name":"Skawica","lat":"49.67718","lon":"19.62321","country":"PL","lastUpdated":"2010-09-22","type":{"class":"P","code":"PPL"},"region":{"a1":"77","a2":"1215","a3":"121508"},"meta":{"pop":"2600","dem":"453","tz":"Europe/Warsaw"}},{"id":"3085826","name":"Skarszewy","ascii_name":"Skarszewy","lat":"54.06911","lon":"18.44416","country":"PL","lastUpdated":"2010-09-13","type":{"class":"P","code":"PPL"},"region":{"a1":"82","a2":"2213","a3":"221309"},"meta":{"pop":"6942","dem":"112","tz":"Europe/Warsaw"}},{"id":"3085848","name":"Skąpe","ascii_name":"Skape","lat":"52.15292","lon":"15.45845","country":"PL","cc2":"PL","lastUpdated":"2020-04-22","type":{"class":"P","code":"PPLA3"},"region":{"a1":"76","a2":"0808","a3":"080803"},"meta":{"pop":"421","dem":"80","tz":"Europe/Warsaw"}},{"id":"3085855","name":"Skalmierzyce","ascii_name":"Skalmierzyce","lat":"51.70097","lon":"17.96333","country":"PL","cc2":"PL","lastUpdated":"2010-09-06","type":{"class":"P","code":"PPL"},"region":{"a1":"86","a2":"3017","a3":"301702"},"meta":{"pop":"1789","dem":"128","tz":"Europe/Warsaw"}},{"id":"3085867","name":"Skała","ascii_name":"Skala","lat":"50.23052","lon":"19.85363","country":"PL","lastUpdated":"2010-10-20","type":{"class":"P","code":"PPLA3"},"region":{"a1":"77","a2":"1206","a3":"120610"},"meta":{"pop":"3635","dem":"417","tz":"Europe/Warsaw"}},{"id":"3085925","name":"Siewierz","ascii_name":"Siewierz","lat":"50.46657","lon":"19.23028","country":"PL","lastUpdated":"2010-09-21","type":{"class":"P","code":"PPLA3"},"region":{"a1":"83","a2":"2401","a3":"240107"},"meta":{"pop":"5417","dem":"299","tz":"Europe/Warsaw"}},{"id":"3085941","name":"Sierpc","ascii_name":"Sierpc","lat":"52.8568","lon":"19.66913","country":"PL","lastUpdated":"2010-09-19","type":{"class":"P","code":"PPLA2"},"region":{"a1":"78","a2":"1427","a3":"142701"},"meta":{"pop":"18866","dem":"106","tz":"Europe/Warsaw"}},{"id":"3085945","name":"Sieroszewice","ascii_name":"Sieroszewice","lat":"51.63347","lon":"17.972","country":"PL","lastUpdated":"2010-10-16","type":{"class":"P","code":"PPLA3"},"region":{"a1":"86","a2":"3017","a3":"301707"},"meta":{"pop":"1014","dem":"149","tz":"Europe/Warsaw"}},{"id":"3085970","name":"Sierakowice","ascii_name":"Sierakowice","lat":"54.3461","lon":"17.89252","country":"PL","lastUpdated":"2010-09-13","type":{"class":"P","code":"PPL"},"region":{"a1":"82","a2":"2205","a3":"220504"},"meta":{"pop":"7068","dem":"215","tz":"Europe/Warsaw"}},{"id":"3085974","name":"Sieraków","ascii_name":"Sierakow","lat":"52.65134","lon":"16.08047","country":"PL","lastUpdated":"2019-09-05","type":{"class":"P","code":"PPLA3"},"region":{"a1":"86","a2":"3014","a3":"301404"},"meta":{"pop":"6090","dem":"42","tz":"Europe/Warsaw"}},{"id":"3085976","name":"Sieraków Śląski","ascii_name":"Sierakow Slaski","lat":"50.8029","lon":"18.57548","country":"PL","cc2":"PL","lastUpdated":"2010-09-25","type":{"class":"P","code":"PPL"},"region":{"a1":"83","a2":"2407","a3":"240703"},"meta":{"pop":"1704","dem":"247","tz":"Europe/Warsaw"}},{"id":"3085978","name":"Sieradz","ascii_name":"Sieradz","lat":"51.59584","lon":"18.73023","country":"PL","lastUpdated":"2010-10-16","type":{"class":"P","code":"PPLA2"},"region":{"a1":"74","a2":"1014","a3":"101401"},"meta":{"pop":"44436","dem":"137","tz":"Europe/Warsaw"}},{"id":"3085980","name":"Siepraw","ascii_name":"Siepraw","lat":"49.91437","lon":"19.95864","country":"PL","lastUpdated":"2010-11-03","type":{"class":"P","code":"PPLA3"},"region":{"a1":"77","a2":"1209","a3":"120906"},"meta":{"pop":"4237","dem":"274","tz":"Europe/Warsaw"}},{"id":"3085999","name":"Sieniawa Żarska","ascii_name":"Sieniawa Zarska","lat":"51.64007","lon":"15.06045","country":"PL","cc2":"PL","lastUpdated":"2010-09-25","type":{"class":"P","code":"PPL"},"region":{"a1":"76","a2":"0811","a3":"081110"},"meta":{"pop":"1090","dem":"150","tz":"Europe/Warsaw"}},{"id":"3086000","name":"Sieniawa","ascii_name":"Sieniawa","lat":"52.36344","lon":"15.37768","country":"PL","lastUpdated":"2014-05-06","type":{"class":"P","code":"PPL"},"region":{"a1":"76","a2":"0808","a3":"080802"},"meta":{"pop":"1100","dem":"134","tz":"Europe/Warsaw"}},{"id":"3086001","name":"Sieniawa","ascii_name":"Sieniawa","lat":"49.53947","lon":"19.93014","country":"PL","lastUpdated":"2010-09-25","type":{"class":"P","code":"PPL"},"region":{"a1":"77","a2":"1211","a3":"121111"},"meta":{"pop":"1929","dem":"625","tz":"Europe/Warsaw"}},{"id":"3086010","name":"Siemkowice","ascii_name":"Siemkowice","lat":"51.20194","lon":"18.8988","country":"PL","lastUpdated":"2010-09-06","type":{"class":"P","code":"PPL"},"region":{"a1":"74","a2":"1009","a3":"100906"},"meta":{"pop":"1100","dem":"190","tz":"Europe/Warsaw"}},{"id":"3086024","name":"Siemianowice Śląskie","ascii_name":"Siemianowice Slaskie","lat":"50.32738","lon":"19.02901","country":"PL","lastUpdated":"2010-10-17","type":{"class":"P","code":"PPLA2"},"region":{"a1":"83","a2":"2474","a3":"247401"},"meta":{"pop":"73121","dem":"270","tz":"Europe/Warsaw"}},{"id":"3086045","name":"Siekierczyn","ascii_name":"Siekierczyn","lat":"51.12217","lon":"15.19375","country":"PL","lastUpdated":"2015-09-07","type":{"class":"P","code":"PPL"},"region":{"a1":"72","a2":"0210","a3":"021007"},"meta":{"pop":"1800","dem":"260","tz":"Europe/Warsaw"}},{"id":"3086054","name":"Siedlisko","ascii_name":"Siedlisko","lat":"51.76864","lon":"15.81396","country":"PL","cc2":"PL","lastUpdated":"2020-04-22","type":{"class":"P","code":"PPLA3"},"region":{"a1":"76","a2":"0804","a3":"080408"},"meta":{"pop":"1800","dem":"86","tz":"Europe/Warsaw"}},{"id":"3086080","name":"Siedlec","ascii_name":"Siedlec","lat":"52.13781","lon":"16.00279","country":"PL","lastUpdated":"2020-04-22","type":{"class":"P","code":"PPLA3"},"region":{"a1":"86","a2":"3029","a3":"302902"},"meta":{"pop":"1200","dem":"61","tz":"Europe/Warsaw"}},{"id":"3086106","name":"Siechnice","ascii_name":"Siechnice","lat":"51.03384","lon":"17.14743","country":"PL","cc2":"PL","lastUpdated":"2010-09-27","type":{"class":"P","code":"PPLA3"},"region":{"a1":"72","a2":"0223","a3":"022308"},"meta":{"pop":"4264","dem":"120","tz":"Europe/Warsaw"}},{"id":"3086109","name":"Sidzina","ascii_name":"Sidzina","lat":"50.57375","lon":"17.44904","country":"PL","lastUpdated":"2010-09-22","type":{"class":"P","code":"PPL"},"region":{"a1":"79","a2":"1607","a3":"160709"},"meta":{"pop":"1022","dem":"169","tz":"Europe/Warsaw"}},{"id":"3086110","name":"Sidzina","ascii_name":"Sidzina","lat":"49.98732","lon":"19.87495","country":"PL","lastUpdated":"2010-09-22","type":{"class":"P","code":"PPLX"},"region":{"a1":"77","a2":"1261","a3":"126101"},"meta":{"pop":"2000","dem":"231","tz":"Europe/Warsaw"}},{"id":"3086111","name":"Sidzina","ascii_name":"Sidzina","lat":"49.59146","lon":"19.71119","country":"PL","lastUpdated":"2010-09-22","type":{"class":"P","code":"PPL"},"region":{"a1":"77","a2":"1215","a3":"121504"},"meta":{"pop":"3200","dem":"585","tz":"Europe/Warsaw"}},{"id":"3086118","name":"Sicienko","ascii_name":"Sicienko","lat":"53.20387","lon":"17.80051","country":"PL","lastUpdated":"2017-12-18","type":{"class":"P","code":"PPLA3"},"region":{"a1":"73","a2":"0403","a3":"040307"},"meta":{"pop":"800","dem":"103","tz":"Europe/Warsaw"}},{"id":"3086134","name":"Sianów","ascii_name":"Sianow","lat":"54.22646","lon":"16.29127","country":"PL","cc2":"PL","lastUpdated":"2011-07-31","type":{"class":"P","code":"PPLA3"},"region":{"a1":"87","a2":"3209","a3":"320907"},"meta":{"pop":"6606","dem":"7","tz":"Europe/Warsaw"}},{"id":"3086153","name":"Sępólno Krajeńskie","ascii_name":"Sepolno Krajenskie","lat":"53.45198","lon":"17.53169","country":"PL","lastUpdated":"2020-01-05","type":{"class":"P","code":"PPLA3"},"region":{"a1":"73","a2":"0413","a3":"041302"},"meta":{"pop":"9223","dem":"119","tz":"Europe/Warsaw"}},{"id":"3086181","name":"Sędziejowice","ascii_name":"Sedziejowice","lat":"51.50677","lon":"19.02763","country":"PL","lastUpdated":"2010-10-15","type":{"class":"P","code":"PPLA3"},"region":{"a1":"74","a2":"1003","a3":"100303"},"meta":{"pop":"840","dem":"171","tz":"Europe/Warsaw"}},{"id":"3086192","name":"Secemin","ascii_name":"Secemin","lat":"50.76676","lon":"19.83599","country":"PL","lastUpdated":"2010-09-06","type":{"class":"P","code":"PPL"},"region":{"a1":"84","a2":"2613","a3":"261305"},"meta":{"pop":"1600","dem":"242","tz":"Europe/Warsaw"}},{"id":"3086206","name":"Ścinawa","ascii_name":"Scinawa","lat":"51.41626","lon":"16.4251","country":"PL","cc2":"PL","lastUpdated":"2018-11-09","type":{"class":"P","code":"PPL"},"region":{"a1":"72","a2":"0211","a3":"021104"},"meta":{"pop":"5863","dem":"94","tz":"Europe/Warsaw"}},{"id":"3086253","name":"Sarnów","ascii_name":"Sarnow","lat":"50.3738","lon":"19.15061","country":"PL","lastUpdated":"2010-09-06","type":{"class":"P","code":"PPL"},"region":{"a1":"83","a2":"2401","a3":"240106"},"meta":{"pop":"1791","dem":"305","tz":"Europe/Warsaw"}},{"id":"3086278","name":"Sąspów","ascii_name":"Saspow","lat":"50.22887","lon":"19.77007","country":"PL","lastUpdated":"2010-10-17","type":{"class":"P","code":"PPL"},"region":{"a1":"77","a2":"1206","a3":"120604"},"meta":{"pop":"1358","dem":"453","tz":"Europe/Warsaw"}},{"id":"3086283","name":"Santok","ascii_name":"Santok","lat":"52.73785","lon":"15.41021","country":"PL","lastUpdated":"2020-04-22","type":{"class":"P","code":"PPLA3"},"region":{"a1":"76","a2":"0801","a3":"080106"},"meta":{"pop":"780","dem":"22","tz":"Europe/Warsaw"}},{"id":"3086288","name":"Sanniki","ascii_name":"Sanniki","lat":"52.33046","lon":"19.86766","country":"PL","lastUpdated":"2010-10-16","type":{"class":"P","code":"PPLA3"},"region":{"a1":"78","a2":"1404","a3":"140404"},"meta":{"pop":"2000","dem":"107","tz":"Europe/Warsaw"}},{"id":"3086291","name":"Sanka","ascii_name":"Sanka","lat":"50.06871","lon":"19.64596","country":"PL","lastUpdated":"2010-11-03","type":{"class":"P","code":"PPL"},"region":{"a1":"77","a2":"1206","a3":"120606"},"meta":{"pop":"1159","dem":"357","tz":"Europe/Warsaw"}},{"id":"3086371","name":"Sadlinki","ascii_name":"Sadlinki","lat":"53.66539","lon":"18.86807","country":"PL","lastUpdated":"2010-09-05","type":{"class":"P","code":"PPL"},"region":{"a1":"82","a2":"2207","a3":"220706"},"meta":{"pop":"1987","dem":"16","tz":"Europe/Warsaw"}},{"id":"3086377","name":"Sadki","ascii_name":"Sadki","lat":"53.16036","lon":"17.44912","country":"PL","lastUpdated":"2017-12-15","type":{"class":"P","code":"PPLA3"},"region":{"a1":"73","a2":"0410","a3":"041004"},"meta":{"pop":"2000","dem":"86","tz":"Europe/Warsaw"}},{"id":"3086379","name":"Sączów","ascii_name":"Saczow","lat":"50.4352","lon":"19.03038","country":"PL","lastUpdated":"2010-09-06","type":{"class":"P","code":"PPL"},"region":{"a1":"83","a2":"2401","a3":"240104"},"meta":{"pop":"1406","dem":"306","tz":"Europe/Warsaw"}},{"id":"3086391","name":"Rzyki","ascii_name":"Rzyki","lat":"49.81129","lon":"19.39619","country":"PL","lastUpdated":"2010-10-17","type":{"class":"P","code":"PPL"},"region":{"a1":"77","a2":"1218","a3":"121801"},"meta":{"pop":"3105","dem":"419","tz":"Europe/Warsaw"}},{"id":"3086398","name":"Rzozów","ascii_name":"Rzozow","lat":"49.95398","lon":"19.79668","country":"PL","lastUpdated":"2010-11-03","type":{"class":"P","code":"PPL"},"region":{"a1":"77","a2":"1206","a3":"120611"},"meta":{"pop":"1600","dem":"238","tz":"Europe/Warsaw"}},{"id":"3086399","name":"Rzgów Pierwszy","ascii_name":"Rzgow Pierwszy","lat":"52.15134","lon":"18.04976","country":"PL","lastUpdated":"2010-10-16","type":{"class":"P","code":"PPLA3"},"region":{"a1":"86","a2":"3010","a3":"301008"},"meta":{"pop":"627","dem":"89","tz":"Europe/Warsaw"}},{"id":"3086415","name":"Rzeszotary","ascii_name":"Rzeszotary","lat":"49.94625","lon":"19.9728","country":"PL","lastUpdated":"2010-11-03","type":{"class":"P","code":"PPL"},"region":{"a1":"77","a2":"1206","a3":"120614"},"meta":{"pop":"2698","dem":"384","tz":"Europe/Warsaw"}},{"id":"3086435","name":"Rzepin","ascii_name":"Rzepin","lat":"52.3464","lon":"14.83227","country":"PL","cc2":"PL","lastUpdated":"2015-08-27","type":{"class":"P","code":"PPLA3"},"region":{"a1":"76","a2":"0805","a3":"080504"},"meta":{"pop":"6488","dem":"59","tz":"Europe/Warsaw"}},{"id":"3086469","name":"Rzeczenica","ascii_name":"Rzeczenica","lat":"53.7579","lon":"17.10752","country":"PL","cc2":"PL","lastUpdated":"2010-09-12","type":{"class":"P","code":"PPL"},"region":{"a1":"82","a2":"2203","a3":"220307"},"meta":{"pop":"1566","dem":"150","tz":"Europe/Warsaw"}},{"id":"3086480","name":"Rząska","ascii_name":"Rzaska","lat":"50.09713","lon":"19.84509","country":"PL","lastUpdated":"2010-10-17","type":{"class":"P","code":"PPL"},"region":{"a1":"77","a2":"1206","a3":"120616"},"meta":{"pop":"2082","dem":"245","tz":"Europe/Warsaw"}},{"id":"3086511","name":"Rypin","ascii_name":"Rypin","lat":"53.06603","lon":"19.40941","country":"PL","lastUpdated":"2010-09-15","type":{"class":"P","code":"PPLA2"},"region":{"a1":"73","a2":"0412","a3":"041201"},"meta":{"pop":"16589","dem":"92","tz":"Europe/Warsaw"}},{"id":"3086523","name":"Rymań","ascii_name":"Ryman","lat":"53.94391","lon":"15.52866","country":"PL","cc2":"PL","lastUpdated":"2010-09-07","type":{"class":"P","code":"PPL"},"region":{"a1":"87","a2":"3208","a3":"320805"},"meta":{"pop":"1110","dem":"52","tz":"Europe/Warsaw"}},{"id":"3086524","name":"Ryjewo","ascii_name":"Ryjewo","lat":"53.84463","lon":"18.96077","country":"PL","lastUpdated":"2010-09-05","type":{"class":"P","code":"PPL"},"region":{"a1":"82","a2":"2207","a3":"220705"},"meta":{"pop":"2914","dem":"19","tz":"Europe/Warsaw"}},{"id":"3086527","name":"Rydzyna","ascii_name":"Rydzyna","lat":"51.78651","lon":"16.66761","country":"PL","lastUpdated":"2020-04-22","type":{"class":"P","code":"PPLA3"},"region":{"a1":"86","a2":"3013","a3":"301304"},"meta":{"pop":"2696","dem":"88","tz":"Europe/Warsaw"}},{"id":"3086531","name":"Rydułtowy","ascii_name":"Rydultowy","lat":"50.05857","lon":"18.41703","country":"PL","lastUpdated":"2010-09-21","type":{"class":"P","code":"PPLA3"},"region":{"a1":"83","a2":"2415","a3":"241503"},"meta":{"pop":"21887","dem":"284","tz":"Europe/Warsaw"}},{"id":"3086533","name":"Ryczywół","ascii_name":"Ryczywol","lat":"52.81324","lon":"16.83114","country":"PL","lastUpdated":"2020-04-22","type":{"class":"P","code":"PPLA3"},"region":{"a1":"86","a2":"3016","a3":"301603"},"meta":{"pop":"2000","dem":"72","tz":"Europe/Warsaw"}},{"id":"3086536","name":"Ryczów","ascii_name":"Ryczow","lat":"49.98103","lon":"19.55017","country":"PL","lastUpdated":"2010-10-17","type":{"class":"P","code":"PPL"},"region":{"a1":"77","a2":"1218","a3":"121806"},"meta":{"pop":"2605","dem":"235","tz":"Europe/Warsaw"}},{"id":"3086541","name":"Rychwał","ascii_name":"Rychwal","lat":"52.07149","lon":"18.1651","country":"PL","lastUpdated":"2010-10-16","type":{"class":"P","code":"PPLA3"},"region":{"a1":"86","a2":"3010","a3":"301007"},"meta":{"pop":"2370","dem":"105","tz":"Europe/Warsaw"}},{"id":"3086544","name":"Rychtal","ascii_name":"Rychtal","lat":"51.14533","lon":"17.85132","country":"PL","lastUpdated":"2010-10-16","type":{"class":"P","code":"PPLA3"},"region":{"a1":"86","a2":"3008","a3":"300806"},"meta":{"pop":"1300","dem":"167","tz":"Europe/Warsaw"}},{"id":"3086565","name":"Rycerka Górna","ascii_name":"Rycerka Gorna","lat":"49.44436","lon":"19.01596","country":"PL","lastUpdated":"2010-10-23","type":{"class":"P","code":"PPL"},"region":{"a1":"83","a2":"2417","a3":"241711"},"meta":{"pop":"1602","dem":"661","tz":"Europe/Warsaw"}},{"id":"3086566","name":"Rycerka Dolna","ascii_name":"Rycerka Dolna","lat":"49.47805","lon":"19.06162","country":"PL","lastUpdated":"2010-10-23","type":{"class":"P","code":"PPL"},"region":{"a1":"83","a2":"2417","a3":"241711"},"meta":{"pop":"1475","dem":"553","tz":"Europe/Warsaw"}},{"id":"3086574","name":"Rybno","ascii_name":"Rybno","lat":"53.38348","lon":"19.93229","country":"PL","lastUpdated":"2010-09-09","type":{"class":"P","code":"PPL"},"region":{"a1":"85","a2":"2803","a3":"280306"},"meta":{"pop":"2558","dem":"154","tz":"Europe/Warsaw"}},{"id":"3086586","name":"Rybnik","ascii_name":"Rybnik","lat":"50.09713","lon":"18.54179","country":"PL","lastUpdated":"2019-09-05","type":{"class":"P","code":"PPLA2"},"region":{"a1":"83","a2":"2473","a3":"247301"},"meta":{"pop":"142510","dem":"233","tz":"Europe/Warsaw"}},{"id":"3086608","name":"Rybarzowice","ascii_name":"Rybarzowice","lat":"49.72956","lon":"19.10162","country":"PL","lastUpdated":"2010-09-06","type":{"class":"P","code":"PPL"},"region":{"a1":"83","a2":"2402","a3":"240203"},"meta":{"pop":"3448","dem":"409","tz":"Europe/Warsaw"}},{"id":"3086638","name":"Rusocice","ascii_name":"Rusocice","lat":"49.99604","lon":"19.60648","country":"PL","lastUpdated":"2010-10-23","type":{"class":"P","code":"PPL"},"region":{"a1":"77","a2":"1206","a3":"120601"},"meta":{"pop":"1164","dem":"215","tz":"Europe/Warsaw"}},{"id":"3086654","name":"Rusiec","ascii_name":"Rusiec","lat":"51.32444","lon":"18.98506","country":"PL","lastUpdated":"2010-10-15","type":{"class":"P","code":"PPLA3"},"region":{"a1":"74","a2":"1001","a3":"100106"},"meta":{"pop":"1500","dem":"161","tz":"Europe/Warsaw"}},{"id":"3086706","name":"Rumia","ascii_name":"Rumia","lat":"54.57092","lon":"18.38802","country":"PL","lastUpdated":"2010-10-12","type":{"class":"P","code":"PPLA3"},"region":{"a1":"82","a2":"2215","a3":"221502"},"meta":{"pop":"44791","dem":"23","tz":"Europe/Warsaw"}},{"id":"3086720","name":"Rudziniec","ascii_name":"Rudziniec","lat":"50.35324","lon":"18.40914","country":"PL","cc2":"PL","lastUpdated":"2010-09-06","type":{"class":"P","code":"PPL"},"region":{"a1":"83","a2":"2405","a3":"240505"},"meta":{"pop":"1633","dem":"215","tz":"Europe/Warsaw"}},{"id":"3086725","name":"Rudziczka","ascii_name":"Rudziczka","lat":"50.03608","lon":"18.76225","country":"PL","lastUpdated":"2010-10-20","type":{"class":"P","code":"PPL"},"region":{"a1":"83","a2":"2410","a3":"241006"},"meta":{"pop":"1152","dem":"268","tz":"Europe/Warsaw"}},{"id":"3086732","name":"Rudy","ascii_name":"Rudy","lat":"50.19003","lon":"18.45334","country":"PL","cc2":"PL","lastUpdated":"2010-09-06","type":{"class":"P","code":"PPL"},"region":{"a1":"83","a2":"2411","a3":"241105"},"meta":{"pop":"2768","dem":"204","tz":"Europe/Warsaw"}},{"id":"3086752","name":"Rudniki","ascii_name":"Rudniki","lat":"50.87851","lon":"19.24616","country":"PL","lastUpdated":"2010-09-06","type":{"class":"P","code":"PPL"},"region":{"a1":"83","a2":"2404","a3":"240415"},"meta":{"pop":"1726","dem":"254","tz":"Europe/Warsaw"}},{"id":"3086754","name":"Rudniki","ascii_name":"Rudniki","lat":"50.52134","lon":"19.4313","country":"PL","lastUpdated":"2010-09-06","type":{"class":"P","code":"PPL"},"region":{"a1":"83","a2":"2416","a3":"241609"},"meta":{"pop":"1338","dem":"354","tz":"Europe/Warsaw"}},{"id":"3086759","name":"Rudnik","ascii_name":"Rudnik","lat":"50.12729","lon":"18.18598","country":"PL","cc2":"PL","lastUpdated":"2010-09-20","type":{"class":"P","code":"PPLA3"},"region":{"a1":"83","a2":"2411","a3":"241108"},"meta":{"pop":"916","dem":"204","tz":"Europe/Warsaw"}},{"id":"3086760","name":"Rudnik","ascii_name":"Rudnik","lat":"49.85243","lon":"19.8474","country":"PL","lastUpdated":"2010-09-20","type":{"class":"P","code":"PPL"},"region":{"a1":"77","a2":"1209","a3":"120907"},"meta":{"pop":"2641","dem":"327","tz":"Europe/Warsaw"}},{"id":"3086775","name":"Rudna","ascii_name":"Rudna","lat":"51.50981","lon":"16.26363","country":"PL","cc2":"PL","lastUpdated":"2018-09-28","type":{"class":"P","code":"PPL"},"region":{"a1":"72","a2":"0211","a3":"021103"},"meta":{"pop":"1619","dem":"115","tz":"Europe/Warsaw"}},{"id":"3086796","name":"Rudawa","ascii_name":"Rudawa","lat":"50.12151","lon":"19.71239","country":"PL","lastUpdated":"2010-10-21","type":{"class":"P","code":"PPL"},"region":{"a1":"77","a2":"1206","a3":"120616"},"meta":{"pop":"1720","dem":"259","tz":"Europe/Warsaw"}},{"id":"3086800","name":"Ruda Śląska","ascii_name":"Ruda Slaska","lat":"50.2584","lon":"18.85632","country":"PL","lastUpdated":"2016-08-02","type":{"class":"P","code":"PPL"},"region":{"a1":"83","a2":"2472","a3":"247201"},"meta":{"pop":"146189","dem":"258","tz":"Europe/Warsaw"}},{"id":"3086848","name":"Rozwadza","ascii_name":"Rozwadza","lat":"50.43493","lon":"18.0998","country":"PL","lastUpdated":"2010-10-21","type":{"class":"P","code":"PPL"},"region":{"a1":"79","a2":"1605","a3":"160505"},"meta":{"pop":"1100","dem":"177","tz":"Europe/Warsaw"}},{"id":"3086861","name":"Rozprza","ascii_name":"Rozprza","lat":"51.30266","lon":"19.6457","country":"PL","lastUpdated":"2010-10-11","type":{"class":"P","code":"PPLA3"},"region":{"a1":"74","a2":"1010","a3":"101008"},"meta":{"pop":"1646","dem":"194","tz":"Europe/Warsaw"}},{"id":"3086903","name":"Rozdrażew","ascii_name":"Rozdrazew","lat":"51.78218","lon":"17.50491","country":"PL","lastUpdated":"2010-10-05","type":{"class":"P","code":"PPLA3"},"region":{"a1":"86","a2":"3012","a3":"301205"},"meta":{"pop":"1800","dem":"143","tz":"Europe/Warsaw"}},{"id":"3086992","name":"Rościszewo","ascii_name":"Rosciszewo","lat":"52.90331","lon":"19.77419","country":"PL","lastUpdated":"2010-09-19","type":{"class":"P","code":"PPLA3"},"region":{"a1":"78","a2":"1427","a3":"142704"},"meta":{"pop":"668","dem":"117","tz":"Europe/Warsaw"}},{"id":"3087027","name":"Rokitno Szlacheckie","ascii_name":"Rokitno Szlacheckie","lat":"50.43195","lon":"19.43293","country":"PL","lastUpdated":"2010-10-16","type":{"class":"P","code":"PPL"},"region":{"a1":"83","a2":"2416","a3":"241605"},"meta":{"pop":"1094","dem":"354","tz":"Europe/Warsaw"}},{"id":"3087045","name":"Rokietnica","ascii_name":"Rokietnica","lat":"52.51245","lon":"16.7457","country":"PL","lastUpdated":"2010-10-16","type":{"class":"P","code":"PPLA3"},"region":{"a1":"86","a2":"3021","a3":"302113"},"meta":{"pop":"1900","dem":"89","tz":"Europe/Warsaw"}},{"id":"3087046","name":"Rokiciny","ascii_name":"Rokiciny","lat":"51.65078","lon":"19.80191","country":"PL","cc2":"PL","lastUpdated":"2010-10-15","type":{"class":"P","code":"PPLA3"},"region":{"a1":"74","a2":"1016","a3":"101607"},"meta":{"pop":"699","dem":"197","tz":"Europe/Warsaw"}},{"id":"3087047","name":"Rokiciny","ascii_name":"Rokiciny","lat":"49.57243","lon":"19.92302","country":"PL","lastUpdated":"2010-09-11","type":{"class":"P","code":"PPL"},"region":{"a1":"77","a2":"1211","a3":"121111"},"meta":{"pop":"1491","dem":"569","tz":"Europe/Warsaw"}},{"id":"3087071","name":"Rogóźno","ascii_name":"Rogozno","lat":"53.53587","lon":"18.92859","country":"PL","lastUpdated":"2018-12-24","type":{"class":"P","code":"PPLA3"},"region":{"a1":"73","a2":"0406","a3":"040605"},"meta":{"pop":"960","dem":"77","tz":"Europe/Warsaw"}},{"id":"3087072","name":"Rogoźno","ascii_name":"Rogozno","lat":"52.75226","lon":"16.99049","country":"PL","lastUpdated":"2020-04-22","type":{"class":"P","code":"PPLA3"},"region":{"a1":"86","a2":"3016","a3":"301602"},"meta":{"pop":"10859","dem":"72","tz":"Europe/Warsaw"}},{"id":"3087076","name":"Rogoźnik","ascii_name":"Rogoznik","lat":"50.39106","lon":"19.03776","country":"PL","lastUpdated":"2010-09-06","type":{"class":"P","code":"PPL"},"region":{"a1":"83","a2":"2401","a3":"240104"},"meta":{"pop":"2753","dem":"301","tz":"Europe/Warsaw"}},{"id":"3087096","name":"Rogowo","ascii_name":"Rogowo","lat":"52.97712","lon":"19.38486","country":"PL","lastUpdated":"2010-09-16","type":{"class":"P","code":"PPLA3"},"region":{"a1":"73","a2":"0412","a3":"041203"},"meta":{"pop":"540","dem":"129","tz":"Europe/Warsaw"}},{"id":"3087097","name":"Rogowo","ascii_name":"Rogowo","lat":"52.72449","lon":"17.65117","country":"PL","lastUpdated":"2010-09-16","type":{"class":"P","code":"PPLA3"},"region":{"a1":"73","a2":"0419","a3":"041905"},"meta":{"pop":"2127","dem":"96","tz":"Europe/Warsaw"}},{"id":"3087109","name":"Rogów","ascii_name":"Rogow","lat":"51.81758","lon":"19.88654","country":"PL","lastUpdated":"2010-10-16","type":{"class":"P","code":"PPLA3"},"region":{"a1":"74","a2":"1021","a3":"102105"},"meta":{"pop":"1500","dem":"200","tz":"Europe/Warsaw"}},{"id":"3087112","name":"Rogów","ascii_name":"Rogow","lat":"49.99097","lon":"18.35077","country":"PL","lastUpdated":"2010-09-06","type":{"class":"P","code":"PPL"},"region":{"a1":"83","a2":"2415","a3":"241506"},"meta":{"pop":"2961","dem":"249","tz":"Europe/Warsaw"}},{"id":"3087126","name":"Rogalinek","ascii_name":"Rogalinek","lat":"52.24945","lon":"16.89989","country":"PL","lastUpdated":"2010-09-28","type":{"class":"P","code":"PPL"},"region":{"a1":"86","a2":"3021","a3":"302110"},"meta":{"pop":"1563","dem":"62","tz":"Europe/Warsaw"}},{"id":"3087144","name":"Roczyny","ascii_name":"Roczyny","lat":"49.8537","lon":"19.31568","country":"PL","lastUpdated":"2010-10-17","type":{"class":"P","code":"PPL"},"region":{"a1":"77","a2":"1218","a3":"121801"},"meta":{"pop":"3728","dem":"345","tz":"Europe/Warsaw"}},{"id":"3087176","name":"Rewal","ascii_name":"Rewal","lat":"54.0812","lon":"15.01471","country":"PL","cc2":"PL","lastUpdated":"2010-09-22","type":{"class":"P","code":"PPLA3"},"region":{"a1":"87","a2":"3205","a3":"320507"},"meta":{"pop":"959","dem":"16","tz":"Europe/Warsaw"}},{"id":"3087195","name":"Resko","ascii_name":"Resko","lat":"53.77307","lon":"15.40607","country":"PL","cc2":"PL","lastUpdated":"2019-09-05","type":{"class":"P","code":"PPL"},"region":{"a1":"87","a2":"3218","a3":"321804"},"meta":{"pop":"4354","dem":"41","tz":"Europe/Warsaw"}},{"id":"3087203","name":"Reńska Wieś","ascii_name":"Renska Wies","lat":"50.31587","lon":"18.12607","country":"PL","lastUpdated":"2010-09-25","type":{"class":"P","code":"PPLA3"},"region":{"a1":"79","a2":"1603","a3":"160306"},"meta":{"pop":"1800","dem":"181","tz":"Europe/Warsaw"}},{"id":"3087223","name":"Rekowo Dolne","ascii_name":"Rekowo Dolne","lat":"54.63133","lon":"18.36279","country":"PL","lastUpdated":"2010-10-21","type":{"class":"P","code":"PPLX"},"region":{"a1":"82","a2":"2215","a3":"221501"},"meta":{"pop":"1509","dem":"8","tz":"Europe/Warsaw"}},{"id":"3087246","name":"Regulice","ascii_name":"Regulice","lat":"50.08314","lon":"19.52785","country":"PL","lastUpdated":"2010-10-17","type":{"class":"P","code":"PPL"},"region":{"a1":"77","a2":"1203","a3":"120301"},"meta":{"pop":"1882","dem":"263","tz":"Europe/Warsaw"}},{"id":"3087256","name":"Rędziny","ascii_name":"Redziny","lat":"50.85922","lon":"19.2162","country":"PL","lastUpdated":"2010-09-06","type":{"class":"P","code":"PPL"},"region":{"a1":"83","a2":"2404","a3":"240415"},"meta":{"pop":"4753","dem":"278","tz":"Europe/Warsaw"}},{"id":"3087281","name":"Reda","ascii_name":"Reda","lat":"54.60528","lon":"18.34717","country":"PL","lastUpdated":"2010-10-21","type":{"class":"P","code":"PPLA3"},"region":{"a1":"82","a2":"2215","a3":"221501"},"meta":{"pop":"18116","dem":"7","tz":"Europe/Warsaw"}},{"id":"3087285","name":"Ręczno","ascii_name":"Reczno","lat":"51.19026","lon":"19.85375","country":"PL","lastUpdated":"2010-10-11","type":{"class":"P","code":"PPLA3"},"region":{"a1":"74","a2":"1010","a3":"101007"},"meta":{"pop":"690","dem":"217","tz":"Europe/Warsaw"}},{"id":"3087287","name":"Recz","ascii_name":"Recz","lat":"53.25989","lon":"15.54713","country":"PL","cc2":"PL","lastUpdated":"2010-09-22","type":{"class":"P","code":"PPLA3"},"region":{"a1":"87","a2":"3202","a3":"320206"},"meta":{"pop":"2992","dem":"51","tz":"Europe/Warsaw"}},{"id":"3087307","name":"Rawicz","ascii_name":"Rawicz","lat":"51.60946","lon":"16.85852","country":"PL","lastUpdated":"2019-09-05","type":{"class":"P","code":"PPLA2"},"region":{"a1":"86","a2":"3022","a3":"302205"},"meta":{"pop":"21380","dem":"100","tz":"Europe/Warsaw"}},{"id":"3087316","name":"Ratowice","ascii_name":"Ratowice","lat":"51.03308","lon":"17.27205","country":"PL","cc2":"PL","lastUpdated":"2010-10-19","type":{"class":"P","code":"PPL"},"region":{"a1":"72","a2":"0223","a3":"022301"},"meta":{"pop":"1100","dem":"129","tz":"Europe/Warsaw"}},{"id":"3087330","name":"Raszowa","ascii_name":"Raszowa","lat":"50.39779","lon":"18.17722","country":"PL","lastUpdated":"2010-10-21","type":{"class":"P","code":"PPL"},"region":{"a1":"79","a2":"1611","a3":"161104"},"meta":{"pop":"1041","dem":"188","tz":"Europe/Warsaw"}},{"id":"3087333","name":"Raszków","ascii_name":"Raszkow","lat":"51.71828","lon":"17.72571","country":"PL","lastUpdated":"2019-09-05","type":{"class":"P","code":"PPLA3"},"region":{"a1":"86","a2":"3017","a3":"301706"},"meta":{"pop":"2079","dem":"141","tz":"Europe/Warsaw"}},{"id":"3087339","name":"Raszczyce","ascii_name":"Raszczyce","lat":"50.1219","lon":"18.29962","country":"PL","lastUpdated":"2010-10-20","type":{"class":"P","code":"PPL"},"region":{"a1":"83","a2":"2412","a3":"241204"},"meta":{"pop":"1068","dem":"218","tz":"Europe/Warsaw"}},{"id":"3087383","name":"Rakoniewice","ascii_name":"Rakoniewice","lat":"52.13906","lon":"16.27346","country":"PL","lastUpdated":"2020-04-22","type":{"class":"P","code":"PPLA3"},"region":{"a1":"86","a2":"3005","a3":"300504"},"meta":{"pop":"3322","dem":"101","tz":"Europe/Warsaw"}},{"id":"3087391","name":"Rajsko","ascii_name":"Rajsko","lat":"50.01193","lon":"19.19294","country":"PL","lastUpdated":"2010-10-23","type":{"class":"P","code":"PPL"},"region":{"a1":"77","a2":"1213","a3":"121306"},"meta":{"pop":"1440","dem":"239","tz":"Europe/Warsaw"}},{"id":"3087401","name":"Rajcza","ascii_name":"Rajcza","lat":"49.50927","lon":"19.11278","country":"PL","lastUpdated":"2010-09-06","type":{"class":"P","code":"PPL"},"region":{"a1":"83","a2":"2417","a3":"241711"},"meta":{"pop":"3438","dem":"491","tz":"Europe/Warsaw"}},{"id":"3087410","name":"Radzyń Chełmiński","ascii_name":"Radzyn Chelminski","lat":"53.38509","lon":"18.93725","country":"PL","cc2":"PL","lastUpdated":"2010-09-14","type":{"class":"P","code":"PPL"},"region":{"a1":"73","a2":"0406","a3":"040604"},"meta":{"pop":"1934","dem":"89","tz":"Europe/Warsaw"}},{"id":"3087415","name":"Radziszów","ascii_name":"Radziszow","lat":"49.93531","lon":"19.81522","country":"PL","lastUpdated":"2010-10-17","type":{"class":"P","code":"PPL"},"region":{"a1":"77","a2":"1206","a3":"120611"},"meta":{"pop":"2800","dem":"220","tz":"Europe/Warsaw"}},{"id":"3087418","name":"Radzionków","ascii_name":"Radzionkow","lat":"50.40026","lon":"18.90232","country":"PL","lastUpdated":"2010-09-10","type":{"class":"P","code":"PPL"},"region":{"a1":"83","a2":"2413","a3":"241303"},"meta":{"pop":"17167","dem":"298","tz":"Europe/Warsaw"}},{"id":"3087427","name":"Radziejów","ascii_name":"Radziejow","lat":"52.62481","lon":"18.52771","country":"PL","lastUpdated":"2020-06-21","type":{"class":"P","code":"PPLA2"},"region":{"a1":"73","a2":"0411","a3":"041101"},"meta":{"pop":"5759","dem":"114","tz":"Europe/Warsaw"}},{"id":"3087431","name":"Radziechowy","ascii_name":"Radziechowy","lat":"49.64651","lon":"19.13115","country":"PL","lastUpdated":"2010-09-06","type":{"class":"P","code":"PPL"},"region":{"a1":"83","a2":"2417","a3":"241710"},"meta":{"pop":"4541","dem":"437","tz":"Europe/Warsaw"}},{"id":"3087440","name":"Radzanowo","ascii_name":"Radzanowo","lat":"52.57306","lon":"19.89109","country":"PL","lastUpdated":"2010-09-18","type":{"class":"P","code":"PPLA3"},"region":{"a1":"78","a2":"1419","a3":"141910"},"meta":{"pop":"1186","dem":"140","tz":"Europe/Warsaw"}},{"id":"3087462","name":"Radowo Małe","ascii_name":"Radowo Male","lat":"53.66575","lon":"15.44789","country":"PL","lastUpdated":"2010-09-12","type":{"class":"P","code":"PPL"},"region":{"a1":"87","a2":"3218","a3":"321803"},"meta":{"pop":"1200","dem":"92","tz":"Europe/Warsaw"}},{"id":"3087485","name":"Radostowice","ascii_name":"Radostowice","lat":"50.00311","lon":"18.88103","country":"PL","lastUpdated":"2010-10-20","type":{"class":"P","code":"PPL"},"region":{"a1":"83","a2":"2410","a3":"241006"},"meta":{"pop":"1559","dem":"267","tz":"Europe/Warsaw"}},{"id":"3087497","name":"Radomsko","ascii_name":"Radomsko","lat":"51.06713","lon":"19.44477","country":"PL","lastUpdated":"2021-11-19","type":{"class":"P","code":"PPL"},"region":{"a1":"74","a2":"1012","a3":"101201"},"meta":{"pop":"45353","dem":"223","tz":"Europe/Warsaw"}},{"id":"3087499","name":"Radomin","ascii_name":"Radomin","lat":"53.0867","lon":"19.19415","country":"PL","lastUpdated":"2010-09-14","type":{"class":"P","code":"PPLA3"},"region":{"a1":"73","a2":"0405","a3":"040505"},"meta":{"pop":"1012","dem":"122","tz":"Europe/Warsaw"}},{"id":"3087520","name":"Radocza","ascii_name":"Radocza","lat":"49.91774","lon":"19.47498","country":"PL","lastUpdated":"2010-10-23","type":{"class":"P","code":"PPL"},"region":{"a1":"77","a2":"1218","a3":"121808"},"meta":{"pop":"1997","dem":"265","tz":"Europe/Warsaw"}},{"id":"3087529","name":"Radlin","ascii_name":"Radlin","lat":"50.0502","lon":"18.47626","country":"PL","lastUpdated":"2010-09-21","type":{"class":"P","code":"PPLA3"},"region":{"a1":"83","a2":"2415","a3":"241502"},"meta":{"pop":"17479","dem":"287","tz":"Europe/Warsaw"}},{"id":"3087535","name":"Radków","ascii_name":"Radkow","lat":"50.50426","lon":"16.40061","country":"PL","cc2":"PL","lastUpdated":"2018-11-15","type":{"class":"P","code":"PPL"},"region":{"a1":"72","a2":"0208","a3":"020812"},"meta":{"pop":"2410","dem":"387","tz":"Europe/Warsaw"}},{"id":"3087559","name":"Rączna","ascii_name":"Raczna","lat":"50.00984","lon":"19.76784","country":"PL","lastUpdated":"2010-10-23","type":{"class":"P","code":"PPL"},"region":{"a1":"77","a2":"1206","a3":"120607"},"meta":{"pop":"1736","dem":"233","tz":"Europe/Warsaw"}},{"id":"3087573","name":"Racławice Śląskie","ascii_name":"Raclawice Slaskie","lat":"50.31204","lon":"17.77528","country":"PL","cc2":"PL","lastUpdated":"2010-09-10","type":{"class":"P","code":"PPL"},"region":{"a1":"79","a2":"1610","a3":"161002"},"meta":{"pop":"1600","dem":"205","tz":"Europe/Warsaw"}},{"id":"3087576","name":"Racławice","ascii_name":"Raclawice","lat":"50.19344","lon":"19.67686","country":"PL","lastUpdated":"2010-09-10","type":{"class":"P","code":"PPL"},"region":{"a1":"77","a2":"1206","a3":"120604"},"meta":{"pop":"1540","dem":"361","tz":"Europe/Warsaw"}},{"id":"3087584","name":"Racibórz","ascii_name":"Raciborz","lat":"50.09195","lon":"18.21928","country":"PL","lastUpdated":"2019-09-05","type":{"class":"P","code":"PPLA2"},"region":{"a1":"83","a2":"2411","a3":"241101"},"meta":{"pop":"58464","dem":"195","tz":"Europe/Warsaw"}},{"id":"3087589","name":"Raciążek","ascii_name":"Raciazek","lat":"52.8565","lon":"18.81334","country":"PL","lastUpdated":"2010-09-14","type":{"class":"P","code":"PPL"},"region":{"a1":"73","a2":"0401","a3":"040107"},"meta":{"pop":"1600","dem":"83","tz":"Europe/Warsaw"}},{"id":"3087601","name":"Rabka-Zdrój","ascii_name":"Rabka-Zdroj","lat":"49.60889","lon":"19.96654","country":"PL","lastUpdated":"2010-09-24","type":{"class":"P","code":"PPLA3"},"region":{"a1":"77","a2":"1211","a3":"121112"},"meta":{"pop":"13071","dem":"494","tz":"Europe/Warsaw"}},{"id":"3087603","name":"Rąbino","ascii_name":"Rabino","lat":"53.8663","lon":"15.94485","country":"PL","lastUpdated":"2010-09-07","type":{"class":"P","code":"PPL"},"region":{"a1":"87","a2":"3216","a3":"321604"},"meta":{"pop":"1100","dem":"107","tz":"Europe/Warsaw"}},{"id":"3087613","name":"Raba Wyżna","ascii_name":"Raba Wyzna","lat":"49.56681","lon":"19.87967","country":"PL","lastUpdated":"2010-09-11","type":{"class":"P","code":"PPL"},"region":{"a1":"77","a2":"1211","a3":"121111"},"meta":{"pop":"4116","dem":"522","tz":"Europe/Warsaw"}},{"id":"3087617","name":"Pyzdry","ascii_name":"Pyzdry","lat":"52.17056","lon":"17.69005","country":"PL","lastUpdated":"2020-06-21","type":{"class":"P","code":"PPLA3"},"region":{"a1":"86","a2":"3030","a3":"303004"},"meta":{"pop":"3203","dem":"89","tz":"Europe/Warsaw"}},{"id":"3087628","name":"Pyskowice","ascii_name":"Pyskowice","lat":"50.4","lon":"18.63333","country":"PL","lastUpdated":"2011-07-31","type":{"class":"P","code":"PPLA3"},"region":{"a1":"83","a2":"2405","a3":"240502"},"meta":{"pop":"19018","dem":"232","tz":"Europe/Warsaw"}},{"id":"3087630","name":"Pyrzyce","ascii_name":"Pyrzyce","lat":"53.1462","lon":"14.89257","country":"PL","lastUpdated":"2019-09-05","type":{"class":"P","code":"PPLA2"},"region":{"a1":"87","a2":"3212","a3":"321205"},"meta":{"pop":"12893","dem":"39","tz":"Europe/Warsaw"}},{"id":"3087640","name":"Puszczykowo","ascii_name":"Puszczykowo","lat":"52.2857","lon":"16.84925","country":"PL","lastUpdated":"2011-07-31","type":{"class":"P","code":"PPLA3"},"region":{"a1":"86","a2":"3021","a3":"302102"},"meta":{"pop":"9143","dem":"76","tz":"Europe/Warsaw"}},{"id":"3087675","name":"Puńców","ascii_name":"Puncow","lat":"49.71842","lon":"18.66157","country":"PL","lastUpdated":"2018-06-24","type":{"class":"P","code":"PPL"},"region":{"a1":"83","a2":"2403","a3":"240307"},"meta":{"pop":"1508","dem":"293","tz":"Europe/Warsaw"}},{"id":"3087691","name":"Puck","ascii_name":"Puck","lat":"54.7179","lon":"18.40841","country":"PL","lastUpdated":"2014-06-26","type":{"class":"P","code":"PPLA2"},"region":{"a1":"82","a2":"2211","a3":"221103"},"meta":{"pop":"11415","dem":"14","tz":"Europe/Warsaw"}},{"id":"3087701","name":"Pszów","ascii_name":"Pszow","lat":"50.03994","lon":"18.39472","country":"PL","lastUpdated":"2010-09-21","type":{"class":"P","code":"PPLA3"},"region":{"a1":"83","a2":"2415","a3":"241501"},"meta":{"pop":"14028","dem":"300","tz":"Europe/Warsaw"}},{"id":"3087705","name":"Pszczyna","ascii_name":"Pszczyna","lat":"49.98037","lon":"18.95382","country":"PL","lastUpdated":"2012-01-07","type":{"class":"P","code":"PPLA2"},"region":{"a1":"83","a2":"2410","a3":"241005"},"meta":{"pop":"25288","dem":"242","tz":"Europe/Warsaw"}},{"id":"3087708","name":"Pszczółki","ascii_name":"Pszczolki","lat":"54.17304","lon":"18.69787","country":"PL","cc2":"PL","lastUpdated":"2010-09-14","type":{"class":"P","code":"PPL"},"region":{"a1":"82","a2":"2204","a3":"220406"},"meta":{"pop":"4053","dem":"17","tz":"Europe/Warsaw"}},{"id":"3087710","name":"Pszczew","ascii_name":"Pszczew","lat":"52.47724","lon":"15.7816","country":"PL","lastUpdated":"2020-04-23","type":{"class":"P","code":"PPLA3"},"region":{"a1":"76","a2":"0803","a3":"080304"},"meta":{"pop":"1826","dem":"61","tz":"Europe/Warsaw"}},{"id":"3087740","name":"Psary","ascii_name":"Psary","lat":"51.18712","lon":"17.03173","country":"PL","lastUpdated":"2010-09-21","type":{"class":"P","code":"PPL"},"region":{"a1":"72","a2":"0220","a3":"022004"},"meta":{"pop":"1018","dem":"113","tz":"Europe/Warsaw"}},{"id":"3087742","name":"Psary","ascii_name":"Psary","lat":"50.6147","lon":"18.96991","country":"PL","lastUpdated":"2010-09-21","type":{"class":"P","code":"PPL"},"region":{"a1":"83","a2":"2407","a3":"240708"},"meta":{"pop":"1304","dem":"311","tz":"Europe/Warsaw"}},{"id":"3087743","name":"Psary","ascii_name":"Psary","lat":"50.37964","lon":"19.11548","country":"PL","lastUpdated":"2010-09-21","type":{"class":"P","code":"PPLA3"},"region":{"a1":"83","a2":"2401","a3":"240106"},"meta":{"pop":"2717","dem":"295","tz":"Europe/Warsaw"}},{"id":"3087744","name":"Psary","ascii_name":"Psary","lat":"50.17242","lon":"19.52953","country":"PL","lastUpdated":"2010-09-21","type":{"class":"P","code":"PPL"},"region":{"a1":"77","a2":"1203","a3":"120305"},"meta":{"pop":"1429","dem":"378","tz":"Europe/Warsaw"}},{"id":"3087758","name":"Przywidz","ascii_name":"Przywidz","lat":"54.19524","lon":"18.32116","country":"PL","cc2":"PL","lastUpdated":"2010-09-14","type":{"class":"P","code":"PPL"},"region":{"a1":"82","a2":"2204","a3":"220405"},"meta":{"pop":"1673","dem":"202","tz":"Europe/Warsaw"}},{"id":"3087769","name":"Przytoczna","ascii_name":"Przytoczna","lat":"52.57755","lon":"15.67878","country":"PL","lastUpdated":"2010-10-16","type":{"class":"P","code":"PPLA3"},"region":{"a1":"76","a2":"0803","a3":"080303"},"meta":{"pop":"2400","dem":"54","tz":"Europe/Warsaw"}},{"id":"3087771","name":"Przytkowice","ascii_name":"Przytkowice","lat":"49.91785","lon":"19.6857","country":"PL","lastUpdated":"2010-10-23","type":{"class":"P","code":"PPL"},"region":{"a1":"77","a2":"1218","a3":"121803"},"meta":{"pop":"2560","dem":"328","tz":"Europe/Warsaw"}},{"id":"3087773","name":"Przyszowice","ascii_name":"Przyszowice","lat":"50.24841","lon":"18.74594","country":"PL","lastUpdated":"2010-09-06","type":{"class":"P","code":"PPL"},"region":{"a1":"83","a2":"2405","a3":"240503"},"meta":{"pop":"3203","dem":"217","tz":"Europe/Warsaw"}},{"id":"3087782","name":"Przystajń","ascii_name":"Przystajn","lat":"50.88495","lon":"18.69169","country":"PL","lastUpdated":"2010-09-06","type":{"class":"P","code":"PPL"},"region":{"a1":"83","a2":"2406","a3":"240608"},"meta":{"pop":"2283","dem":"255","tz":"Europe/Warsaw"}},{"id":"3087800","name":"Przyrów","ascii_name":"Przyrow","lat":"50.80051","lon":"19.52794","country":"PL","lastUpdated":"2010-09-06","type":{"class":"P","code":"PPL"},"region":{"a1":"83","a2":"2404","a3":"240414"},"meta":{"pop":"1222","dem":"234","tz":"Europe/Warsaw"}},{"id":"3087836","name":"Przykona","ascii_name":"Przykona","lat":"51.98171","lon":"18.61247","country":"PL","lastUpdated":"2010-10-15","type":{"class":"P","code":"PPLA3"},"region":{"a1":"86","a2":"3027","a3":"302706"},"meta":{"pop":"520","dem":"111","tz":"Europe/Warsaw"}},{"id":"3087847","name":"Przygodzice","ascii_name":"Przygodzice","lat":"51.59195","lon":"17.82412","country":"PL","lastUpdated":"2010-10-16","type":{"class":"P","code":"PPLA3"},"region":{"a1":"86","a2":"3017","a3":"301705"},"meta":{"pop":"3000","dem":"143","tz":"Europe/Warsaw"}},{"id":"3087895","name":"Przyborów","ascii_name":"Przyborow","lat":"51.79991","lon":"15.7689","country":"PL","lastUpdated":"2010-09-06","type":{"class":"P","code":"PPL"},"region":{"a1":"76","a2":"0804","a3":"080405"},"meta":{"pop":"1200","dem":"63","tz":"Europe/Warsaw"}},{"id":"3087896","name":"Przyborów","ascii_name":"Przyborow","lat":"49.6215","lon":"19.38701","country":"PL","lastUpdated":"2010-09-06","type":{"class":"P","code":"PPL"},"region":{"a1":"83","a2":"2417","a3":"241704"},"meta":{"pop":"1793","dem":"520","tz":"Europe/Warsaw"}},{"id":"3087905","name":"Przybiernów","ascii_name":"Przybiernow","lat":"53.7578","lon":"14.78529","country":"PL","cc2":"PL","lastUpdated":"2010-09-22","type":{"class":"P","code":"PPLA3"},"region":{"a1":"87","a2":"3204","a3":"320406"},"meta":{"pop":"1700","dem":"26","tz":"Europe/Warsaw"}},{"id":"3087906","name":"Przodkowo","ascii_name":"Przodkowo","lat":"54.37991","lon":"18.2876","country":"PL","lastUpdated":"2010-09-13","type":{"class":"P","code":"PPL"},"region":{"a1":"82","a2":"2205","a3":"220503"},"meta":{"pop":"1286","dem":"177","tz":"Europe/Warsaw"}},{"id":"3087917","name":"Przewóz","ascii_name":"Przewoz","lat":"51.48053","lon":"14.95188","country":"PL","cc2":"PL","lastUpdated":"2017-04-24","type":{"class":"P","code":"PPLA3"},"region":{"a1":"76","a2":"0811","a3":"081107"},"meta":{"pop":"850","dem":"140","tz":"Europe/Warsaw"}},{"id":"3087920","name":"Przeworno","ascii_name":"Przeworno","lat":"50.68629","lon":"17.16588","country":"PL","cc2":"PL","lastUpdated":"2010-09-12","type":{"class":"P","code":"PPL"},"region":{"a1":"72","a2":"0217","a3":"021703"},"meta":{"pop":"1259","dem":"188","tz":"Europe/Warsaw"}},{"id":"3087954","name":"Przemków","ascii_name":"Przemkow","lat":"51.5253","lon":"15.79441","country":"PL","cc2":"PL","lastUpdated":"2010-09-10","type":{"class":"P","code":"PPL"},"region":{"a1":"72","a2":"0216","a3":"021605"},"meta":{"pop":"6487","dem":"156","tz":"Europe/Warsaw"}},{"id":"3087956","name":"Przemęt","ascii_name":"Przemet","lat":"52.00808","lon":"16.30114","country":"PL","lastUpdated":"2020-04-23","type":{"class":"P","code":"PPLA3"},"region":{"a1":"86","a2":"3029","a3":"302901"},"meta":{"pop":"1600","dem":"63","tz":"Europe/Warsaw"}},{"id":"3087958","name":"Przelewice","ascii_name":"Przelewice","lat":"53.10413","lon":"15.07625","country":"PL","cc2":"PL","lastUpdated":"2011-07-31","type":{"class":"P","code":"PPLA3"},"region":{"a1":"87","a2":"3212","a3":"321204"},"meta":{"pop":"770","dem":"65","tz":"Europe/Warsaw"}},{"id":"3087975","name":"Przeginia","ascii_name":"Przeginia","lat":"50.23831","lon":"19.68853","country":"PL","lastUpdated":"2010-10-17","type":{"class":"P","code":"PPL"},"region":{"a1":"77","a2":"1206","a3":"120604"},"meta":{"pop":"2093","dem":"446","tz":"Europe/Warsaw"}},{"id":"3087992","name":"Przedecz","ascii_name":"Przedecz","lat":"52.3344","lon":"18.89915","country":"PL","lastUpdated":"2014-06-27","type":{"class":"P","code":"PPLA3"},"region":{"a1":"86","a2":"3009","a3":"300911"},"meta":{"pop":"1780","dem":"114","tz":"Europe/Warsaw"}},{"id":"3087994","name":"Przedbórz","ascii_name":"Przedborz","lat":"51.08789","lon":"19.87384","country":"PL","lastUpdated":"2011-07-31","type":{"class":"P","code":"PPLA3"},"region":{"a1":"74","a2":"1012","a3":"101211"},"meta":{"pop":"3765","dem":"199","tz":"Europe/Warsaw"}},{"id":"3088006","name":"Przecław","ascii_name":"Przeclaw","lat":"53.37447","lon":"14.47251","country":"PL","lastUpdated":"2011-01-08","type":{"class":"P","code":"PPL"},"region":{"a1":"87","a2":"3211","a3":"321102"},"meta":{"pop":"3362","dem":"30","tz":"Europe/Warsaw"}},{"id":"3088011","name":"Przeciszów","ascii_name":"Przeciszow","lat":"50.00647","lon":"19.37576","country":"PL","lastUpdated":"2010-09-09","type":{"class":"P","code":"PPL"},"region":{"a1":"77","a2":"1213","a3":"121308"},"meta":{"pop":"3996","dem":"231","tz":"Europe/Warsaw"}},{"id":"3088013","name":"Przecieszyn","ascii_name":"Przecieszyn","lat":"49.97838","lon":"19.17046","country":"PL","lastUpdated":"2010-10-23","type":{"class":"P","code":"PPL"},"region":{"a1":"77","a2":"1213","a3":"121302"},"meta":{"pop":"1157","dem":"252","tz":"Europe/Warsaw"}},{"id":"3088017","name":"Przechlewo","ascii_name":"Przechlewo","lat":"53.79847","lon":"17.25205","country":"PL","cc2":"PL","lastUpdated":"2010-09-12","type":{"class":"P","code":"PPL"},"region":{"a1":"82","a2":"2203","a3":"220306"},"meta":{"pop":"2826","dem":"149","tz":"Europe/Warsaw"}},{"id":"3088033","name":"Pruszcz","ascii_name":"Pruszcz","lat":"53.33021","lon":"18.19894","country":"PL","cc2":"PL","lastUpdated":"2010-09-13","type":{"class":"P","code":"PPL"},"region":{"a1":"73","a2":"0414","a3":"041408"},"meta":{"pop":"2300","dem":"95","tz":"Europe/Warsaw"}},{"id":"3088034","name":"Pruszcz Gdański","ascii_name":"Pruszcz Gdanski","lat":"54.26217","lon":"18.63625","country":"PL","lastUpdated":"2015-11-03","type":{"class":"P","code":"PPLA2"},"region":{"a1":"82","a2":"2204","a3":"220401"},"meta":{"pop":"23618","dem":"12","tz":"Europe/Warsaw"}},{"id":"3088060","name":"Prusice","ascii_name":"Prusice","lat":"51.37116","lon":"16.96025","country":"PL","cc2":"PL","lastUpdated":"2010-09-12","type":{"class":"P","code":"PPL"},"region":{"a1":"72","a2":"0220","a3":"022002"},"meta":{"pop":"2203","dem":"117","tz":"Europe/Warsaw"}},{"id":"3088065","name":"Prudnik","ascii_name":"Prudnik","lat":"50.32124","lon":"17.57461","country":"PL","lastUpdated":"2010-09-25","type":{"class":"P","code":"PPLA2"},"region":{"a1":"79","a2":"1610","a3":"161004"},"meta":{"pop":"23343","dem":"270","tz":"Europe/Warsaw"}},{"id":"3088067","name":"Pruchna","ascii_name":"Pruchna","lat":"49.86527","lon":"18.68191","country":"PL","lastUpdated":"2010-09-06","type":{"class":"P","code":"PPL"},"region":{"a1":"83","a2":"2403","a3":"240311"},"meta":{"pop":"2446","dem":"288","tz":"Europe/Warsaw"}},{"id":"3088077","name":"Prószków","ascii_name":"Proszkow","lat":"50.5767","lon":"17.87143","country":"PL","cc2":"PL","lastUpdated":"2010-09-12","type":{"class":"P","code":"PPL"},"region":{"a1":"79","a2":"1609","a3":"160910"},"meta":{"pop":"2691","dem":"184","tz":"Europe/Warsaw"}},{"id":"3088096","name":"Prochowice","ascii_name":"Prochowice","lat":"51.27307","lon":"16.36532","country":"PL","cc2":"PL","lastUpdated":"2010-09-09","type":{"class":"P","code":"PPL"},"region":{"a1":"72","a2":"0209","a3":"020907"},"meta":{"pop":"3743","dem":"101","tz":"Europe/Warsaw"}},{"id":"3088135","name":"Praszka","ascii_name":"Praszka","lat":"51.05375","lon":"18.45317","country":"PL","lastUpdated":"2011-07-31","type":{"class":"P","code":"PPLA3"},"region":{"a1":"79","a2":"1608","a3":"160804"},"meta":{"pop":"8150","dem":"190","tz":"Europe/Warsaw"}},{"id":"3088161","name":"Prabuty","ascii_name":"Prabuty","lat":"53.755","lon":"19.20547","country":"PL","lastUpdated":"2014-06-26","type":{"class":"P","code":"PPLA3"},"region":{"a1":"82","a2":"2207","a3":"220704"},"meta":{"pop":"8488","dem":"95","tz":"Europe/Warsaw"}},{"id":"3088171","name":"Poznań","ascii_name":"Poznan","lat":"52.40692","lon":"16.92993","country":"PL","lastUpdated":"2020-05-21","type":{"class":"P","code":"PPLA"},"region":{"a1":"86","a2":"3064","a3":"306401"},"meta":{"pop":"570352","dem":"69","tz":"Europe/Warsaw"}},{"id":"3088192","name":"Powidz","ascii_name":"Powidz","lat":"52.41362","lon":"17.91926","country":"PL","lastUpdated":"2010-10-15","type":{"class":"P","code":"PPLA3"},"region":{"a1":"86","a2":"3023","a3":"302305"},"meta":{"pop":"1000","dem":"106","tz":"Europe/Warsaw"}},{"id":"3088211","name":"Potok Złoty","ascii_name":"Potok Zloty","lat":"50.70676","lon":"19.43091","country":"PL","cc2":"PL","lastUpdated":"2020-01-05","type":{"class":"P","code":"PPL"},"region":{"a1":"83","a2":"2404","a3":"240403"},"meta":{"pop":"1101","dem":"287","tz":"Europe/Warsaw"}},{"id":"3088220","name":"Potęgowo","ascii_name":"Potegowo","lat":"54.48285","lon":"17.4862","country":"PL","lastUpdated":"2010-09-24","type":{"class":"P","code":"PPLA3"},"region":{"a1":"82","a2":"2212","a3":"221207"},"meta":{"pop":"1416","dem":"84","tz":"Europe/Warsaw"}},{"id":"3088268","name":"Poręba Wielka","ascii_name":"Poreba Wielka","lat":"50.01116","lon":"19.28375","country":"PL","lastUpdated":"2010-10-23","type":{"class":"P","code":"PPL"},"region":{"a1":"77","a2":"1213","a3":"121306"},"meta":{"pop":"1858","dem":"242","tz":"Europe/Warsaw"}},{"id":"3088271","name":"Cynków","ascii_name":"Cynkow","lat":"50.56203","lon":"19.11956","country":"PL","cc2":"PL","lastUpdated":"2010-09-07","type":{"class":"P","code":"PPL"},"region":{"a1":"83","a2":"2409","a3":"240902"},"meta":{"pop":"1198","dem":"362","tz":"Europe/Warsaw"}},{"id":"3088273","name":"Poręba","ascii_name":"Poreba","lat":"50.48831","lon":"19.33903","country":"PL","lastUpdated":"2010-09-06","type":{"class":"P","code":"PPL"},"region":{"a1":"83","a2":"2416","a3":"241601"},"meta":{"pop":"8718","dem":"312","tz":"Europe/Warsaw"}},{"id":"3088281","name":"Poraj","ascii_name":"Poraj","lat":"50.67797","lon":"19.21509","country":"PL","lastUpdated":"2010-09-06","type":{"class":"P","code":"PPL"},"region":{"a1":"83","a2":"2409","a3":"240904"},"meta":{"pop":"4418","dem":"273","tz":"Europe/Warsaw"}},{"id":"3088290","name":"Porąbka","ascii_name":"Porabka","lat":"49.81716","lon":"19.21835","country":"PL","lastUpdated":"2011-07-31","type":{"class":"P","code":"PPLA3"},"region":{"a1":"83","a2":"2402","a3":"240208"},"meta":{"pop":"3852","dem":"311","tz":"Europe/Warsaw"}},{"id":"3088315","name":"Popów","ascii_name":"Popow","lat":"51.04029","lon":"18.93117","country":"PL","lastUpdated":"2011-07-31","type":{"class":"P","code":"PPLA3"},"region":{"a1":"83","a2":"2406","a3":"240607"},"meta":{"pop":"0","dem":"214","tz":"Europe/Warsaw"}},{"id":"3088324","name":"Popielów","ascii_name":"Popielow","lat":"50.82632","lon":"17.74378","country":"PL","cc2":"PL","lastUpdated":"2010-09-12","type":{"class":"P","code":"PPL"},"region":{"a1":"79","a2":"1609","a3":"160909"},"meta":{"pop":"2400","dem":"144","tz":"Europe/Warsaw"}},{"id":"3088341","name":"Ponikiew","ascii_name":"Ponikiew","lat":"49.83311","lon":"19.46571","country":"PL","lastUpdated":"2010-10-17","type":{"class":"P","code":"PPL"},"region":{"a1":"77","a2":"1218","a3":"121809"},"meta":{"pop":"1237","dem":"347","tz":"Europe/Warsaw"}},{"id":"3088345","name":"Poniec","ascii_name":"Poniec","lat":"51.76343","lon":"16.80867","country":"PL","lastUpdated":"2020-04-23","type":{"class":"P","code":"PPLA3"},"region":{"a1":"86","a2":"3004","a3":"300407"},"meta":{"pop":"2849","dem":"89","tz":"Europe/Warsaw"}},{"id":"3088418","name":"Polska Cerekiew","ascii_name":"Polska Cerekiew","lat":"50.22827","lon":"18.12675","country":"PL","cc2":"PL","lastUpdated":"2010-09-25","type":{"class":"P","code":"PPLA3"},"region":{"a1":"79","a2":"1603","a3":"160305"},"meta":{"pop":"1429","dem":"199","tz":"Europe/Warsaw"}},{"id":"3088427","name":"Połomia","ascii_name":"Polomia","lat":"49.99185","lon":"18.55102","country":"PL","lastUpdated":"2010-09-06","type":{"class":"P","code":"PPL"},"region":{"a1":"83","a2":"2415","a3":"241509"},"meta":{"pop":"2497","dem":"245","tz":"Europe/Warsaw"}},{"id":"3088435","name":"Polkowice","ascii_name":"Polkowice","lat":"51.50391","lon":"16.07261","country":"PL","lastUpdated":"2018-11-09","type":{"class":"P","code":"PPLA2"},"region":{"a1":"72","a2":"0216","a3":"021604"},"meta":{"pop":"21565","dem":"179","tz":"Europe/Warsaw"}},{"id":"3088461","name":"Police","ascii_name":"Police","lat":"53.55214","lon":"14.57182","country":"PL","lastUpdated":"2010-09-21","type":{"class":"P","code":"PPLA2"},"region":{"a1":"87","a2":"3211","a3":"321104"},"meta":{"pop":"34350","dem":"7","tz":"Europe/Warsaw"}},{"id":"3088477","name":"Połczyn-Zdrój","ascii_name":"Polczyn-Zdroj","lat":"53.76424","lon":"16.09574","country":"PL","lastUpdated":"2010-09-07","type":{"class":"P","code":"PPL"},"region":{"a1":"87","a2":"3216","a3":"321603"},"meta":{"pop":"8682","dem":"92","tz":"Europe/Warsaw"}},{"id":"3088492","name":"Polanów","ascii_name":"Polanow","lat":"54.1193","lon":"16.68512","country":"PL","lastUpdated":"2011-07-31","type":{"class":"P","code":"PPLA3"},"region":{"a1":"87","a2":"3209","a3":"320906"},"meta":{"pop":"2960","dem":"79","tz":"Europe/Warsaw"}},{"id":"3088493","name":"Polanka Wielka","ascii_name":"Polanka Wielka","lat":"49.98501","lon":"19.32615","country":"PL","lastUpdated":"2010-09-09","type":{"class":"P","code":"PPL"},"region":{"a1":"77","a2":"1213","a3":"121307"},"meta":{"pop":"3800","dem":"249","tz":"Europe/Warsaw"}},{"id":"3088496","name":"Polanica-Zdrój","ascii_name":"Polanica-Zdroj","lat":"50.40373","lon":"16.51271","country":"PL","lastUpdated":"2018-03-08","type":{"class":"P","code":"PPLA3"},"region":{"a1":"72","a2":"0208","a3":"020805"},"meta":{"pop":"6966","dem":"374","tz":"Europe/Warsaw"}},{"id":"3088504","name":"Połajewo","ascii_name":"Polajewo","lat":"52.79923","lon":"16.73347","country":"PL","lastUpdated":"2020-04-23","type":{"class":"P","code":"PPLA3"},"region":{"a1":"86","a2":"3002","a3":"300206"},"meta":{"pop":"2237","dem":"76","tz":"Europe/Warsaw"}},{"id":"3088526","name":"Pokój","ascii_name":"Pokoj","lat":"50.90265","lon":"17.83751","country":"PL","cc2":"PL","lastUpdated":"2010-09-25","type":{"class":"P","code":"PPLA3"},"region":{"a1":"79","a2":"1606","a3":"160603"},"meta":{"pop":"1400","dem":"159","tz":"Europe/Warsaw"}},{"id":"3088535","name":"Pogwizdów","ascii_name":"Pogwizdow","lat":"49.80382","lon":"18.60106","country":"PL","lastUpdated":"2010-09-06","type":{"class":"P","code":"PPL"},"region":{"a1":"83","a2":"2403","a3":"240308"},"meta":{"pop":"3449","dem":"269","tz":"Europe/Warsaw"}},{"id":"3088538","name":"Pogrzebień","ascii_name":"Pogrzebien","lat":"50.06722","lon":"18.29876","country":"PL","lastUpdated":"2010-10-20","type":{"class":"P","code":"PPL"},"region":{"a1":"83","a2":"2411","a3":"241102"},"meta":{"pop":"1215","dem":"284","tz":"Europe/Warsaw"}},{"id":"3088541","name":"Pogorzyce","ascii_name":"Pogorzyce","lat":"50.10186","lon":"19.42228","country":"PL","lastUpdated":"2010-10-23","type":{"class":"P","code":"PPL"},"region":{"a1":"77","a2":"1203","a3":"120303"},"meta":{"pop":"1400","dem":"358","tz":"Europe/Warsaw"}},{"id":"3088548","name":"Pogorzela","ascii_name":"Pogorzela","lat":"51.8222","lon":"17.23017","country":"PL","lastUpdated":"2010-09-23","type":{"class":"P","code":"PPLA3"},"region":{"a1":"86","a2":"3004","a3":"300406"},"meta":{"pop":"2015","dem":"131","tz":"Europe/Warsaw"}},{"id":"3088550","name":"Pogórze","ascii_name":"Pogorze","lat":"54.5644","lon":"18.48209","country":"PL","lastUpdated":"2012-12-04","type":{"class":"P","code":"PPL"},"region":{"a1":"82","a2":"2262","a3":"226201"},"meta":{"pop":"1123","dem":"77","tz":"Europe/Warsaw"}},{"id":"3088574","name":"Podwilk","ascii_name":"Podwilk","lat":"49.5476","lon":"19.73874","country":"PL","lastUpdated":"2010-10-30","type":{"class":"P","code":"PPL"},"region":{"a1":"77","a2":"1211","a3":"121105"},"meta":{"pop":"2396","dem":"673","tz":"Europe/Warsaw"}},{"id":"3088685","name":"Podgórzyn","ascii_name":"Podgorzyn","lat":"50.83261","lon":"15.68161","country":"PL","cc2":"PL","lastUpdated":"2010-09-12","type":{"class":"P","code":"PPL"},"region":{"a1":"72","a2":"0206","a3":"020608"},"meta":{"pop":"1700","dem":"359","tz":"Europe/Warsaw"}},{"id":"3088710","name":"Poddębice","ascii_name":"Poddebice","lat":"51.89344","lon":"18.9573","country":"PL","lastUpdated":"2010-10-16","type":{"class":"P","code":"PPLA3"},"region":{"a1":"74","a2":"1011","a3":"101103"},"meta":{"pop":"7840","dem":"126","tz":"Europe/Warsaw"}},{"id":"3088747","name":"Pobierowo","ascii_name":"Pobierowo","lat":"54.061","lon":"14.93282","country":"PL","cc2":"PL","lastUpdated":"2010-09-07","type":{"class":"P","code":"PPL"},"region":{"a1":"87","a2":"3205","a3":"320507"},"meta":{"pop":"1084","dem":"11","tz":"Europe/Warsaw"}},{"id":"3088749","name":"Pobiedziska","ascii_name":"Pobiedziska","lat":"52.47753","lon":"17.28767","country":"PL","lastUpdated":"2020-04-25","type":{"class":"P","code":"PPLA3"},"region":{"a1":"86","a2":"3021","a3":"302112"},"meta":{"pop":"8677","dem":"109","tz":"Europe/Warsaw"}},{"id":"3088759","name":"Pniewy","ascii_name":"Pniewy","lat":"52.50943","lon":"16.25668","country":"PL","cc2":"PL","lastUpdated":"2020-04-25","type":{"class":"P","code":"PPLA3"},"region":{"a1":"86","a2":"3024","a3":"302406"},"meta":{"pop":"7738","dem":"99","tz":"Europe/Warsaw"}},{"id":"3088774","name":"Płużnica","ascii_name":"Pluznica","lat":"53.29672","lon":"18.77692","country":"PL","lastUpdated":"2010-09-16","type":{"class":"P","code":"PPLA3"},"region":{"a1":"73","a2":"0417","a3":"041704"},"meta":{"pop":"543","dem":"96","tz":"Europe/Warsaw"}},{"id":"3088788","name":"Płoty","ascii_name":"Ploty","lat":"53.80182","lon":"15.2667","country":"PL","cc2":"PL","lastUpdated":"2019-09-05","type":{"class":"P","code":"PPLA3"},"region":{"a1":"87","a2":"3205","a3":"320504"},"meta":{"pop":"4093","dem":"33","tz":"Europe/Warsaw"}},{"id":"3088825","name":"Płock","ascii_name":"Plock","lat":"52.54682","lon":"19.70638","country":"PL","lastUpdated":"2019-09-05","type":{"class":"P","code":"PPLA2"},"region":{"a1":"78","a2":"1462","a3":"146201"},"meta":{"pop":"127474","dem":"103","tz":"Europe/Warsaw"}},{"id":"3088846","name":"Plewiska","ascii_name":"Plewiska","lat":"52.36706","lon":"16.80985","country":"PL","lastUpdated":"2015-09-05","type":{"class":"P","code":"PPL"},"region":{"a1":"86","a2":"3021","a3":"302107"},"meta":{"pop":"5861","dem":"82","tz":"Europe/Warsaw"}},{"id":"3088848","name":"Pleszew","ascii_name":"Pleszew","lat":"51.89636","lon":"17.78549","country":"PL","lastUpdated":"2020-06-21","type":{"class":"P","code":"PPLA2"},"region":{"a1":"86","a2":"3020","a3":"302006"},"meta":{"pop":"17640","dem":"130","tz":"Europe/Warsaw"}},{"id":"3088866","name":"Płaza","ascii_name":"Plaza","lat":"50.09988","lon":"19.46451","country":"PL","lastUpdated":"2010-10-23","type":{"class":"P","code":"PPL"},"region":{"a1":"77","a2":"1203","a3":"120303"},"meta":{"pop":"4000","dem":"368","tz":"Europe/Warsaw"}},{"id":"3088873","name":"Pławno","ascii_name":"Plawno","lat":"50.97772","lon":"19.45524","country":"PL","lastUpdated":"2010-10-12","type":{"class":"P","code":"PPL"},"region":{"a1":"74","a2":"1012","a3":"101203"},"meta":{"pop":"1200","dem":"214","tz":"Europe/Warsaw"}},{"id":"3088927","name":"Pisarzowice","ascii_name":"Pisarzowice","lat":"51.14479","lon":"15.23057","country":"PL","lastUpdated":"2013-11-11","type":{"class":"P","code":"PPL"},"region":{"a1":"72","a2":"0210","a3":"021004"},"meta":{"pop":"1600","dem":"267","tz":"Europe/Warsaw"}},{"id":"3088931","name":"Pisarzowice","ascii_name":"Pisarzowice","lat":"49.88363","lon":"19.14565","country":"PL","lastUpdated":"2010-09-06","type":{"class":"P","code":"PPL"},"region":{"a1":"83","a2":"2402","a3":"240209"},"meta":{"pop":"4673","dem":"295","tz":"Europe/Warsaw"}},{"id":"3088972","name":"Piotrków Trybunalski","ascii_name":"Piotrkow Trybunalski","lat":"51.40547","lon":"19.70321","country":"PL","lastUpdated":"2021-04-21","type":{"class":"P","code":"PPLA2"},"region":{"a1":"74","a2":"1062","a3":"106201"},"meta":{"pop":"80128","dem":"194","tz":"Europe/Warsaw"}},{"id":"3088977","name":"Piotrków Kujawski","ascii_name":"Piotrkow Kujawski","lat":"52.55111","lon":"18.49905","country":"PL","cc2":"PL","lastUpdated":"2010-09-15","type":{"class":"P","code":"PPLA3"},"region":{"a1":"73","a2":"0411","a3":"041105"},"meta":{"pop":"5030","dem":"103","tz":"Europe/Warsaw"}},{"id":"3089010","name":"Pilica","ascii_name":"Pilica","lat":"50.46799","lon":"19.65729","country":"PL","lastUpdated":"2010-09-06","type":{"class":"P","code":"PPL"},"region":{"a1":"83","a2":"2416","a3":"241607"},"meta":{"pop":"1999","dem":"343","tz":"Europe/Warsaw"}},{"id":"3089019","name":"Pilchowice","ascii_name":"Pilchowice","lat":"50.21668","lon":"18.56132","country":"PL","cc2":"PL","lastUpdated":"2010-09-06","type":{"class":"P","code":"PPL"},"region":{"a1":"83","a2":"2405","a3":"240504"},"meta":{"pop":"2919","dem":"225","tz":"Europe/Warsaw"}},{"id":"3089025","name":"Piława Górna","ascii_name":"Pilawa Gorna","lat":"50.68357","lon":"16.74359","country":"PL","lastUpdated":"2018-08-10","type":{"class":"P","code":"PPLA3"},"region":{"a1":"72","a2":"0202","a3":"020204"},"meta":{"pop":"6736","dem":"304","tz":"Europe/Warsaw"}},{"id":"3089033","name":"Piła","ascii_name":"Pila","lat":"53.15145","lon":"16.73782","country":"PL","lastUpdated":"2020-04-25","type":{"class":"P","code":"PPLA2"},"region":{"a1":"86","a2":"3019","a3":"301901"},"meta":{"pop":"75532","dem":"60","tz":"Europe/Warsaw"}},{"id":"3089048","name":"Pietrzykowice","ascii_name":"Pietrzykowice","lat":"49.69634","lon":"19.1599","country":"PL","lastUpdated":"2010-09-06","type":{"class":"P","code":"PPL"},"region":{"a1":"83","a2":"2417","a3":"241708"},"meta":{"pop":"4339","dem":"423","tz":"Europe/Warsaw"}},{"id":"3089057","name":"Pietrowice Wielkie","ascii_name":"Pietrowice Wielkie","lat":"50.08452","lon":"18.09148","country":"PL","lastUpdated":"2010-09-20","type":{"class":"P","code":"PPLA3"},"region":{"a1":"83","a2":"2411","a3":"241107"},"meta":{"pop":"2239","dem":"207","tz":"Europe/Warsaw"}},{"id":"3089065","name":"Pieszyce","ascii_name":"Pieszyce","lat":"50.71287","lon":"16.58232","country":"PL","lastUpdated":"2015-09-02","type":{"class":"P","code":"PPLA3"},"region":{"a1":"72","a2":"0202","a3":"020203"},"meta":{"pop":"9406","dem":"299","tz":"Europe/Warsaw"}},{"id":"3089093","name":"Pierściec","ascii_name":"Piersciec","lat":"49.83339","lon":"18.81409","country":"PL","lastUpdated":"2010-09-08","type":{"class":"P","code":"PPL"},"region":{"a1":"83","a2":"2403","a3":"240310"},"meta":{"pop":"2111","dem":"292","tz":"Europe/Warsaw"}},{"id":"3089098","name":"Pieńsk","ascii_name":"Piensk","lat":"51.249","lon":"15.04685","country":"PL","lastUpdated":"2018-04-04","type":{"class":"P","code":"PPLA3"},"region":{"a1":"72","a2":"0225","a3":"022504"},"meta":{"pop":"5813","dem":"186","tz":"Europe/Warsaw"}},{"id":"3089114","name":"Pielgrzymowice","ascii_name":"Pielgrzymowice","lat":"49.90547","lon":"18.64886","country":"PL","lastUpdated":"2010-09-06","type":{"class":"P","code":"PPL"},"region":{"a1":"83","a2":"2410","a3":"241004"},"meta":{"pop":"2407","dem":"237","tz":"Europe/Warsaw"}},{"id":"3089123","name":"Piekielnik","ascii_name":"Piekielnik","lat":"49.47688","lon":"19.7681","country":"PL","cc2":"PL","lastUpdated":"2010-10-30","type":{"class":"P","code":"PPL"},"region":{"a1":"77","a2":"1211","a3":"121103"},"meta":{"pop":"2314","dem":"646","tz":"Europe/Warsaw"}},{"id":"3089125","name":"Piekary Śląskie","ascii_name":"Piekary Slaskie","lat":"50.38017","lon":"18.92653","country":"PL","lastUpdated":"2019-09-05","type":{"class":"P","code":"PPLA2"},"region":{"a1":"83","a2":"2471","a3":"247101"},"meta":{"pop":"59757","dem":"290","tz":"Europe/Warsaw"}},{"id":"3089134","name":"Piekary","ascii_name":"Piekary","lat":"50.02495","lon":"19.79616","country":"PL","lastUpdated":"2010-10-17","type":{"class":"P","code":"PPL"},"region":{"a1":"77","a2":"1206","a3":"120607"},"meta":{"pop":"1200","dem":"206","tz":"Europe/Warsaw"}},{"id":"3089152","name":"Piechowice","ascii_name":"Piechowice","lat":"50.84963","lon":"15.59887","country":"PL","cc2":"PL","lastUpdated":"2011-07-31","type":{"class":"P","code":"PPLA3"},"region":{"a1":"72","a2":"0206","a3":"020603"},"meta":{"pop":"6496","dem":"380","tz":"Europe/Warsaw"}},{"id":"3089173","name":"Piątek","ascii_name":"Piatek","lat":"52.0689","lon":"19.4797","country":"PL","lastUpdated":"2010-10-16","type":{"class":"P","code":"PPLA3"},"region":{"a1":"74","a2":"1004","a3":"100406"},"meta":{"pop":"2130","dem":"100","tz":"Europe/Warsaw"}},{"id":"3089217","name":"Piaski","ascii_name":"Piaski","lat":"51.88497","lon":"17.07293","country":"PL","lastUpdated":"2011-07-31","type":{"class":"P","code":"PPLA3"},"region":{"a1":"86","a2":"3004","a3":"300405"},"meta":{"pop":"3157","dem":"98","tz":"Europe/Warsaw"}},{"id":"3089238","name":"Piasek","ascii_name":"Piasek","lat":"50.01055","lon":"18.94807","country":"PL","lastUpdated":"2010-09-06","type":{"class":"P","code":"PPL"},"region":{"a1":"83","a2":"2410","a3":"241005"},"meta":{"pop":"3342","dem":"252","tz":"Europe/Warsaw"}},{"id":"3089255","name":"Pewel Wielka","ascii_name":"Pewel Wielka","lat":"49.67457","lon":"19.37482","country":"PL","lastUpdated":"2010-09-06","type":{"class":"P","code":"PPL"},"region":{"a1":"83","a2":"2417","a3":"241704"},"meta":{"pop":"1548","dem":"491","tz":"Europe/Warsaw"}},{"id":"3089256","name":"Pewel Ślemieńska","ascii_name":"Pewel Slemienska","lat":"49.68968","lon":"19.33431","country":"PL","lastUpdated":"2010-09-06","type":{"class":"P","code":"PPL"},"region":{"a1":"83","a2":"2417","a3":"241713"},"meta":{"pop":"1555","dem":"499","tz":"Europe/Warsaw"}},{"id":"3089267","name":"Perzów","ascii_name":"Perzow","lat":"51.27625","lon":"17.8097","country":"PL","lastUpdated":"2010-10-16","type":{"class":"P","code":"PPLA3"},"region":{"a1":"86","a2":"3008","a3":"300805"},"meta":{"pop":"774","dem":"177","tz":"Europe/Warsaw"}},{"id":"3089276","name":"Pępowo","ascii_name":"Pepowo","lat":"51.76569","lon":"17.12661","country":"PL","lastUpdated":"2010-09-23","type":{"class":"P","code":"PPLA3"},"region":{"a1":"86","a2":"3004","a3":"300404"},"meta":{"pop":"1780","dem":"118","tz":"Europe/Warsaw"}},{"id":"3089282","name":"Pelplin","ascii_name":"Pelplin","lat":"53.92834","lon":"18.6977","country":"PL","lastUpdated":"2017-07-24","type":{"class":"P","code":"PPL"},"region":{"a1":"82","a2":"2214","a3":"221404"},"meta":{"pop":"8320","dem":"41","tz":"Europe/Warsaw"}},{"id":"3089286","name":"Pełczyce","ascii_name":"Pelczyce","lat":"53.04354","lon":"15.30447","country":"PL","cc2":"PL","lastUpdated":"2011-07-31","type":{"class":"P","code":"PPLA3"},"region":{"a1":"87","a2":"3202","a3":"320205"},"meta":{"pop":"2808","dem":"79","tz":"Europe/Warsaw"}},{"id":"3089298","name":"Pęczniew","ascii_name":"Peczniew","lat":"51.80384","lon":"18.72311","country":"PL","lastUpdated":"2010-10-16","type":{"class":"P","code":"PPLA3"},"region":{"a1":"74","a2":"1011","a3":"101102"},"meta":{"pop":"3871","dem":"119","tz":"Europe/Warsaw"}},{"id":"3089301","name":"Pecna","ascii_name":"Pecna","lat":"52.18333","lon":"16.8","country":"PL","lastUpdated":"2015-09-05","type":{"class":"P","code":"PPL"},"region":{"a1":"86","a2":"3021","a3":"302110"},"meta":{"pop":"1825","dem":"64","tz":"Europe/Warsaw"}},{"id":"3089310","name":"Pcim","ascii_name":"Pcim","lat":"49.75166","lon":"19.97108","country":"PL","lastUpdated":"2010-10-23","type":{"class":"P","code":"PPLA3"},"region":{"a1":"77","a2":"1209","a3":"120904"},"meta":{"pop":"4900","dem":"324","tz":"Europe/Warsaw"}},{"id":"3089316","name":"Pawonków","ascii_name":"Pawonkow","lat":"50.69499","lon":"18.58149","country":"PL","lastUpdated":"2010-09-06","type":{"class":"P","code":"PPL"},"region":{"a1":"83","a2":"2407","a3":"240707"},"meta":{"pop":"1496","dem":"261","tz":"Europe/Warsaw"}},{"id":"3089332","name":"Pawłowiczki","ascii_name":"Pawlowiczki","lat":"50.2466","lon":"18.04865","country":"PL","lastUpdated":"2010-09-25","type":{"class":"P","code":"PPLA3"},"region":{"a1":"79","a2":"1603","a3":"160304"},"meta":{"pop":"1300","dem":"224","tz":"Europe/Warsaw"}},{"id":"3089340","name":"Pawłowice","ascii_name":"Pawlowice","lat":"49.96127","lon":"18.71778","country":"PL","lastUpdated":"2010-09-06","type":{"class":"P","code":"PPL"},"region":{"a1":"83","a2":"2410","a3":"241004"},"meta":{"pop":"9929","dem":"264","tz":"Europe/Warsaw"}},{"id":"3089372","name":"Pątnów","ascii_name":"Patnow","lat":"51.14403","lon":"18.61659","country":"PL","lastUpdated":"2010-09-06","type":{"class":"P","code":"PPL"},"region":{"a1":"74","a2":"1017","a3":"101707"},"meta":{"pop":"1400","dem":"211","tz":"Europe/Warsaw"}},{"id":"3089375","name":"Paszowice","ascii_name":"Paszowice","lat":"51.01078","lon":"16.15273","country":"PL","lastUpdated":"2010-09-09","type":{"class":"P","code":"PPL"},"region":{"a1":"72","a2":"0205","a3":"020505"},"meta":{"pop":"1429","dem":"229","tz":"Europe/Warsaw"}},{"id":"3089392","name":"Pasłęk","ascii_name":"Paslek","lat":"54.0616","lon":"19.65932","country":"PL","lastUpdated":"2011-07-31","type":{"class":"P","code":"PPLA3"},"region":{"a1":"85","a2":"2804","a3":"280407"},"meta":{"pop":"12267","dem":"39","tz":"Europe/Warsaw"}},{"id":"3089421","name":"Parzęczew","ascii_name":"Parzeczew","lat":"51.94855","lon":"19.20608","country":"PL","lastUpdated":"2010-10-15","type":{"class":"P","code":"PPLA3"},"region":{"a1":"74","a2":"1020","a3":"102007"},"meta":{"pop":"672","dem":"133","tz":"Europe/Warsaw"}},{"id":"3089461","name":"Parchowo","ascii_name":"Parchowo","lat":"54.20658","lon":"17.66816","country":"PL","lastUpdated":"2010-09-24","type":{"class":"P","code":"PPLA3"},"region":{"a1":"82","a2":"2201","a3":"220107"},"meta":{"pop":"1019","dem":"188","tz":"Europe/Warsaw"}},{"id":"3089494","name":"Panki","ascii_name":"Panki","lat":"50.88333","lon":"18.7516","country":"PL","lastUpdated":"2010-09-05","type":{"class":"P","code":"PPL"},"region":{"a1":"83","a2":"2406","a3":"240606"},"meta":{"pop":"1733","dem":"236","tz":"Europe/Warsaw"}},{"id":"3089496","name":"Paniówki","ascii_name":"Paniowki","lat":"50.23139","lon":"18.78104","country":"PL","lastUpdated":"2010-09-06","type":{"class":"P","code":"PPL"},"region":{"a1":"83","a2":"2405","a3":"240503"},"meta":{"pop":"2297","dem":"234","tz":"Europe/Warsaw"}},{"id":"3089507","name":"Pamiątkowo","ascii_name":"Pamiatkowo","lat":"52.55334","lon":"16.68094","country":"PL","lastUpdated":"2011-01-08","type":{"class":"P","code":"PPL"},"region":{"a1":"86","a2":"3024","a3":"302407"},"meta":{"pop":"1200","dem":"77","tz":"Europe/Warsaw"}},{"id":"3089533","name":"Palcza","ascii_name":"Palcza","lat":"49.80454","lon":"19.74389","country":"PL","lastUpdated":"2010-09-23","type":{"class":"P","code":"PPL"},"region":{"a1":"77","a2":"1215","a3":"121503"},"meta":{"pop":"1100","dem":"442","tz":"Europe/Warsaw"}},{"id":"3089541","name":"Pakosławice","ascii_name":"Pakoslawice","lat":"50.54474","lon":"17.36578","country":"PL","lastUpdated":"2010-09-25","type":{"class":"P","code":"PPLA3"},"region":{"a1":"79","a2":"1607","a3":"160708"},"meta":{"pop":"500","dem":"186","tz":"Europe/Warsaw"}},{"id":"3089543","name":"Pakosław","ascii_name":"Pakoslaw","lat":"51.61438","lon":"17.05793","country":"PL","lastUpdated":"2010-09-28","type":{"class":"P","code":"PPL"},"region":{"a1":"86","a2":"3022","a3":"302204"},"meta":{"pop":"1061","dem":"97","tz":"Europe/Warsaw"}},{"id":"3089547","name":"Pakość","ascii_name":"Pakosc","lat":"52.80178","lon":"18.0853","country":"PL","lastUpdated":"2014-06-27","type":{"class":"P","code":"PPLA3"},"region":{"a1":"73","a2":"0407","a3":"040707"},"meta":{"pop":"5762","dem":"80","tz":"Europe/Warsaw"}},{"id":"3089553","name":"Pajęczno","ascii_name":"Pajeczno","lat":"51.14449","lon":"18.99612","country":"PL","lastUpdated":"2011-07-31","type":{"class":"P","code":"PPLA3"},"region":{"a1":"74","a2":"1009","a3":"100904"},"meta":{"pop":"6731","dem":"222","tz":"Europe/Warsaw"}},{"id":"3089566","name":"Paczków","ascii_name":"Paczkow","lat":"50.46395","lon":"17.00658","country":"PL","cc2":"PL","lastUpdated":"2010-09-25","type":{"class":"P","code":"PPLA3"},"region":{"a1":"79","a2":"1607","a3":"160707"},"meta":{"pop":"8081","dem":"229","tz":"Europe/Warsaw"}},{"id":"3089569","name":"Pacyna","ascii_name":"Pacyna","lat":"52.30281","lon":"19.70982","country":"PL","lastUpdated":"2010-10-01","type":{"class":"P","code":"PPLA3"},"region":{"a1":"78","a2":"1404","a3":"140403"},"meta":{"pop":"219","dem":"99","tz":"Europe/Warsaw"}},{"id":"3089578","name":"Pabianice","ascii_name":"Pabianice","lat":"51.66446","lon":"19.35473","country":"PL","lastUpdated":"2014-05-11","type":{"class":"P","code":"PPLA2"},"region":{"a1":"74","a2":"1008","a3":"100802"},"meta":{"pop":"70542","dem":"179","tz":"Europe/Warsaw"}},{"id":"3089582","name":"Ozorków","ascii_name":"Ozorkow","lat":"51.96336","lon":"19.29139","country":"PL","lastUpdated":"2010-10-15","type":{"class":"P","code":"PPLA3"},"region":{"a1":"74","a2":"1020","a3":"102002"},"meta":{"pop":"20608","dem":"124","tz":"Europe/Warsaw"}},{"id":"3089583","name":"Ozimek","ascii_name":"Ozimek","lat":"50.67944","lon":"18.2137","country":"PL","lastUpdated":"2010-09-12","type":{"class":"P","code":"PPL"},"region":{"a1":"79","a2":"1609","a3":"160908"},"meta":{"pop":"9963","dem":"183","tz":"Europe/Warsaw"}},{"id":"3089590","name":"Ożarowice","ascii_name":"Ozarowice","lat":"50.46182","lon":"19.04317","country":"PL","cc2":"PL","lastUpdated":"2010-09-20","type":{"class":"P","code":"PPLA3"},"region":{"a1":"83","a2":"2413","a3":"241306"},"meta":{"pop":"1532","dem":"292","tz":"Europe/Warsaw"}},{"id":"3089591","name":"Ożarów","ascii_name":"Ozarow","lat":"51.14489","lon":"18.5111","country":"PL","lastUpdated":"2010-09-26","type":{"class":"P","code":"PPL"},"region":{"a1":"74","a2":"1017","a3":"101704"},"meta":{"pop":"1013","dem":"239","tz":"Europe/Warsaw"}},{"id":"3089612","name":"Otyń","ascii_name":"Otyn","lat":"51.84766","lon":"15.71105","country":"PL","cc2":"PL","lastUpdated":"2020-04-25","type":{"class":"P","code":"PPLA3"},"region":{"a1":"76","a2":"0804","a3":"080407"},"meta":{"pop":"1200","dem":"64","tz":"Europe/Warsaw"}},{"id":"3089642","name":"Otmuchów","ascii_name":"Otmuchow","lat":"50.46627","lon":"17.17348","country":"PL","cc2":"PL","lastUpdated":"2017-07-24","type":{"class":"P","code":"PPLA3"},"region":{"a1":"79","a2":"1607","a3":"160706"},"meta":{"pop":"5181","dem":"208","tz":"Europe/Warsaw"}},{"id":"3089658","name":"Oświęcim","ascii_name":"Oswiecim","lat":"50.03437","lon":"19.21037","country":"PL","lastUpdated":"2021-11-19","type":{"class":"P","code":"PPL"},"region":{"a1":"77","a2":"1213","a3":"121301"},"meta":{"pop":"39057","dem":"232","tz":"Europe/Warsaw"}},{"id":"3089670","name":"Ostrzeszów","ascii_name":"Ostrzeszow","lat":"51.4264","lon":"17.93355","country":"PL","lastUpdated":"2019-09-05","type":{"class":"P","code":"PPLA2"},"region":{"a1":"86","a2":"3018","a3":"301807"},"meta":{"pop":"14446","dem":"201","tz":"Europe/Warsaw"}},{"id":"3089680","name":"Ostrowy","ascii_name":"Ostrowy","lat":"52.30444","lon":"19.16565","country":"PL","lastUpdated":"2010-09-07","type":{"class":"P","code":"PPL"},"region":{"a1":"74","a2":"1002","a3":"100208"},"meta":{"pop":"1200","dem":"123","tz":"Europe/Warsaw"}},{"id":"3089681","name":"Ostrowy nad Okszą","ascii_name":"Ostrowy nad Oksza","lat":"50.97799","lon":"19.05355","country":"PL","lastUpdated":"2010-09-07","type":{"class":"P","code":"PPL"},"region":{"a1":"83","a2":"2406","a3":"240604"},"meta":{"pop":"1935","dem":"208","tz":"Europe/Warsaw"}},{"id":"3089684","name":"Ostrów Wielkopolski","ascii_name":"Ostrow Wielkopolski","lat":"51.65501","lon":"17.80686","country":"PL","lastUpdated":"2020-06-21","type":{"class":"P","code":"PPLA2"},"region":{"a1":"86","a2":"3017","a3":"301701"},"meta":{"pop":"72898","dem":"130","tz":"Europe/Warsaw"}},{"id":"3089716","name":"Ostrowite","ascii_name":"Ostrowite","lat":"53.06917","lon":"19.29337","country":"PL","lastUpdated":"2010-10-16","type":{"class":"P","code":"PPL"},"region":{"a1":"73","a2":"0412","a3":"041202"},"meta":{"pop":"1300","dem":"116","tz":"Europe/Warsaw"}},{"id":"3089719","name":"Ostrowite","ascii_name":"Ostrowite","lat":"52.38199","lon":"18.0447","country":"PL","lastUpdated":"2010-10-16","type":{"class":"P","code":"PPLA3"},"region":{"a1":"86","a2":"3023","a3":"302304"},"meta":{"pop":"582","dem":"107","tz":"Europe/Warsaw"}},{"id":"3089764","name":"Ostroszowice","ascii_name":"Ostroszowice","lat":"50.64576","lon":"16.63965","country":"PL","cc2":"PL","lastUpdated":"2010-09-11","type":{"class":"P","code":"PPL"},"region":{"a1":"72","a2":"0202","a3":"020205"},"meta":{"pop":"1303","dem":"387","tz":"Europe/Warsaw"}},{"id":"3089767","name":"Ostroróg","ascii_name":"Ostrorog","lat":"52.6265","lon":"16.44988","country":"PL","lastUpdated":"2020-04-25","type":{"class":"P","code":"PPLA3"},"region":{"a1":"86","a2":"3024","a3":"302405"},"meta":{"pop":"1984","dem":"77","tz":"Europe/Warsaw"}},{"id":"3089779","name":"Ostróda","ascii_name":"Ostroda","lat":"53.69671","lon":"19.96486","country":"PL","lastUpdated":"2010-10-16","type":{"class":"P","code":"PPLA2"},"region":{"a1":"85","a2":"2815","a3":"281501"},"meta":{"pop":"33524","dem":"111","tz":"Europe/Warsaw"}},{"id":"3089781","name":"Ostrężnica","ascii_name":"Ostreznica","lat":"50.19262","lon":"19.57077","country":"PL","lastUpdated":"2010-10-17","type":{"class":"P","code":"PPL"},"region":{"a1":"77","a2":"1206","a3":"120606"},"meta":{"pop":"1054","dem":"456","tz":"Europe/Warsaw"}},{"id":"3089791","name":"Ostaszewo","ascii_name":"Ostaszewo","lat":"54.21256","lon":"18.95142","country":"PL","lastUpdated":"2010-09-05","type":{"class":"P","code":"PPL"},"region":{"a1":"82","a2":"2210","a3":"221003"},"meta":{"pop":"1017","dem":"3","tz":"Europe/Warsaw"}},{"id":"3089832","name":"Ośno Lubuskie","ascii_name":"Osno Lubuskie","lat":"52.4536","lon":"14.87549","country":"PL","cc2":"PL","lastUpdated":"2010-10-16","type":{"class":"P","code":"PPLA3"},"region":{"a1":"76","a2":"0805","a3":"080503"},"meta":{"pop":"3730","dem":"46","tz":"Europe/Warsaw"}},{"id":"3089855","name":"Osjaków","ascii_name":"Osjakow","lat":"51.28946","lon":"18.79151","country":"PL","lastUpdated":"2020-01-07","type":{"class":"P","code":"PPL"},"region":{"a1":"74","a2":"1017","a3":"101705"},"meta":{"pop":"1221","dem":"162","tz":"Europe/Warsaw"}},{"id":"3089876","name":"Osina","ascii_name":"Osina","lat":"53.60473","lon":"15.0123","country":"PL","lastUpdated":"2010-09-22","type":{"class":"P","code":"PPLA3"},"region":{"a1":"87","a2":"3204","a3":"320405"},"meta":{"pop":"2952","dem":"53","tz":"Europe/Warsaw"}},{"id":"3089881","name":"Osielsko","ascii_name":"Osielsko","lat":"53.18505","lon":"18.08418","country":"PL","lastUpdated":"2010-09-13","type":{"class":"P","code":"PPL"},"region":{"a1":"73","a2":"0403","a3":"040306"},"meta":{"pop":"3930","dem":"93","tz":"Europe/Warsaw"}},{"id":"3089882","name":"Osielec","ascii_name":"Osielec","lat":"49.68079","lon":"19.78243","country":"PL","lastUpdated":"2010-09-22","type":{"class":"P","code":"PPL"},"region":{"a1":"77","a2":"1215","a3":"121505"},"meta":{"pop":"3000","dem":"466","tz":"Europe/Warsaw"}},{"id":"3089891","name":"Osiek nad Notecią","ascii_name":"Osiek nad Notecia","lat":"53.1203","lon":"17.29102","country":"PL","lastUpdated":"2017-08-29","type":{"class":"P","code":"PPL"},"region":{"a1":"86","a2":"3019","a3":"301908"},"meta":{"pop":"4000","dem":"54","tz":"Europe/Warsaw"}},{"id":"3089892","name":"Osiek Mały","ascii_name":"Osiek Maly","lat":"52.2763","lon":"18.60234","country":"PL","lastUpdated":"2010-10-15","type":{"class":"P","code":"PPLA3"},"region":{"a1":"86","a2":"3009","a3":"300910"},"meta":{"pop":"630","dem":"106","tz":"Europe/Warsaw"}},{"id":"3089904","name":"Osiek","ascii_name":"Osiek","lat":"53.72226","lon":"18.49051","country":"PL","lastUpdated":"2010-09-29","type":{"class":"P","code":"PPLA3"},"region":{"a1":"82","a2":"2213","a3":"221308"},"meta":{"pop":"1012","dem":"91","tz":"Europe/Warsaw"}},{"id":"3089908","name":"Osiek","ascii_name":"Osiek","lat":"52.92629","lon":"18.80765","country":"PL","cc2":"PL","lastUpdated":"2017-09-12","type":{"class":"P","code":"PPL"},"region":{"a1":"73","a2":"0415","a3":"041507"},"meta":{"pop":"1064","dem":"56","tz":"Europe/Warsaw"}},{"id":"3089917","name":"Osiek","ascii_name":"Osiek","lat":"51.36717","lon":"16.2338","country":"PL","lastUpdated":"2015-08-24","type":{"class":"P","code":"PPL"},"region":{"a1":"72","a2":"0211","a3":"021102"},"meta":{"pop":"1117","dem":"123","tz":"Europe/Warsaw"}},{"id":"3089923","name":"Osiek","ascii_name":"Osiek","lat":"50.24353","lon":"19.60047","country":"PL","lastUpdated":"2010-09-29","type":{"class":"P","code":"PPL"},"region":{"a1":"77","a2":"1212","a3":"121205"},"meta":{"pop":"1405","dem":"432","tz":"Europe/Warsaw"}},{"id":"3089924","name":"Osiek","ascii_name":"Osiek","lat":"49.95067","lon":"19.26444","country":"PL","lastUpdated":"2010-09-29","type":{"class":"P","code":"PPLA3"},"region":{"a1":"77","a2":"1213","a3":"121305"},"meta":{"pop":"8000","dem":"259","tz":"Europe/Warsaw"}},{"id":"3089934","name":"Osieczna","ascii_name":"Osieczna","lat":"51.9042","lon":"16.67862","country":"PL","lastUpdated":"2020-04-25","type":{"class":"P","code":"PPLA3"},"region":{"a1":"86","a2":"3013","a3":"301303"},"meta":{"pop":"2132","dem":"80","tz":"Europe/Warsaw"}},