[{"id":"3946110","name":"Callahuanca","ascii_name":"Callahuanca","lat":"-11.82833","lon":"-76.61639","country":"PE","lastUpdated":"2012-07-19","type":{"class":"P","code":"PPLA3"},"region":{"a1":"15","a2":"1507","a3":"150703"},"meta":{"pop":"0","dem":"1732","tz":"America/Lima"}},{"id":"3946147","name":"Caleta de Carquín","ascii_name":"Caleta de Carquin","lat":"-11.0925","lon":"-77.62667","country":"PE","lastUpdated":"2012-07-19","type":{"class":"P","code":"PPL"},"region":{"a1":"15","a2":"1508","a3":"150803"},"meta":{"pop":"5514","dem":"13","tz":"America/Lima"}},{"id":"3946177","name":"Calca","ascii_name":"Calca","lat":"-13.33333","lon":"-71.95","country":"PE","lastUpdated":"2018-04-28","type":{"class":"P","code":"PPLA3"},"region":{"a1":"08","a2":"0804","a3":"080401"},"meta":{"pop":"9179","dem":"2924","tz":"America/Lima"}},{"id":"3946194","name":"Calapuja","ascii_name":"Calapuja","lat":"-15.31667","lon":"-70.21667","country":"PE","lastUpdated":"2020-05-07","type":{"class":"P","code":"PPLA3"},"region":{"a1":"21","a2":"2107","a3":"210703"},"meta":{"pop":"375","dem":"3842","tz":"America/Lima"}},{"id":"3946203","name":"Calango","ascii_name":"Calango","lat":"-12.52618","lon":"-76.54413","country":"PE","lastUpdated":"2020-05-13","type":{"class":"P","code":"PPLA3"},"region":{"a1":"15","a2":"1505","a3":"150503"},"meta":{"pop":"651","dem":"315","tz":"America/Lima"}},{"id":"3946212","name":"Calana","ascii_name":"Calana","lat":"-17.94167","lon":"-70.18694","country":"PE","lastUpdated":"2012-07-19","type":{"class":"P","code":"PPLA3"},"region":{"a1":"23","a2":"2301","a3":"230103"},"meta":{"pop":"875","dem":"896","tz":"America/Lima"}},{"id":"3946237","name":"Calacoa","ascii_name":"Calacoa","lat":"-16.75","lon":"-70.7","country":"PE","lastUpdated":"2012-07-19","type":{"class":"P","code":"PPLA3"},"region":{"a1":"18","a2":"1801","a3":"180105"},"meta":{"pop":"0","dem":"2914","tz":"America/Lima"}},{"id":"3946280","name":"Cajacay","ascii_name":"Cajacay","lat":"-10.15663","lon":"-77.44208","country":"PE","lastUpdated":"2020-05-13","type":{"class":"P","code":"PPLA3"},"region":{"a1":"02","a2":"0205","a3":"020505"},"meta":{"pop":"636","dem":"2581","tz":"America/Lima"}},{"id":"3946286","name":"Caja","ascii_name":"Caja","lat":"-12.88333","lon":"-74.46667","country":"PE","lastUpdated":"2012-07-19","type":{"class":"P","code":"PPLA3"},"region":{"a1":"09","a2":"0902","a3":"090204"},"meta":{"pop":"0","dem":"3486","tz":"America/Lima"}},{"id":"3946292","name":"Cairani","ascii_name":"Cairani","lat":"-17.2857","lon":"-70.36329","country":"PE","lastUpdated":"2020-05-13","type":{"class":"P","code":"PPLA3"},"region":{"a1":"23","a2":"2302","a3":"230202"},"meta":{"pop":"604","dem":"3394","tz":"America/Lima"}},{"id":"3946310","name":"Caicay","ascii_name":"Caicay","lat":"-13.597","lon":"-71.69627","country":"PE","lastUpdated":"2020-05-07","type":{"class":"P","code":"PPLA3"},"region":{"a1":"08","a2":"0811","a3":"081102"},"meta":{"pop":"333","dem":"3109","tz":"America/Lima"}},{"id":"3946323","name":"Cahuacho","ascii_name":"Cahuacho","lat":"-15.50611","lon":"-73.47917","country":"PE","lastUpdated":"2020-05-06","type":{"class":"P","code":"PPLA3"},"region":{"a1":"04","a2":"0403","a3":"040306"},"meta":{"pop":"252","dem":"3406","tz":"America/Lima"}},{"id":"3946341","name":"Cacra","ascii_name":"Cacra","lat":"-12.81278","lon":"-75.78306","country":"PE","lastUpdated":"2020-05-06","type":{"class":"P","code":"PPLA3"},"region":{"a1":"15","a2":"1510","a3":"151006"},"meta":{"pop":"179","dem":"2778","tz":"America/Lima"}},{"id":"3946350","name":"Cachora","ascii_name":"Cachora","lat":"-13.51227","lon":"-72.81296","country":"PE","lastUpdated":"2020-05-13","type":{"class":"P","code":"PPLA3"},"region":{"a1":"03","a2":"0301","a3":"030108"},"meta":{"pop":"805","dem":"2897","tz":"America/Lima"}},{"id":"3946373","name":"Cachimayo","ascii_name":"Cachimayo","lat":"-13.47583","lon":"-72.07222","country":"PE","lastUpdated":"2012-07-19","type":{"class":"P","code":"PPLA3"},"region":{"a1":"08","a2":"0803","a3":"080303"},"meta":{"pop":"0","dem":"3424","tz":"America/Lima"}},{"id":"3946473","name":"Cabanilla","ascii_name":"Cabanilla","lat":"-15.62028","lon":"-70.34583","country":"PE","lastUpdated":"2020-05-13","type":{"class":"P","code":"PPLA3"},"region":{"a1":"21","a2":"2107","a3":"210702"},"meta":{"pop":"895","dem":"3883","tz":"America/Lima"}},{"id":"3946475","name":"Cabanaconde","ascii_name":"Cabanaconde","lat":"-15.62139","lon":"-71.97889","country":"PE","lastUpdated":"2012-07-19","type":{"class":"P","code":"PPLA3"},"region":{"a1":"04","a2":"0405","a3":"040503"},"meta":{"pop":"0","dem":"3303","tz":"America/Lima"}},{"id":"3946476","name":"Cabana","ascii_name":"Cabana","lat":"-15.64949","lon":"-70.32192","country":"PE","lastUpdated":"2020-05-13","type":{"class":"P","code":"PPLA3"},"region":{"a1":"21","a2":"2111","a3":"211102"},"meta":{"pop":"824","dem":"3900","tz":"America/Lima"}},{"id":"3946478","name":"Cabana","ascii_name":"Cabana","lat":"-14.29083","lon":"-73.96667","country":"PE","lastUpdated":"2012-07-19","type":{"class":"P","code":"PPLA3"},"region":{"a1":"05","a2":"0506","a3":"050603"},"meta":{"pop":"0","dem":"3303","tz":"America/Lima"}},{"id":"3946644","name":"Bolognesi","ascii_name":"Bolognesi","lat":"-10.06444","lon":"-74.005","country":"PE","lastUpdated":"2012-07-19","type":{"class":"P","code":"PPLA3"},"region":{"a1":"25","a2":"2502","a3":"250203"},"meta":{"pop":"0","dem":"173","tz":"America/Lima"}},{"id":"3946820","name":"Barranca","ascii_name":"Barranca","lat":"-10.75","lon":"-77.76667","country":"PE","lastUpdated":"2012-07-19","type":{"class":"P","code":"PPLA3"},"region":{"a1":"15","a2":"1502","a3":"150201"},"meta":{"pop":"46290","dem":"52","tz":"America/Lima"}},{"id":"3946838","name":"Baños","ascii_name":"Banos","lat":"-10.07667","lon":"-76.73528","country":"PE","lastUpdated":"2012-07-19","type":{"class":"P","code":"PPLA3"},"region":{"a1":"10","a2":"1010","a3":"101002"},"meta":{"pop":"0","dem":"3414","tz":"America/Lima"}},{"id":"3946937","name":"Azángaro","ascii_name":"Azangaro","lat":"-14.90843","lon":"-70.19616","country":"PE","lastUpdated":"2012-12-06","type":{"class":"P","code":"PPL"},"region":{"a1":"21","a2":"2102","a3":"210201"},"meta":{"pop":"13290","dem":"3868","tz":"America/Lima"}},{"id":"3946951","name":"Ayrampuni","ascii_name":"Ayrampuni","lat":"-15.06035","lon":"-69.88968","country":"PE","lastUpdated":"2020-05-06","type":{"class":"P","code":"PPLA3"},"region":{"a1":"21","a2":"2110","a3":"211003"},"meta":{"pop":"338","dem":"3863","tz":"America/Lima"}},{"id":"3946960","name":"Ayo","ascii_name":"Ayo","lat":"-15.68167","lon":"-72.27417","country":"PE","lastUpdated":"2020-05-06","type":{"class":"P","code":"PPLA3"},"region":{"a1":"04","a2":"0404","a3":"040403"},"meta":{"pop":"262","dem":"1983","tz":"America/Lima"}},{"id":"3946962","name":"Ayna","ascii_name":"Ayna","lat":"-12.65","lon":"-73.91667","country":"PE","lastUpdated":"2019-02-22","type":{"class":"P","code":"PPL"},"region":{"a1":"05","a2":"0504","a3":"050407"},"meta":{"pop":"4588","dem":"1921","tz":"America/Lima"}},{"id":"3946985","name":"Ayaviri","ascii_name":"Ayaviri","lat":"-14.88639","lon":"-70.58889","country":"PE","lastUpdated":"2012-07-19","type":{"class":"P","code":"PPLA3"},"region":{"a1":"21","a2":"2108","a3":"210801"},"meta":{"pop":"19310","dem":"3898","tz":"America/Lima"}},{"id":"3947019","name":"Ayacucho","ascii_name":"Ayacucho","lat":"-13.15878","lon":"-74.22321","country":"PE","lastUpdated":"2019-09-05","type":{"class":"P","code":"PPLA"},"region":{"a1":"05","a2":"0501","a3":"050101"},"meta":{"pop":"140033","dem":"2743","tz":"America/Lima"}},{"id":"3947092","name":"Aucallama","ascii_name":"Aucallama","lat":"-11.55778","lon":"-77.18083","country":"PE","lastUpdated":"2012-07-19","type":{"class":"P","code":"PPLA3"},"region":{"a1":"15","a2":"1506","a3":"150604"},"meta":{"pop":"0","dem":"140","tz":"America/Lima"}},{"id":"3947110","name":"Atuncolla","ascii_name":"Atuncolla","lat":"-15.68333","lon":"-70.15","country":"PE","lastUpdated":"2012-07-19","type":{"class":"P","code":"PPLA3"},"region":{"a1":"21","a2":"2101","a3":"210104"},"meta":{"pop":"12654","dem":"3828","tz":"America/Lima"}},{"id":"3947142","name":"Atiquipa","ascii_name":"Atiquipa","lat":"-15.79611","lon":"-74.36361","country":"PE","lastUpdated":"2020-05-06","type":{"class":"P","code":"PPLA3"},"region":{"a1":"04","a2":"0403","a3":"040304"},"meta":{"pop":"137","dem":"310","tz":"America/Lima"}},{"id":"3947150","name":"Atico","ascii_name":"Atico","lat":"-16.20944","lon":"-73.62222","country":"PE","lastUpdated":"2020-05-06","type":{"class":"P","code":"PPLA3"},"region":{"a1":"04","a2":"0403","a3":"040303"},"meta":{"pop":"199","dem":"80","tz":"America/Lima"}},{"id":"3947157","name":"Ataura","ascii_name":"Ataura","lat":"-11.80135","lon":"-75.43969","country":"PE","lastUpdated":"2012-07-19","type":{"class":"P","code":"PPLA3"},"region":{"a1":"12","a2":"1204","a3":"120404"},"meta":{"pop":"0","dem":"3342","tz":"America/Lima"}},{"id":"3947203","name":"Asquipata","ascii_name":"Asquipata","lat":"-14.055","lon":"-73.91","country":"PE","lastUpdated":"2020-05-06","type":{"class":"P","code":"PPLA3"},"region":{"a1":"05","a2":"0510","a3":"051004"},"meta":{"pop":"178","dem":"3335","tz":"America/Lima"}},{"id":"3947228","name":"Asillo","ascii_name":"Asillo","lat":"-14.78333","lon":"-70.35","country":"PE","lastUpdated":"2019-07-21","type":{"class":"P","code":"PPLA3"},"region":{"a1":"21","a2":"2102","a3":"210204"},"meta":{"pop":"0","dem":"3903","tz":"America/Lima"}},{"id":"3947240","name":"Asia","ascii_name":"Asia","lat":"-12.7794","lon":"-76.55666","country":"PE","lastUpdated":"2020-05-13","type":{"class":"P","code":"PPLA3"},"region":{"a1":"15","a2":"1505","a3":"150502"},"meta":{"pop":"890","dem":"47","tz":"America/Lima"}},{"id":"3947300","name":"Arma","ascii_name":"Arma","lat":"-13.11667","lon":"-75.53333","country":"PE","lastUpdated":"2020-05-06","type":{"class":"P","code":"PPLA3"},"region":{"a1":"09","a2":"0904","a3":"090402"},"meta":{"pop":"284","dem":"3938","tz":"America/Lima"}},{"id":"3947322","name":"Arequipa","ascii_name":"Arequipa","lat":"-16.39889","lon":"-71.535","country":"PE","lastUpdated":"2022-08-20","type":{"class":"P","code":"PPLA"},"region":{"a1":"04","a2":"0401","a3":"040101"},"meta":{"pop":"1008290","dem":"2355","tz":"America/Lima"}},{"id":"3947385","name":"Arapa","ascii_name":"Arapa","lat":"-15.13902","lon":"-70.10957","country":"PE","lastUpdated":"2020-05-13","type":{"class":"P","code":"PPLA3"},"region":{"a1":"21","a2":"2102","a3":"210203"},"meta":{"pop":"907","dem":"3830","tz":"America/Lima"}},{"id":"3947397","name":"Arahuay","ascii_name":"Arahuay","lat":"-11.62222","lon":"-76.66944","country":"PE","lastUpdated":"2020-05-07","type":{"class":"P","code":"PPLA3"},"region":{"a1":"15","a2":"1504","a3":"150402"},"meta":{"pop":"356","dem":"2559","tz":"America/Lima"}},{"id":"3947409","name":"Aquia","ascii_name":"Aquia","lat":"-10.0742","lon":"-77.14649","country":"PE","lastUpdated":"2020-05-13","type":{"class":"P","code":"PPLA3"},"region":{"a1":"02","a2":"0205","a3":"020504"},"meta":{"pop":"809","dem":"3345","tz":"America/Lima"}},{"id":"3947431","name":"Apongo","ascii_name":"Apongo","lat":"-14.01486","lon":"-73.93431","country":"PE","lastUpdated":"2020-05-13","type":{"class":"P","code":"PPLA3"},"region":{"a1":"05","a2":"0510","a3":"051003"},"meta":{"pop":"898","dem":"3138","tz":"America/Lima"}},{"id":"3947437","name":"Aplao","ascii_name":"Aplao","lat":"-16.07583","lon":"-72.49389","country":"PE","lastUpdated":"2012-07-19","type":{"class":"P","code":"PPLA3"},"region":{"a1":"04","a2":"0404","a3":"040401"},"meta":{"pop":"0","dem":"648","tz":"America/Lima"}},{"id":"3947445","name":"Apata","ascii_name":"Apata","lat":"-11.85461","lon":"-75.35344","country":"PE","lastUpdated":"2012-07-19","type":{"class":"P","code":"PPLA3"},"region":{"a1":"12","a2":"1204","a3":"120403"},"meta":{"pop":"0","dem":"3340","tz":"America/Lima"}},{"id":"3947519","name":"Antauta","ascii_name":"Antauta","lat":"-14.4","lon":"-70.36667","country":"PE","lastUpdated":"2012-07-19","type":{"class":"P","code":"PPLA3"},"region":{"a1":"21","a2":"2108","a3":"210802"},"meta":{"pop":"0","dem":"4775","tz":"America/Lima"}},{"id":"3947554","name":"Antaparco","ascii_name":"Antaparco","lat":"-13.07756","lon":"-74.41216","country":"PE","lastUpdated":"2020-05-13","type":{"class":"P","code":"PPLA3"},"region":{"a1":"09","a2":"0903","a3":"090310"},"meta":{"pop":"555","dem":"2767","tz":"America/Lima"}},{"id":"3947614","name":"Antabamba","ascii_name":"Antabamba","lat":"-14.36056","lon":"-72.87556","country":"PE","lastUpdated":"2012-07-19","type":{"class":"P","code":"PPLA3"},"region":{"a1":"03","a2":"0303","a3":"030301"},"meta":{"pop":"0","dem":"3494","tz":"America/Lima"}},{"id":"3947634","name":"Anta","ascii_name":"Anta","lat":"-13.47056","lon":"-72.14833","country":"PE","lastUpdated":"2012-07-19","type":{"class":"P","code":"PPLA3"},"region":{"a1":"08","a2":"0803","a3":"080301"},"meta":{"pop":"5859","dem":"3431","tz":"America/Lima"}},{"id":"3947653","name":"Aniso","ascii_name":"Aniso","lat":"-14.80861","lon":"-73.29111","country":"PE","lastUpdated":"2020-05-06","type":{"class":"P","code":"PPLA3"},"region":{"a1":"05","a2":"0507","a3":"050703"},"meta":{"pop":"195","dem":"3602","tz":"America/Lima"}},{"id":"3947715","name":"Andaray","ascii_name":"Andaray","lat":"-15.79667","lon":"-72.86056","country":"PE","lastUpdated":"2020-05-07","type":{"class":"P","code":"PPLA3"},"region":{"a1":"04","a2":"0406","a3":"040602"},"meta":{"pop":"351","dem":"3035","tz":"America/Lima"}},{"id":"3947718","name":"Andarapa","ascii_name":"Andarapa","lat":"-13.52611","lon":"-73.36611","country":"PE","lastUpdated":"2020-05-07","type":{"class":"P","code":"PPLA3"},"region":{"a1":"03","a2":"0302","a3":"030202"},"meta":{"pop":"427","dem":"2914","tz":"America/Lima"}},{"id":"3947727","name":"Andamarca","ascii_name":"Andamarca","lat":"-14.38722","lon":"-73.96083","country":"PE","lastUpdated":"2012-07-19","type":{"class":"P","code":"PPLA3"},"region":{"a1":"05","a2":"0506","a3":"050604"},"meta":{"pop":"0","dem":"3451","tz":"America/Lima"}},{"id":"3947730","name":"Andamarca","ascii_name":"Andamarca","lat":"-11.73194","lon":"-74.80278","country":"PE","lastUpdated":"2020-05-07","type":{"class":"P","code":"PPLA3"},"region":{"a1":"12","a2":"1202","a3":"120203"},"meta":{"pop":"395","dem":"2485","tz":"America/Lima"}},{"id":"3947735","name":"Andajes","ascii_name":"Andajes","lat":"-10.79254","lon":"-76.90888","country":"PE","lastUpdated":"2020-05-13","type":{"class":"P","code":"PPLA3"},"region":{"a1":"15","a2":"1509","a3":"150902"},"meta":{"pop":"621","dem":"3485","tz":"America/Lima"}},{"id":"3947737","name":"Andahuaylillas","ascii_name":"Andahuaylillas","lat":"-13.6725","lon":"-71.67944","country":"PE","lastUpdated":"2019-08-10","type":{"class":"P","code":"PPLA3"},"region":{"a1":"08","a2":"0812","a3":"081202"},"meta":{"pop":"0","dem":"3123","tz":"America/Lima"}},{"id":"3947740","name":"Andahuaylas","ascii_name":"Andahuaylas","lat":"-13.65556","lon":"-73.38722","country":"PE","lastUpdated":"2018-01-16","type":{"class":"P","code":"PPLA3"},"region":{"a1":"03","a2":"0302","a3":"030201"},"meta":{"pop":"17444","dem":"2902","tz":"America/Lima"}},{"id":"3947817","name":"Anchonga","ascii_name":"Anchonga","lat":"-12.88333","lon":"-74.7","country":"PE","lastUpdated":"2020-05-06","type":{"class":"P","code":"PPLA3"},"region":{"a1":"09","a2":"0903","a3":"090302"},"meta":{"pop":"280","dem":"3686","tz":"America/Lima"}},{"id":"3947870","name":"Ancahuasi","ascii_name":"Ancahuasi","lat":"-13.4425","lon":"-72.31083","country":"PE","lastUpdated":"2012-07-19","type":{"class":"P","code":"PPLA3"},"region":{"a1":"08","a2":"0803","a3":"080302"},"meta":{"pop":"0","dem":"3689","tz":"America/Lima"}},{"id":"3947908","name":"Ananea","ascii_name":"Ananea","lat":"-14.7","lon":"-69.55","country":"PE","lastUpdated":"2012-07-19","type":{"class":"P","code":"PPLA3"},"region":{"a1":"21","a2":"2110","a3":"211002"},"meta":{"pop":"0","dem":"4690","tz":"America/Lima"}},{"id":"3947956","name":"Ambo","ascii_name":"Ambo","lat":"-10.13083","lon":"-76.20472","country":"PE","lastUpdated":"2012-07-19","type":{"class":"P","code":"PPLA3"},"region":{"a1":"10","a2":"1002","a3":"100201"},"meta":{"pop":"6865","dem":"2098","tz":"America/Lima"}},{"id":"3947959","name":"Ambar","ascii_name":"Ambar","lat":"-10.73333","lon":"-77.26667","country":"PE","lastUpdated":"2020-05-07","type":{"class":"P","code":"PPLA3"},"region":{"a1":"15","a2":"1508","a3":"150802"},"meta":{"pop":"462","dem":"2736","tz":"America/Lima"}},{"id":"3948153","name":"Alis","ascii_name":"Alis","lat":"-12.27861","lon":"-75.78694","country":"PE","lastUpdated":"2020-05-06","type":{"class":"P","code":"PPLA3"},"region":{"a1":"15","a2":"1510","a3":"151002"},"meta":{"pop":"198","dem":"3289","tz":"America/Lima"}},{"id":"3948165","name":"El Algarrobal","ascii_name":"El Algarrobal","lat":"-17.62278","lon":"-71.26778","country":"PE","lastUpdated":"2020-05-06","type":{"class":"P","code":"PPLA3"},"region":{"a1":"18","a2":"1803","a3":"180302"},"meta":{"pop":"38","dem":"125","tz":"America/Lima"}},{"id":"3948198","name":"Alca","ascii_name":"Alca","lat":"-15.13472","lon":"-72.76472","country":"PE","lastUpdated":"2020-05-07","type":{"class":"P","code":"PPLA3"},"region":{"a1":"04","a2":"0408","a3":"040802"},"meta":{"pop":"481","dem":"2731","tz":"America/Lima"}},{"id":"3948226","name":"Ajoyani","ascii_name":"Ajoyani","lat":"-14.1","lon":"-70.2","country":"PE","lastUpdated":"2012-07-19","type":{"class":"P","code":"PPLA3"},"region":{"a1":"21","a2":"2103","a3":"210302"},"meta":{"pop":"0","dem":"4632","tz":"America/Lima"}},{"id":"3948273","name":"Ayrihuanca","ascii_name":"Ayrihuanca","lat":"-14.11522","lon":"-72.6144","country":"PE","lastUpdated":"2020-05-13","type":{"class":"P","code":"PPLA3"},"region":{"a1":"03","a2":"0307","a3":"030706"},"meta":{"pop":"537","dem":"3513","tz":"America/Lima"}},{"id":"3948307","name":"Ahuac","ascii_name":"Ahuac","lat":"-12.06667","lon":"-75.35","country":"PE","lastUpdated":"2012-07-19","type":{"class":"P","code":"PPLA3"},"region":{"a1":"12","a2":"1209","a3":"120902"},"meta":{"pop":"0","dem":"3581","tz":"America/Lima"}},{"id":"3948418","name":"Acos","ascii_name":"Acos","lat":"-13.95064","lon":"-71.73857","country":"PE","lastUpdated":"2020-05-13","type":{"class":"P","code":"PPLA3"},"region":{"a1":"08","a2":"0802","a3":"080203"},"meta":{"pop":"759","dem":"3087","tz":"America/Lima"}},{"id":"3948419","name":"Acos","ascii_name":"Acos","lat":"-11.27406","lon":"-76.82061","country":"PE","lastUpdated":"2020-05-13","type":{"class":"P","code":"PPLA3"},"region":{"a1":"15","a2":"1506","a3":"150609"},"meta":{"pop":"507","dem":"1561","tz":"America/Lima"}},{"id":"3948420","name":"Acoria","ascii_name":"Acoria","lat":"-12.61667","lon":"-74.88333","country":"PE","lastUpdated":"2012-07-19","type":{"class":"P","code":"PPLA3"},"region":{"a1":"09","a2":"0901","a3":"090103"},"meta":{"pop":"0","dem":"3358","tz":"America/Lima"}},{"id":"3948444","name":"Acomayo","ascii_name":"Acomayo","lat":"-13.91667","lon":"-71.68111","country":"PE","lastUpdated":"2012-07-19","type":{"class":"P","code":"PPLA3"},"region":{"a1":"08","a2":"0802","a3":"080201"},"meta":{"pop":"0","dem":"3290","tz":"America/Lima"}},{"id":"3948448","name":"Acolla","ascii_name":"Acolla","lat":"-11.73193","lon":"-75.54634","country":"PE","lastUpdated":"2012-07-19","type":{"class":"P","code":"PPLA3"},"region":{"a1":"12","a2":"1204","a3":"120402"},"meta":{"pop":"6805","dem":"3465","tz":"America/Lima"}},{"id":"3948456","name":"Acocro","ascii_name":"Acocro","lat":"-13.21912","lon":"-74.04198","country":"PE","lastUpdated":"2020-05-13","type":{"class":"P","code":"PPLA3"},"region":{"a1":"05","a2":"0501","a3":"050102"},"meta":{"pop":"543","dem":"3252","tz":"America/Lima"}},{"id":"3948473","name":"Acobambilla","ascii_name":"Acobambilla","lat":"-12.65","lon":"-75.38333","country":"PE","lastUpdated":"2012-07-19","type":{"class":"P","code":"PPLA3"},"region":{"a1":"09","a2":"0901","a3":"090102"},"meta":{"pop":"0","dem":"4564","tz":"America/Lima"}},{"id":"3948484","name":"Acobamba","ascii_name":"Acobamba","lat":"-12.86667","lon":"-74.56667","country":"PE","lastUpdated":"2012-07-19","type":{"class":"P","code":"PPLA3"},"region":{"a1":"09","a2":"0902","a3":"090201"},"meta":{"pop":"0","dem":"3350","tz":"America/Lima"}},{"id":"3948486","name":"Acobamba","ascii_name":"Acobamba","lat":"-11.35252","lon":"-75.66211","country":"PE","lastUpdated":"2019-08-07","type":{"class":"P","code":"PPLA3"},"region":{"a1":"12","a2":"1207","a3":"120702"},"meta":{"pop":"0","dem":"2948","tz":"America/Lima"}},{"id":"3948490","name":"Accocunca","ascii_name":"Accocunca","lat":"-14.76944","lon":"-71.25417","country":"PE","lastUpdated":"2020-05-06","type":{"class":"P","code":"PPLA3"},"region":{"a1":"08","a2":"0808","a3":"080808"},"meta":{"pop":"247","dem":"4032","tz":"America/Lima"}},{"id":"3948491","name":"Aco","ascii_name":"Aco","lat":"-11.95707","lon":"-75.36996","country":"PE","lastUpdated":"2012-07-19","type":{"class":"P","code":"PPLA3"},"region":{"a1":"12","a2":"1202","a3":"120202"},"meta":{"pop":"0","dem":"3469","tz":"America/Lima"}},{"id":"3948492","name":"Aco","ascii_name":"Aco","lat":"-10.49718","lon":"-77.24149","country":"PE","lastUpdated":"2020-05-07","type":{"class":"P","code":"PPLA3"},"region":{"a1":"02","a2":"0214","a3":"021404"},"meta":{"pop":"418","dem":"2229","tz":"America/Lima"}},{"id":"3948510","name":"Achoma","ascii_name":"Achoma","lat":"-15.66083","lon":"-71.70083","country":"PE","lastUpdated":"2012-07-19","type":{"class":"P","code":"PPLA3"},"region":{"a1":"04","a2":"0405","a3":"040502"},"meta":{"pop":"0","dem":"3488","tz":"America/Lima"}},{"id":"3948522","name":"Achaya","ascii_name":"Achaya","lat":"-15.26667","lon":"-70.15","country":"PE","lastUpdated":"2020-05-06","type":{"class":"P","code":"PPLA3"},"region":{"a1":"21","a2":"2102","a3":"210202"},"meta":{"pop":"117","dem":"3852","tz":"America/Lima"}},{"id":"3948529","name":"Achanizo","ascii_name":"Achanizo","lat":"-15.80611","lon":"-73.96694","country":"PE","lastUpdated":"2020-05-07","type":{"class":"P","code":"PPLA3"},"region":{"a1":"04","a2":"0403","a3":"040308"},"meta":{"pop":"352","dem":"619","tz":"America/Lima"}},{"id":"3948574","name":"Accomarca","ascii_name":"Accomarca","lat":"-13.80029","lon":"-73.90343","country":"PE","lastUpdated":"2020-05-13","type":{"class":"P","code":"PPLA3"},"region":{"a1":"05","a2":"0511","a3":"051102"},"meta":{"pop":"639","dem":"3381","tz":"America/Lima"}},{"id":"3948602","name":"Accha","ascii_name":"Accha","lat":"-13.97389","lon":"-71.82667","country":"PE","lastUpdated":"2012-07-19","type":{"class":"P","code":"PPLA3"},"region":{"a1":"08","a2":"0810","a3":"081002"},"meta":{"pop":"0","dem":"3580","tz":"America/Lima"}},{"id":"3948608","name":"Acas","ascii_name":"Acas","lat":"-10.45778","lon":"-77.32729","country":"PE","lastUpdated":"2020-05-07","type":{"class":"P","code":"PPLA3"},"region":{"a1":"02","a2":"0214","a3":"021402"},"meta":{"pop":"449","dem":"3700","tz":"America/Lima"}},{"id":"3948613","name":"Acarí","ascii_name":"Acari","lat":"-15.42393","lon":"-74.61361","country":"PE","lastUpdated":"2015-11-08","type":{"class":"P","code":"PPL"},"region":{"a1":"04","a2":"0403","a3":"040302"},"meta":{"pop":"4445","dem":"167","tz":"America/Lima"}},{"id":"3948642","name":"Abancay","ascii_name":"Abancay","lat":"-13.63389","lon":"-72.88139","country":"PE","lastUpdated":"2022-08-20","type":{"class":"P","code":"PPLA"},"region":{"a1":"03","a2":"0301","a3":"030101"},"meta":{"pop":"72277","dem":"2410","tz":"America/Lima"}},{"id":"3948689","name":"Mosoc Llacta","ascii_name":"Mosoc Llacta","lat":"-14.12","lon":"-71.47278","country":"PE","lastUpdated":"2012-07-19","type":{"class":"P","code":"PPLA3"},"region":{"a1":"08","a2":"0802","a3":"080204"},"meta":{"pop":"3802","dem":"3805","tz":"America/Lima"}},{"id":"3948810","name":"Taray","ascii_name":"Taray","lat":"-13.4275","lon":"-71.8675","country":"PE","lastUpdated":"2020-05-07","type":{"class":"P","code":"PPLA3"},"region":{"a1":"08","a2":"0804","a3":"080407"},"meta":{"pop":"489","dem":"2978","tz":"America/Lima"}},{"id":"3948841","name":"Huayllati","ascii_name":"Huayllati","lat":"-13.92862","lon":"-72.48496","country":"PE","lastUpdated":"2020-05-13","type":{"class":"P","code":"PPLA3"},"region":{"a1":"03","a2":"0307","a3":"030704"},"meta":{"pop":"515","dem":"3467","tz":"America/Lima"}},{"id":"3948871","name":"Sabaino","ascii_name":"Sabaino","lat":"-14.31279","lon":"-72.94515","country":"PE","lastUpdated":"2020-05-13","type":{"class":"P","code":"PPLA3"},"region":{"a1":"03","a2":"0303","a3":"030307"},"meta":{"pop":"737","dem":"3446","tz":"America/Lima"}},{"id":"3948873","name":"Ayahuay","ascii_name":"Ayahuay","lat":"-14.20904","lon":"-73.05858","country":"PE","lastUpdated":"2020-05-06","type":{"class":"P","code":"PPLA3"},"region":{"a1":"03","a2":"0303","a3":"030302"},"meta":{"pop":"342","dem":"3281","tz":"America/Lima"}},{"id":"3948878","name":"Huayllo","ascii_name":"Huayllo","lat":"-14.1325","lon":"-73.26861","country":"PE","lastUpdated":"2020-05-06","type":{"class":"P","code":"PPLA3"},"region":{"a1":"03","a2":"0304","a3":"030407"},"meta":{"pop":"178","dem":"3135","tz":"America/Lima"}},{"id":"3948917","name":"Santo Tomas","ascii_name":"Santo Tomas","lat":"-14.44556","lon":"-72.08417","country":"PE","lastUpdated":"2012-07-19","type":{"class":"P","code":"PPLA3"},"region":{"a1":"08","a2":"0807","a3":"080701"},"meta":{"pop":"4134","dem":"3659","tz":"America/Lima"}},{"id":"3948949","name":"San Antonio","ascii_name":"San Antonio","lat":"-14.16967","lon":"-72.62305","country":"PE","lastUpdated":"2020-05-07","type":{"class":"P","code":"PPLA3"},"region":{"a1":"03","a2":"0307","a3":"030709"},"meta":{"pop":"314","dem":"3452","tz":"America/Lima"}},{"id":"3948950","name":"Curpahuasi","ascii_name":"Curpahuasi","lat":"-14.06222","lon":"-72.66972","country":"PE","lastUpdated":"2020-05-07","type":{"class":"P","code":"PPLA3"},"region":{"a1":"03","a2":"0307","a3":"030702"},"meta":{"pop":"424","dem":"3496","tz":"America/Lima"}},{"id":"3949231","name":"Jacobo Hunter","ascii_name":"Jacobo Hunter","lat":"-16.44083","lon":"-71.55333","country":"PE","lastUpdated":"2020-05-08","type":{"class":"P","code":"PPLA3"},"region":{"a1":"04","a2":"0401","a3":"040107"},"meta":{"pop":"46092","dem":"2282","tz":"America/Lima"}},{"id":"3951506","name":"Huarancante","ascii_name":"Huarancante","lat":"-15.76803","lon":"-71.45952","country":"PE","lastUpdated":"2018-12-05","type":{"class":"P","code":"PPL"},"region":{"a1":"04","a2":"0405","a3":"040519"},"meta":{"pop":"4638","dem":"4587","tz":"America/Lima"}},{"id":"3951550","name":"Ccolo","ascii_name":"Ccolo","lat":"-15.50611","lon":"-71.49184","country":"PE","lastUpdated":"2018-12-05","type":{"class":"P","code":"PPL"},"region":{"a1":"04","a2":"0405","a3":"040515"},"meta":{"pop":"3857","dem":"3860","tz":"America/Lima"}},{"id":"3951691","name":"Huarichancara","ascii_name":"Huarichancara","lat":"-15.63972","lon":"-71.06111","country":"PE","lastUpdated":"2018-12-05","type":{"class":"P","code":"PPL"},"region":{"a1":"04","a2":"0405","a3":"040514"},"meta":{"pop":"4445","dem":"4451","tz":"America/Lima"}},{"id":"3951757","name":"Llongasora","ascii_name":"Llongasora","lat":"-15.63951","lon":"-71.29921","country":"PE","lastUpdated":"2018-12-05","type":{"class":"P","code":"PPL"},"region":{"a1":"04","a2":"0405","a3":"040504"},"meta":{"pop":"4753","dem":"4622","tz":"America/Lima"}},{"id":"3951767","name":"Jayune","ascii_name":"Jayune","lat":"-15.56277","lon":"-71.30312","country":"PE","lastUpdated":"2018-12-05","type":{"class":"P","code":"PPL"},"region":{"a1":"04","a2":"0405","a3":"040504"},"meta":{"pop":"4256","dem":"4242","tz":"America/Lima"}},{"id":"3952372","name":"Chuquitira","ascii_name":"Chuquitira","lat":"-17.28891","lon":"-70.04363","country":"PE","lastUpdated":"2018-12-05","type":{"class":"P","code":"PPL"},"region":{"a1":"23","a2":"2304","a3":"230406"},"meta":{"pop":"4220","dem":"4266","tz":"America/Lima"}},{"id":"3952664","name":"Pueblo Nuevo","ascii_name":"Pueblo Nuevo","lat":"-17.615","lon":"-71.33833","country":"PE","lastUpdated":"2012-07-19","type":{"class":"P","code":"PPLA3"},"region":{"a1":"18","a2":"1803","a3":"180303"},"meta":{"pop":"0","dem":"34","tz":"America/Lima"}},{"id":"3952849","name":"Callanca","ascii_name":"Callanca","lat":"-14.18137","lon":"-71.1407","country":"PE","lastUpdated":"2018-12-05","type":{"class":"P","code":"PPL"},"region":{"a1":"08","a2":"0806","a3":"080606"},"meta":{"pop":"4046","dem":"4036","tz":"America/Lima"}},{"id":"3952867","name":"Cullcuyre","ascii_name":"Cullcuyre","lat":"-14.09272","lon":"-71.33119","country":"PE","lastUpdated":"2018-12-05","type":{"class":"P","code":"PPL"},"region":{"a1":"08","a2":"0806","a3":"080603"},"meta":{"pop":"3593","dem":"3607","tz":"America/Lima"}},{"id":"3953301","name":"Cahuanuyo","ascii_name":"Cahuanuyo","lat":"-14.34147","lon":"-71.46311","country":"PE","lastUpdated":"2018-12-05","type":{"class":"P","code":"PPL"},"region":{"a1":"08","a2":"0805","a3":"080501"},"meta":{"pop":"3935","dem":"3892","tz":"America/Lima"}},{"id":"3953343","name":"Ccaquiracunca","ascii_name":"Ccaquiracunca","lat":"-14.27683","lon":"-71.45026","country":"PE","lastUpdated":"2018-12-05","type":{"class":"P","code":"PPL"},"region":{"a1":"08","a2":"0805","a3":"080501"},"meta":{"pop":"4098","dem":"4081","tz":"America/Lima"}},{"id":"3953385","name":"Chignayhua","ascii_name":"Chignayhua","lat":"-14.2461","lon":"-71.44442","country":"PE","lastUpdated":"2018-12-05","type":{"class":"P","code":"PPL"},"region":{"a1":"08","a2":"0805","a3":"080501"},"meta":{"pop":"3912","dem":"3917","tz":"America/Lima"}},{"id":"3953594","name":"Ccuntuma","ascii_name":"Ccuntuma","lat":"-14.1254","lon":"-71.41216","country":"PE","lastUpdated":"2018-12-05","type":{"class":"P","code":"PPL"},"region":{"a1":"08","a2":"0806","a3":"080608"},"meta":{"pop":"3511","dem":"3484","tz":"America/Lima"}},{"id":"3953687","name":"Lima Pampa","ascii_name":"Lima Pampa","lat":"-14.08976","lon":"-71.33664","country":"PE","lastUpdated":"2018-12-05","type":{"class":"P","code":"PPL"},"region":{"a1":"08","a2":"0806","a3":"080603"},"meta":{"pop":"3569","dem":"3565","tz":"America/Lima"}},{"id":"3953711","name":"Jayobamba","ascii_name":"Jayobamba","lat":"-14.09425","lon":"-71.33922","country":"PE","lastUpdated":"2018-12-05","type":{"class":"P","code":"PPL"},"region":{"a1":"08","a2":"0806","a3":"080603"},"meta":{"pop":"3593","dem":"3583","tz":"America/Lima"}},{"id":"3953732","name":"Queromarca","ascii_name":"Queromarca","lat":"-14.18391","lon":"-71.38343","country":"PE","lastUpdated":"2018-12-05","type":{"class":"P","code":"PPL"},"region":{"a1":"08","a2":"0806","a3":"080608"},"meta":{"pop":"3496","dem":"3497","tz":"America/Lima"}},{"id":"3953762","name":"Qquea","ascii_name":"Qquea","lat":"-14.05417","lon":"-71.38583","country":"PE","lastUpdated":"2018-12-05","type":{"class":"P","code":"PPL"},"region":{"a1":"08","a2":"0806","a3":"080603"},"meta":{"pop":"3482","dem":"4470","tz":"America/Lima"}},{"id":"3953918","name":"Conchopata","ascii_name":"Conchopata","lat":"-14.46968","lon":"-71.19843","country":"PE","lastUpdated":"2018-12-05","type":{"class":"P","code":"PPL"},"region":{"a1":"08","a2":"0805","a3":"080505"},"meta":{"pop":"3977","dem":"3973","tz":"America/Lima"}},{"id":"3954288","name":"Mosoc Cancha","ascii_name":"Mosoc Cancha","lat":"-14.28514","lon":"-71.08773","country":"PE","lastUpdated":"2018-12-05","type":{"class":"P","code":"PPL"},"region":{"a1":"08","a2":"0806","a3":"080601"},"meta":{"pop":"4450","dem":"4301","tz":"America/Lima"}},{"id":"3954291","name":"Huayna Alcalde","ascii_name":"Huayna Alcalde","lat":"-14.26989","lon":"-71.09599","country":"PE","lastUpdated":"2018-12-05","type":{"class":"P","code":"PPL"},"region":{"a1":"08","a2":"0806","a3":"080601"},"meta":{"pop":"4298","dem":"4149","tz":"America/Lima"}},{"id":"3959452","name":"Aucara","ascii_name":"Aucara","lat":"-14.28083","lon":"-73.97611","country":"PE","lastUpdated":"2012-07-19","type":{"class":"P","code":"PPLA3"},"region":{"a1":"05","a2":"0506","a3":"050602"},"meta":{"pop":"0","dem":"3221","tz":"America/Lima"}},{"id":"3961461","name":"Caujul","ascii_name":"Caujul","lat":"-10.80528","lon":"-76.97889","country":"PE","lastUpdated":"2020-05-07","type":{"class":"P","code":"PPLA3"},"region":{"a1":"15","a2":"1509","a3":"150903"},"meta":{"pop":"412","dem":"3168","tz":"America/Lima"}},{"id":"3963815","name":"Bajo Pichanaqui","ascii_name":"Bajo Pichanaqui","lat":"-10.9275","lon":"-74.87417","country":"PE","lastUpdated":"2012-07-19","type":{"class":"P","code":"PPLA3"},"region":{"a1":"12","a2":"1203","a3":"120303"},"meta":{"pop":"0","dem":"511","tz":"America/Lima"}},{"id":"3964938","name":"Huaccana","ascii_name":"Huaccana","lat":"-13.38791","lon":"-73.69005","country":"PE","lastUpdated":"2020-05-13","type":{"class":"P","code":"PPLA3"},"region":{"a1":"03","a2":"0306","a3":"030604"},"meta":{"pop":"887","dem":"3078","tz":"America/Lima"}},{"id":"6258562","name":"Echarate","ascii_name":"Echarate","lat":"-12.73513","lon":"-72.61568","country":"PE","lastUpdated":"2014-07-07","type":{"class":"P","code":"PPLA3"},"region":{"a1":"08","a2":"0809","a3":"080902"},"meta":{"pop":"0","dem":"3034","tz":"America/Lima"}},{"id":"6279052","name":"Genaro Herrera","ascii_name":"Genaro Herrera","lat":"-4.90741","lon":"-73.66779","country":"PE","lastUpdated":"2014-07-28","type":{"class":"P","code":"PPLA3"},"region":{"a1":"16","a2":"1605","a3":"160510"},"meta":{"pop":"0","dem":"112","tz":"America/Lima"}},{"id":"6302989","name":"Coviriali","ascii_name":"Coviriali","lat":"-11.2925","lon":"-74.6275","country":"PE","lastUpdated":"2020-05-06","type":{"class":"P","code":"PPLA3"},"region":{"a1":"12","a2":"1206","a3":"120602"},"meta":{"pop":"175","dem":"677","tz":"America/Lima"}},{"id":"6310357","name":"Kelluyo","ascii_name":"Kelluyo","lat":"-16.72417","lon":"-69.25556","country":"PE","lastUpdated":"2012-07-19","type":{"class":"P","code":"PPLA3"},"region":{"a1":"21","a2":"2104","a3":"210404"},"meta":{"pop":"0","dem":"3907","tz":"America/Lima"}},{"id":"6377798","name":"Providencia","ascii_name":"Providencia","lat":"-6.2975","lon":"-78.24","country":"PE","lastUpdated":"2020-05-06","type":{"class":"P","code":"PPLA3"},"region":{"a1":"01","a2":"0105","a3":"010515"},"meta":{"pop":"265","dem":"1743","tz":"America/Lima"}},{"id":"6377843","name":"Chalamarca","ascii_name":"Chalamarca","lat":"-6.50287","lon":"-78.4801","country":"PE","lastUpdated":"2020-05-13","type":{"class":"P","code":"PPLA3"},"region":{"a1":"06","a2":"0604","a3":"060419"},"meta":{"pop":"776","dem":"2658","tz":"America/Lima"}},{"id":"6377880","name":"Choropampa","ascii_name":"Choropampa","lat":"-6.42308","lon":"-78.34672","country":"PE","lastUpdated":"2020-05-07","type":{"class":"P","code":"PPLA3"},"region":{"a1":"06","a2":"0604","a3":"060406"},"meta":{"pop":"320","dem":"2142","tz":"America/Lima"}},{"id":"6378003","name":"Collonce","ascii_name":"Collonce","lat":"-6.28252","lon":"-78.21092","country":"PE","lastUpdated":"2020-05-13","type":{"class":"P","code":"PPLA3"},"region":{"a1":"01","a2":"0105","a3":"010513"},"meta":{"pop":"628","dem":"1879","tz":"America/Lima"}},{"id":"6378093","name":"Santa Catalina","ascii_name":"Santa Catalina","lat":"-6.11167","lon":"-78.06139","country":"PE","lastUpdated":"2020-05-07","type":{"class":"P","code":"PPLA3"},"region":{"a1":"01","a2":"0105","a3":"010520"},"meta":{"pop":"423","dem":"2564","tz":"America/Lima"}},{"id":"6379282","name":"Duraznopampa","ascii_name":"Duraznopampa","lat":"-6.59306","lon":"-77.80806","country":"PE","lastUpdated":"2020-05-06","type":{"class":"P","code":"PPLA3"},"region":{"a1":"01","a2":"0101","a3":"010113"},"meta":{"pop":"249","dem":"2212","tz":"America/Lima"}},{"id":"6380239","name":"Matacoto","ascii_name":"Matacoto","lat":"-9.17833","lon":"-77.74917","country":"PE","lastUpdated":"2020-05-06","type":{"class":"P","code":"PPLA3"},"region":{"a1":"02","a2":"0220","a3":"022004"},"meta":{"pop":"218","dem":"2530","tz":"America/Lima"}},{"id":"6380271","name":"Carhuac","ascii_name":"Carhuac","lat":"-9.26167","lon":"-77.69278","country":"PE","lastUpdated":"2020-05-06","type":{"class":"P","code":"PPLA3"},"region":{"a1":"02","a2":"0206","a3":"020605"},"meta":{"pop":"275","dem":"2738","tz":"America/Lima"}},{"id":"6380504","name":"Aco","ascii_name":"Aco","lat":"-9.36801","lon":"-77.56457","country":"PE","lastUpdated":"2020-05-06","type":{"class":"P","code":"PPLA3"},"region":{"a1":"02","a2":"0206","a3":"020608"},"meta":{"pop":"322","dem":"2962","tz":"America/Lima"}},{"id":"6383401","name":"Cheto","ascii_name":"Cheto","lat":"-6.25639","lon":"-77.70028","country":"PE","lastUpdated":"2020-05-07","type":{"class":"P","code":"PPLA3"},"region":{"a1":"01","a2":"0101","a3":"010104"},"meta":{"pop":"378","dem":"2139","tz":"America/Lima"}},{"id":"6383437","name":"Daguas","ascii_name":"Daguas","lat":"-6.22667","lon":"-77.74056","country":"PE","lastUpdated":"2020-05-06","type":{"class":"P","code":"PPLA3"},"region":{"a1":"01","a2":"0101","a3":"010118"},"meta":{"pop":"50","dem":"2226","tz":"America/Lima"}},{"id":"6383661","name":"Cochamal","ascii_name":"Cochamal","lat":"-6.40639","lon":"-77.58333","country":"PE","lastUpdated":"2020-05-06","type":{"class":"P","code":"PPLA3"},"region":{"a1":"01","a2":"0106","a3":"010603"},"meta":{"pop":"104","dem":"1647","tz":"America/Lima"}},{"id":"6383665","name":"Huambo","ascii_name":"Huambo","lat":"-6.42896","lon":"-77.53789","country":"PE","lastUpdated":"2020-05-13","type":{"class":"P","code":"PPLA3"},"region":{"a1":"01","a2":"0106","a3":"010604"},"meta":{"pop":"680","dem":"1699","tz":"America/Lima"}},{"id":"6384830","name":"Parcoy","ascii_name":"Parcoy","lat":"-8.03503","lon":"-77.48193","country":"PE","lastUpdated":"2020-05-13","type":{"class":"P","code":"PPLA3"},"region":{"a1":"13","a2":"1308","a3":"130808"},"meta":{"pop":"903","dem":"3186","tz":"America/Lima"}},{"id":"6385248","name":"Urpay","ascii_name":"Urpay","lat":"-8.34792","lon":"-77.39183","country":"PE","lastUpdated":"2020-05-13","type":{"class":"P","code":"PPLA3"},"region":{"a1":"13","a2":"1308","a3":"130813"},"meta":{"pop":"555","dem":"2676","tz":"America/Lima"}},{"id":"6385311","name":"Ullulluco","ascii_name":"Ullulluco","lat":"-8.45556","lon":"-77.42667","country":"PE","lastUpdated":"2020-05-06","type":{"class":"P","code":"PPLA3"},"region":{"a1":"02","a2":"0219","a3":"021903"},"meta":{"pop":"258","dem":"3191","tz":"America/Lima"}},{"id":"6385368","name":"Challas","ascii_name":"Challas","lat":"-8.43902","lon":"-77.3239","country":"PE","lastUpdated":"2020-05-13","type":{"class":"P","code":"PPLA3"},"region":{"a1":"13","a2":"1308","a3":"130811"},"meta":{"pop":"986","dem":"3226","tz":"America/Lima"}},{"id":"6385413","name":"Huancaspata","ascii_name":"Huancaspata","lat":"-8.45667","lon":"-77.29833","country":"PE","lastUpdated":"2012-07-19","type":{"class":"P","code":"PPLA3"},"region":{"a1":"13","a2":"1308","a3":"130804"},"meta":{"pop":"0","dem":"3306","tz":"America/Lima"}},{"id":"6389284","name":"Naranjos","ascii_name":"Naranjos","lat":"-5.74278","lon":"-77.49722","country":"PE","lastUpdated":"2012-07-19","type":{"class":"P","code":"PPLA3"},"region":{"a1":"22","a2":"2208","a3":"220805"},"meta":{"pop":"0","dem":"974","tz":"America/Lima"}},{"id":"6389292","name":"Bajo Naranjillo","ascii_name":"Bajo Naranjillo","lat":"-5.81528","lon":"-77.38278","country":"PE","lastUpdated":"2012-07-19","type":{"class":"P","code":"PPLA3"},"region":{"a1":"22","a2":"2208","a3":"220802"},"meta":{"pop":"0","dem":"876","tz":"America/Lima"}},{"id":"6389321","name":"Segunda Jerusalén - Azunguillo","ascii_name":"Segunda Jerusalen - Azunguillo","lat":"-5.98917","lon":"-77.27694","country":"PE","lastUpdated":"2020-05-11","type":{"class":"P","code":"PPL"},"region":{"a1":"22","a2":"2208","a3":"220803"},"meta":{"pop":"6412","dem":"830","tz":"America/Lima"}},{"id":"6389334","name":"Nueva Cajamarca","ascii_name":"Nueva Cajamarca","lat":"-5.94056","lon":"-77.30806","country":"PE","lastUpdated":"2012-07-19","type":{"class":"P","code":"PPLA3"},"region":{"a1":"22","a2":"2208","a3":"220804"},"meta":{"pop":"0","dem":"869","tz":"America/Lima"}},{"id":"6394231","name":"Saramiriza","ascii_name":"Saramiriza","lat":"-4.56556","lon":"-77.41583","country":"PE","lastUpdated":"2018-04-28","type":{"class":"P","code":"PPLA3"},"region":{"a1":"16","a2":"1607","a3":"160703"},"meta":{"pop":"0","dem":"148","tz":"America/Lima"}},{"id":"6394322","name":"Nuevo Progreso","ascii_name":"Nuevo Progreso","lat":"-8.4525","lon":"-76.32389","country":"PE","lastUpdated":"2018-07-02","type":{"class":"P","code":"PPLA3"},"region":{"a1":"10","a2":"1007"},"meta":{"pop":"0","dem":"503","tz":"America/Lima"}},{"id":"6395526","name":"San Juan","ascii_name":"San Juan","lat":"-3.885","lon":"-73.56722","country":"PE","lastUpdated":"2012-07-19","type":{"class":"P","code":"PPLA3"},"region":{"a1":"16","a2":"1601","a3":"160113"},"meta":{"pop":"0","dem":"99","tz":"America/Lima"}},{"id":"6403608","name":"Yanahuanca","ascii_name":"Yanahuanca","lat":"-10.49139","lon":"-76.51667","country":"PE","lastUpdated":"2012-07-19","type":{"class":"P","code":"PPLA3"},"region":{"a1":"19","a2":"1902","a3":"190201"},"meta":{"pop":"0","dem":"3184","tz":"America/Lima"}},{"id":"6412929","name":"Huabal","ascii_name":"Huabal","lat":"-5.61361","lon":"-78.91227","country":"PE","lastUpdated":"2020-05-13","type":{"class":"P","code":"PPLA3"},"region":{"a1":"06","a2":"0608","a3":"060805"},"meta":{"pop":"732","dem":"1625","tz":"America/Lima"}},{"id":"6559994","name":"Buenos Aires","ascii_name":"Buenos Aires","lat":"-9.12417","lon":"-78.4975","country":"PE","lastUpdated":"2012-07-19","type":{"class":"P","code":"PPLA3"},"region":{"a1":"02","a2":"0218","a3":"021809"},"meta":{"pop":"0","dem":"73","tz":"America/Lima"}},{"id":"6564260","name":"Yuyapichis","ascii_name":"Yuyapichis","lat":"-9.62789","lon":"-74.97459","country":"PE","lastUpdated":"2020-05-13","type":{"class":"P","code":"PPLA3"},"region":{"a1":"10","a2":"1009","a3":"100905"},"meta":{"pop":"739","dem":"208","tz":"America/Lima"}},{"id":"6660234","name":"El Triunfo ( El Cruce)","ascii_name":"El Triunfo ( El Cruce)","lat":"-16.49319","lon":"-71.85305","country":"PE","lastUpdated":"2020-05-11","type":{"class":"P","code":"PPL"},"region":{"a1":"04","a2":"0401","a3":"040108"},"meta":{"pop":"6386","dem":"1499","tz":"America/Lima"}},{"id":"6665530","name":"Pampamarca","ascii_name":"Pampamarca","lat":"-9.7054","lon":"-76.70271","country":"PE","lastUpdated":"2020-05-13","type":{"class":"P","code":"PPLA3"},"region":{"a1":"10","a2":"1011","a3":"101107"},"meta":{"pop":"544","dem":"3413","tz":"America/Lima"}},{"id":"6665537","name":"Llata","ascii_name":"Llata","lat":"-9.54999","lon":"-76.81613","country":"PE","lastUpdated":"2012-07-19","type":{"class":"P","code":"PPLA3"},"region":{"a1":"10","a2":"1005","a3":"100501"},"meta":{"pop":"0","dem":"3438","tz":"America/Lima"}},{"id":"6665540","name":"Jacas Grande","ascii_name":"Jacas Grande","lat":"-9.53965","lon":"-76.73639","country":"PE","lastUpdated":"2020-05-07","type":{"class":"P","code":"PPLA3"},"region":{"a1":"10","a2":"1005","a3":"100504"},"meta":{"pop":"478","dem":"3617","tz":"America/Lima"}},{"id":"6670219","name":"Cayhuayna","ascii_name":"Cayhuayna","lat":"-9.95851","lon":"-76.24853","country":"PE","lastUpdated":"2012-07-19","type":{"class":"P","code":"PPLA3"},"region":{"a1":"10","a2":"1001","a3":"100111"},"meta":{"pop":"0","dem":"1932","tz":"America/Lima"}},{"id":"6670434","name":"Huancapallac","ascii_name":"Huancapallac","lat":"-9.89412","lon":"-76.41455","country":"PE","lastUpdated":"2012-07-19","type":{"class":"P","code":"PPLA3"},"region":{"a1":"10","a2":"1001","a3":"100106"},"meta":{"pop":"0","dem":"2860","tz":"America/Lima"}},{"id":"6670443","name":"Paucarbamba","ascii_name":"Paucarbamba","lat":"-9.94459","lon":"-76.22323","country":"PE","lastUpdated":"2012-07-19","type":{"class":"P","code":"PPLA3"},"region":{"a1":"10","a2":"1001","a3":"100102"},"meta":{"pop":"0","dem":"2690","tz":"America/Lima"}},{"id":"6671380","name":"El Rosario","ascii_name":"El Rosario","lat":"-11.78453","lon":"-75.67734","country":"PE","lastUpdated":"2020-05-06","type":{"class":"P","code":"PPLA3"},"region":{"a1":"12","a2":"1204","a3":"120406"},"meta":{"pop":"311","dem":"3567","tz":"America/Lima"}},{"id":"6671381","name":"Santa Rosa de Sacco","ascii_name":"Santa Rosa de Sacco","lat":"-11.55067","lon":"-75.94255","country":"PE","lastUpdated":"2020-05-11","type":{"class":"P","code":"PPL"},"region":{"a1":"12","a2":"1208","a3":"120808"},"meta":{"pop":"11257","dem":"3785","tz":"America/Lima"}},{"id":"6674549","name":"Masma Chicche","ascii_name":"Masma Chicche","lat":"-11.78593","lon":"-75.37849","country":"PE","lastUpdated":"2020-05-07","type":{"class":"P","code":"PPLA3"},"region":{"a1":"12","a2":"1204","a3":"120417"},"meta":{"pop":"354","dem":"3643","tz":"America/Lima"}},{"id":"6674551","name":"Sausa","ascii_name":"Sausa","lat":"-11.79319","lon":"-75.48414","country":"PE","lastUpdated":"2012-07-19","type":{"class":"P","code":"PPLA3"},"region":{"a1":"12","a2":"1204","a3":"120430"},"meta":{"pop":"0","dem":"3366","tz":"America/Lima"}},{"id":"6674552","name":"Huertas","ascii_name":"Huertas","lat":"-11.76887","lon":"-75.47701","country":"PE","lastUpdated":"2020-05-13","type":{"class":"P","code":"PPLA3"},"region":{"a1":"12","a2":"1204","a3":"120410"},"meta":{"pop":"681","dem":"3364","tz":"America/Lima"}},{"id":"6674553","name":"Mucllo","ascii_name":"Mucllo","lat":"-11.61607","lon":"-75.09115","country":"PE","lastUpdated":"2020-05-07","type":{"class":"P","code":"PPLA3"},"region":{"a1":"12","a2":"1202","a3":"120209"},"meta":{"pop":"365","dem":"2493","tz":"America/Lima"}},{"id":"6674612","name":"Masma","ascii_name":"Masma","lat":"-11.78692","lon":"-75.42899","country":"PE","lastUpdated":"2020-05-13","type":{"class":"P","code":"PPLA3"},"region":{"a1":"12","a2":"1204","a3":"120416"},"meta":{"pop":"785","dem":"3478","tz":"America/Lima"}},{"id":"6674615","name":"Matahuasi","ascii_name":"Matahuasi","lat":"-11.89161","lon":"-75.3435","country":"PE","lastUpdated":"2012-07-19","type":{"class":"P","code":"PPLA3"},"region":{"a1":"12","a2":"1202","a3":"120210"},"meta":{"pop":"0","dem":"3289","tz":"America/Lima"}},{"id":"6674616","name":"Hualhuas","ascii_name":"Hualhuas","lat":"-11.97147","lon":"-75.25065","country":"PE","lastUpdated":"2014-06-27","type":{"class":"P","code":"PPLA3"},"region":{"a1":"12","a2":"1201","a3":"120117"},"meta":{"pop":"0","dem":"3264","tz":"America/Lima"}},{"id":"6674617","name":"Saño","ascii_name":"Sano","lat":"-11.95671","lon":"-75.25685","country":"PE","lastUpdated":"2012-07-19","type":{"class":"P","code":"PPLA3"},"region":{"a1":"12","a2":"1201","a3":"120132"},"meta":{"pop":"0","dem":"3289","tz":"America/Lima"}},{"id":"6674620","name":"Quilcas","ascii_name":"Quilcas","lat":"-11.93581","lon":"-75.25959","country":"PE","lastUpdated":"2012-07-19","type":{"class":"P","code":"PPLA3"},"region":{"a1":"12","a2":"1201","a3":"120128"},"meta":{"pop":"0","dem":"3321","tz":"America/Lima"}},{"id":"6674621","name":"Quichuay","ascii_name":"Quichuay","lat":"-11.88982","lon":"-75.28571","country":"PE","lastUpdated":"2012-07-19","type":{"class":"P","code":"PPLA3"},"region":{"a1":"12","a2":"1201","a3":"120127"},"meta":{"pop":"0","dem":"3405","tz":"America/Lima"}},{"id":"6675498","name":"Rapayan","ascii_name":"Rapayan","lat":"-9.20549","lon":"-76.76138","country":"PE","lastUpdated":"2020-05-13","type":{"class":"P","code":"PPLA3"},"region":{"a1":"02","a2":"0210","a3":"021013"},"meta":{"pop":"801","dem":"3278","tz":"America/Lima"}},{"id":"6675503","name":"Anra","ascii_name":"Anra","lat":"-9.2329","lon":"-76.92328","country":"PE","lastUpdated":"2020-05-07","type":{"class":"P","code":"PPLA3"},"region":{"a1":"02","a2":"0210","a3":"021002"},"meta":{"pop":"416","dem":"3290","tz":"America/Lima"}},{"id":"6675671","name":"Cochabamba","ascii_name":"Cochabamba","lat":"-9.09496","lon":"-76.83658","country":"PE","lastUpdated":"2020-05-13","type":{"class":"P","code":"PPLA3"},"region":{"a1":"10","a2":"1004","a3":"100403"},"meta":{"pop":"588","dem":"3278","tz":"America/Lima"}},{"id":"7535952","name":"San Pedro De Cachora","ascii_name":"San Pedro De Cachora","lat":"-13.63333","lon":"-72.88333","country":"PE","lastUpdated":"2012-07-19","type":{"class":"P","code":"PPLA3"},"region":{"a1":"03","a2":"0301","a3":"030101"},"meta":{"pop":"0","dem":"2407","tz":"America/Lima"}},{"id":"7543963","name":"Ledoy","ascii_name":"Ledoy","lat":"-7.12934","lon":"-76.64908","country":"PE","lastUpdated":"2020-05-13","type":{"class":"P","code":"PPLA3"},"region":{"a1":"22","a2":"2202","a3":"220204"},"meta":{"pop":"922","dem":"263","tz":"America/Lima"}},{"id":"7543964","name":"Pajarillo","ascii_name":"Pajarillo","lat":"-7.179","lon":"-76.68827","country":"PE","lastUpdated":"2020-05-13","type":{"class":"P","code":"PPLA3"},"region":{"a1":"22","a2":"2206","a3":"220605"},"meta":{"pop":"912","dem":"271","tz":"America/Lima"}},{"id":"7545128","name":"Shatoja","ascii_name":"Shatoja","lat":"-6.52821","lon":"-76.71823","country":"PE","lastUpdated":"2012-07-19","type":{"class":"P","code":"PPLA3"},"region":{"a1":"22","a2":"2203","a3":"220305"},"meta":{"pop":"0","dem":"414","tz":"America/Lima"}},{"id":"7626291","name":"La Rinconada","ascii_name":"La Rinconada","lat":"-14.63126","lon":"-69.44638","country":"PE","lastUpdated":"2012-07-19","type":{"class":"P","code":"PPLS"},"region":{"a1":"21","a2":"2110","a3":"211002"},"meta":{"pop":"29678","dem":"5022","tz":"America/Lima"}},{"id":"8030033","name":"Pedro Ruiz Gallo","ascii_name":"Pedro Ruiz Gallo","lat":"-5.94527","lon":"-77.97993","country":"PE","lastUpdated":"2020-05-11","type":{"class":"P","code":"PPL"},"region":{"a1":"01","a2":"0103","a3":"010307"},"meta":{"pop":"5602","dem":"1296","tz":"America/Lima"}},{"id":"8651218","name":"Santa Rosa","ascii_name":"Santa Rosa","lat":"-12.68657","lon":"-73.73531","country":"PE","lastUpdated":"2020-05-12","type":{"class":"P","code":"PPLA3"},"region":{"a1":"05","a2":"0505","a3":"050507"},"meta":{"pop":"4702","dem":"703","tz":"America/Lima"}},{"id":"8689248","name":"Kimbiri","ascii_name":"Kimbiri","lat":"-12.61935","lon":"-73.78814","country":"PE","lastUpdated":"2020-05-11","type":{"class":"P","code":"PPL"},"region":{"a1":"05","a2":"0505"},"meta":{"pop":"4369","dem":"592","tz":"America/Lima"}},{"id":"9780965","name":"Urb. Santo Domingo","ascii_name":"Urb. Santo Domingo","lat":"-11.87655","lon":"-77.03345","country":"PE","lastUpdated":"2014-10-15","type":{"class":"P","code":"PPLX"},"region":{"a1":"15","a2":"1501","a3":"150106"},"meta":{"pop":"5000","dem":"204","tz":"America/Lima"}},{"id":"10346348","name":"Indiana","ascii_name":"Indiana","lat":"-3.49989","lon":"-73.05136","country":"PE","lastUpdated":"2018-04-28","type":{"class":"P","code":"PPLA3"},"region":{"a1":"16","a2":"1601","a3":"160104"},"meta":{"pop":"0","dem":"94","tz":"America/Lima"}},{"id":"12069848","name":"Salvación","ascii_name":"Salvacion","lat":"-12.83605","lon":"-71.3649","country":"PE","lastUpdated":"2019-07-15","type":{"class":"P","code":"PPLA3"},"region":{"a1":"17","a2":"1702","a3":"170201"},"meta":{"pop":"330","elv":"550","dem":"528","tz":"America/Lima"}},{"id":"12069849","name":"Bolívar","ascii_name":"Bolivar","lat":"-7.15395","lon":"-77.70263","country":"PE","lastUpdated":"2019-07-16","type":{"class":"P","code":"PPLA3"},"region":{"a1":"13","a2":"1303","a3":"130301"},"meta":{"pop":"0","elv":"3129","dem":"3133","tz":"America/Lima"}},{"id":"12070605","name":"Paucartambo","ascii_name":"Paucartambo","lat":"-10.77326","lon":"-75.81109","country":"PE","lastUpdated":"2019-08-03","type":{"class":"P","code":"PPLA3"},"region":{"a1":"19","a2":"1901","a3":"190107"},"meta":{"pop":"4438","elv":"2950","dem":"2914","tz":"America/Lima"}},{"id":"12156997","name":"José Leonardo Ortiz","ascii_name":"Jose Leonardo Ortiz","lat":"-6.74314","lon":"-79.85105","country":"PE","lastUpdated":"2020-05-06","type":{"class":"P","code":"PPLA3"},"region":{"a1":"14","a2":"1401","a3":"140105"},"meta":{"pop":"0","dem":"24","tz":"America/Lima"}},{"id":"12156998","name":"Mariano Melgar","ascii_name":"Mariano Melgar","lat":"-16.39919","lon":"-71.50262","country":"PE","lastUpdated":"2020-05-06","type":{"class":"P","code":"PPLA3"},"region":{"a1":"04","a2":"0401","a3":"040109"},"meta":{"pop":"0","dem":"2474","tz":"America/Lima"}},{"id":"12157007","name":"Santa Anita - Los Ficus","ascii_name":"Santa Anita - Los Ficus","lat":"-12.05048","lon":"-76.97335","country":"PE","lastUpdated":"2020-05-07","type":{"class":"P","code":"PPL"},"region":{"a1":"15","a2":"1501","a3":"150137"},"meta":{"pop":"184614","dem":"245","tz":"America/Lima"}},{"id":"12157008","name":"San Martin","ascii_name":"San Martin","lat":"-5.18591","lon":"-80.66927","country":"PE","lastUpdated":"2020-05-07","type":{"class":"P","code":"PPL"},"region":{"a1":"20","a2":"2001","a3":"200115"},"meta":{"pop":"130000","dem":"35","tz":"America/Lima"}},{"id":"12157013","name":"San Francisco De Borja","ascii_name":"San Francisco De Borja","lat":"-12.08911","lon":"-76.99876","country":"PE","lastUpdated":"2020-05-07","type":{"class":"P","code":"PPL"},"region":{"a1":"15","a2":"1501","a3":"150130"},"meta":{"pop":"105076","dem":"168","tz":"America/Lima"}},{"id":"12157025","name":"Ciudad Satelite","ascii_name":"Ciudad Satelite","lat":"-16.43085","lon":"-71.52921","country":"PE","lastUpdated":"2020-05-07","type":{"class":"P","code":"PPL"},"region":{"a1":"04","a2":"0401","a3":"040129"},"meta":{"pop":"76410","dem":"2336","tz":"America/Lima"}},{"id":"12157030","name":"Chilca","ascii_name":"Chilca","lat":"-12.08398","lon":"-75.20263","country":"PE","lastUpdated":"2020-05-07","type":{"class":"P","code":"PPL"},"region":{"a1":"12","a2":"1201","a3":"120107"},"meta":{"pop":"73371","dem":"3245","tz":"America/Lima"}},{"id":"12157037","name":"San Fernando","ascii_name":"San Fernando","lat":"-8.39818","lon":"-74.53774","country":"PE","lastUpdated":"2020-05-07","type":{"class":"P","code":"PPL"},"region":{"a1":"25","a2":"2501","a3":"250107"},"meta":{"pop":"67844","dem":"155","tz":"America/Lima"}},{"id":"12157038","name":"Jesus Maria","ascii_name":"Jesus Maria","lat":"-12.06982","lon":"-77.04495","country":"PE","lastUpdated":"2020-05-07","type":{"class":"P","code":"PPL"},"region":{"a1":"15","a2":"1501","a3":"150113"},"meta":{"pop":"66171","dem":"121","tz":"America/Lima"}},{"id":"12157056","name":"Wanchaq","ascii_name":"Wanchaq","lat":"-13.52493","lon":"-71.96531","country":"PE","lastUpdated":"2020-05-07","type":{"class":"P","code":"PPL"},"region":{"a1":"08","a2":"0801","a3":"080108"},"meta":{"pop":"59134","dem":"3358","tz":"America/Lima"}},{"id":"12157064","name":"Centenario","ascii_name":"Centenario","lat":"-9.51656","lon":"-77.53045","country":"PE","lastUpdated":"2020-05-07","type":{"class":"P","code":"PPL"},"region":{"a1":"02","a2":"0201","a3":"020105"},"meta":{"pop":"47581","dem":"3039","tz":"America/Lima"}},{"id":"12157065","name":"Cono Norte","ascii_name":"Cono Norte","lat":"-16.32369","lon":"-71.58151","country":"PE","lastUpdated":"2020-05-07","type":{"class":"P","code":"PPL"},"region":{"a1":"04","a2":"0401","a3":"040104"},"meta":{"pop":"47347","dem":"2593","tz":"America/Lima"}},{"id":"12157070","name":"Carmen De La Legua Reynoso","ascii_name":"Carmen De La Legua Reynoso","lat":"-12.05354","lon":"-77.09802","country":"PE","lastUpdated":"2020-05-07","type":{"class":"P","code":"PPL"},"region":{"a1":"07","a2":"0701","a3":"070101"},"meta":{"pop":"41863","dem":"49","tz":"America/Lima"}},{"id":"12157074","name":"La Banda","ascii_name":"La Banda","lat":"-6.49265","lon":"-76.34224","country":"PE","lastUpdated":"2020-05-07","type":{"class":"P","code":"PPLA3"},"region":{"a1":"22","a2":"2209","a3":"220909"},"meta":{"pop":"24932","dem":"386","tz":"America/Lima"}},{"id":"12157091","name":"Yanacancha","ascii_name":"Yanacancha","lat":"-10.66585","lon":"-76.25525","country":"PE","lastUpdated":"2020-05-08","type":{"class":"P","code":"PPL"},"region":{"a1":"19","a2":"1901","a3":"190113"},"meta":{"pop":"24105","dem":"4348","tz":"America/Lima"}},{"id":"12157092","name":"El Pedregal","ascii_name":"El Pedregal","lat":"-16.36314","lon":"-72.1921","country":"PE","lastUpdated":"2020-05-08","type":{"class":"P","code":"PPL"},"region":{"a1":"04","a2":"0405","a3":"040520"},"meta":{"pop":"20063","dem":"1400","tz":"America/Lima"}},{"id":"12157093","name":"Santa Rosa","ascii_name":"Santa Rosa","lat":"-10.91908","lon":"-74.88496","country":"PE","lastUpdated":"2020-05-08","type":{"class":"P","code":"PPL"},"region":{"a1":"12","a2":"1203","a3":"120302"},"meta":{"pop":"18057","dem":"524","tz":"America/Lima"}},{"id":"12157094","name":"San Antonio","ascii_name":"San Antonio","lat":"-17.21718","lon":"-70.92593","country":"PE","lastUpdated":"2020-05-08","type":{"class":"P","code":"PPL"},"region":{"a1":"18","a2":"1801","a3":"180101"},"meta":{"pop":"15633","dem":"1455","tz":"America/Lima"}},{"id":"12157098","name":"Cono Norte","ascii_name":"Cono Norte","lat":"-16.30111","lon":"-71.61647","country":"PE","lastUpdated":"2020-05-08","type":{"class":"P","code":"PPL"},"region":{"a1":"04","a2":"0401","a3":"040128"},"meta":{"pop":"14542","dem":"2705","tz":"America/Lima"}},{"id":"12157100","name":"Las Nazarenas","ascii_name":"Las Nazarenas","lat":"-13.15465","lon":"-74.21553","country":"PE","lastUpdated":"2020-05-08","type":{"class":"P","code":"PPL"},"region":{"a1":"05","a2":"0501","a3":"050115"},"meta":{"pop":"14316","dem":"2753","tz":"America/Lima"}},{"id":"12157106","name":"Pilcomayo","ascii_name":"Pilcomayo","lat":"-9.04728","lon":"-77.81092","country":"PE","lastUpdated":"2020-05-08","type":{"class":"P","code":"PPL"},"region":{"a1":"02","a2":"0212","a3":"021201"},"meta":{"pop":"13295","dem":"2271","tz":"America/Lima"}},{"id":"12157107","name":"La Rinconada Ana Maria (La Rinconada)","ascii_name":"La Rinconada Ana Maria (La Rinconada)","lat":"-14.63392","lon":"-69.44694","country":"PE","lastUpdated":"2020-05-08","type":{"class":"P","code":"PPL"},"region":{"a1":"21","a2":"2110","a3":"211002"},"meta":{"pop":"12183","dem":"5016","tz":"America/Lima"}},{"id":"12157110","name":"La Pradera","ascii_name":"La Pradera","lat":"-6.779","lon":"-79.886","country":"PE","lastUpdated":"2020-05-09","type":{"class":"P","code":"PPL"},"region":{"a1":"14","a2":"1401","a3":"140112"},"meta":{"pop":"10072","dem":"25","tz":"America/Lima"}},{"id":"12157111","name":"Miramar","ascii_name":"Miramar","lat":"-8.17945","lon":"-78.99381","country":"PE","lastUpdated":"2020-05-09","type":{"class":"P","code":"PPL"},"region":{"a1":"13","a2":"1301","a3":"130109"},"meta":{"pop":"9614","dem":"26","tz":"America/Lima"}},{"id":"12157112","name":"Ascencion","ascii_name":"Ascencion","lat":"-12.78423","lon":"-74.98058","country":"PE","lastUpdated":"2020-05-10","type":{"class":"P","code":"PPLA3"},"region":{"a1":"09","a2":"0901","a3":"090118"},"meta":{"pop":"9086","dem":"3690","tz":"America/Lima"}},{"id":"12157114","name":"Puente Viru","ascii_name":"Puente Viru","lat":"-8.42513","lon":"-78.78097","country":"PE","lastUpdated":"2020-05-09","type":{"class":"P","code":"PPL"},"region":{"a1":"13","a2":"1312","a3":"131201"},"meta":{"pop":"8995","dem":"59","tz":"America/Lima"}},{"id":"12157116","name":"Victor Raul","ascii_name":"Victor Raul","lat":"-8.40469","lon":"-78.82276","country":"PE","lastUpdated":"2020-05-09","type":{"class":"P","code":"PPL"},"region":{"a1":"13","a2":"1312","a3":"131201"},"meta":{"pop":"8369","dem":"62","tz":"America/Lima"}},{"id":"12157117","name":"Horacio Zeballos Gamez","ascii_name":"Horacio Zeballos Gamez","lat":"-16.49181","lon":"-71.50731","country":"PE","lastUpdated":"2020-05-09","type":{"class":"P","code":"PPL"},"region":{"a1":"04","a2":"0401","a3":"040122"},"meta":{"pop":"8365","dem":"2369","tz":"America/Lima"}},{"id":"12157119","name":"Huanchaquito Alto","ascii_name":"Huanchaquito Alto","lat":"-8.08791","lon":"-79.09746","country":"PE","lastUpdated":"2020-05-09","type":{"class":"P","code":"PPL"},"region":{"a1":"13","a2":"1301","a3":"130104"},"meta":{"pop":"7282","dem":"34","tz":"America/Lima"}},{"id":"12157128","name":"Selva Alegre","ascii_name":"Selva Alegre","lat":"-16.37057","lon":"-71.52724","country":"PE","lastUpdated":"2020-05-09","type":{"class":"P","code":"PPL"},"region":{"a1":"04","a2":"0401","a3":"040102"},"meta":{"pop":"72696","dem":"2455","tz":"America/Lima"}},{"id":"12157129","name":"Santiago","ascii_name":"Santiago","lat":"-13.52728","lon":"-71.9843","country":"PE","lastUpdated":"2020-05-09","type":{"class":"P","code":"PPL"},"region":{"a1":"08","a2":"0801","a3":"080106"},"meta":{"pop":"64075","dem":"3420","tz":"America/Lima"}},{"id":"12157171","name":"Tabaloslos","ascii_name":"Tabaloslos","lat":"-6.38559","lon":"-76.63342","country":"PE","lastUpdated":"2020-05-11","type":{"class":"P","code":"PPL"},"region":{"a1":"22","a2":"2205","a3":"220510"},"meta":{"pop":"7282","dem":"554","tz":"America/Lima"}},{"id":"12157172","name":"Fonavi","ascii_name":"Fonavi","lat":"-14.03282","lon":"-75.73697","country":"PE","lastUpdated":"2020-05-11","type":{"class":"P","code":"PPL"},"region":{"a1":"11","a2":"1101","a3":"110110"},"meta":{"pop":"6654","dem":"431","tz":"America/Lima"}},{"id":"12157173","name":"San Jose De Sisa","ascii_name":"San Jose De Sisa","lat":"-6.61375","lon":"-76.69309","country":"PE","lastUpdated":"2020-05-12","type":{"class":"P","code":"PPLA3"},"region":{"a1":"22","a2":"2203","a3":"220301"},"meta":{"pop":"6546","dem":"347","tz":"America/Lima"}},{"id":"12158715","name":"Paragsha- San Andres - Jose Carlos Mariategui","ascii_name":"Paragsha- San Andres - Jose Carlos Mariategui","lat":"-10.67147","lon":"-76.27098","country":"PE","lastUpdated":"2020-05-11","type":{"class":"P","code":"PPL"},"region":{"a1":"19","a2":"1901","a3":"190109"},"meta":{"pop":"6316","dem":"4336","tz":"America/Lima"}},{"id":"12158733","name":"Coasa","ascii_name":"Coasa","lat":"-13.98552","lon":"-70.01989","country":"PE","lastUpdated":"2020-05-11","type":{"class":"P","code":"PPL"},"region":{"a1":"21","a2":"2103","a3":"210304"},"meta":{"pop":"5763","dem":"3721","tz":"America/Lima"}},{"id":"12158744","name":"Nuevo Sullana","ascii_name":"Nuevo  Sullana","lat":"-4.92108","lon":"-80.72695","country":"PE","lastUpdated":"2020-05-11","type":{"class":"P","code":"PPL"},"region":{"a1":"20","a2":"2006","a3":"200606"},"meta":{"pop":"5484","dem":"69","tz":"America/Lima"}},{"id":"12158751","name":"Alto Salaverry","ascii_name":"Alto Salaverry","lat":"-8.1865","lon":"-78.98639","country":"PE","lastUpdated":"2020-05-11","type":{"class":"P","code":"PPL"},"region":{"a1":"13","a2":"1301","a3":"130109"},"meta":{"pop":"5014","dem":"66","tz":"America/Lima"}},{"id":"12158753","name":"Huepetuhe","ascii_name":"Huepetuhe","lat":"-12.99475","lon":"-70.52508","country":"PE","lastUpdated":"2020-05-11","type":{"class":"P","code":"PPL"},"region":{"a1":"17","a2":"1702","a3":"170204"},"meta":{"pop":"4056","dem":"441","tz":"America/Lima"}},{"id":"12165682","name":"Palianñuñas","ascii_name":"Paliannunas","lat":"-12.04038","lon":"-75.19134","country":"PE","lastUpdated":"2020-05-12","type":{"class":"P","code":"PPL"},"region":{"a1":"12","a2":"1201","a3":"120101"},"meta":{"pop":"4049","dem":"3335","tz":"America/Lima"}},{"id":"12165683","name":"Huamancaca Chico","ascii_name":"Huamancaca Chico","lat":"-12.07993","lon":"-75.24523","country":"PE","lastUpdated":"2020-05-12","type":{"class":"P","code":"PPL"},"region":{"a1":"12","a2":"1209","a3":"120905"},"meta":{"pop":"4019","dem":"3193","tz":"America/Lima"}},{"id":"12165686","name":"Mazuko","ascii_name":"Mazuko","lat":"-13.10012","lon":"-70.36736","country":"PE","lastUpdated":"2020-05-12","type":{"class":"P","code":"PPL"},"region":{"a1":"17","a2":"1701","a3":"170102"},"meta":{"pop":"3586","dem":"354","tz":"America/Lima"}},{"id":"12165689","name":"San Alejandro","ascii_name":"San Alejandro","lat":"-8.82936","lon":"-75.21326","country":"PE","lastUpdated":"2020-05-12","type":{"class":"P","code":"PPL"},"region":{"a1":"25","a2":"2503","a3":"250302"},"meta":{"pop":"3594","dem":"212","tz":"America/Lima"}},{"id":"12165690","name":"Cerro Verde","ascii_name":"Cerro Verde","lat":"-16.45026","lon":"-71.61552","country":"PE","lastUpdated":"2020-05-12","type":{"class":"P","code":"PPL"},"region":{"a1":"04","a2":"0401","a3":"040124"},"meta":{"pop":"3602","dem":"2133","tz":"America/Lima"}},{"id":"12165691","name":"Limoncarro","ascii_name":"Limoncarro","lat":"-7.3011","lon":"-79.4168","country":"PE","lastUpdated":"2020-05-12","type":{"class":"P","code":"PPL"},"region":{"a1":"13","a2":"1307","a3":"130702"},"meta":{"pop":"3758","dem":"125","tz":"America/Lima"}},{"id":"12165736","name":"Breña","ascii_name":"Brena","lat":"-12.05605","lon":"-77.05295","country":"PE","lastUpdated":"2020-05-12","type":{"class":"P","code":"PPLA3"},"region":{"a1":"15","a2":"1501","a3":"150105"},"meta":{"pop":"81909","dem":"119","tz":"America/Lima"}},{"id":"12200073","name":"Chupuro","ascii_name":"Chupuro","lat":"-12.1552","lon":"-75.24539","country":"PE","lastUpdated":"2020-11-28","type":{"class":"P","code":"PPLA3"},"region":{"a1":"12","a2":"1201","a3":"120111"},"meta":{"pop":"0","elv":"3174","dem":"3170","tz":"America/Lima"}},{"id":"12200101","name":"Pampas Grande","ascii_name":"Pampas Grande","lat":"-9.65537","lon":"-77.82657","country":"PE","lastUpdated":"2020-11-30","type":{"class":"P","code":"PPLA3"},"region":{"a1":"02","a2":"0201","a3":"020109"},"meta":{"pop":"0","dem":"3669","tz":"America/Lima"}},{"id":"12253616","name":"Puerto Rosario de Laberinto","ascii_name":"Puerto Rosario de Laberinto","lat":"-12.71732","lon":"-69.58694","country":"PE","lastUpdated":"2021-07-06","type":{"class":"P","code":"PPLA3"},"region":{"a1":"17","a2":"1701","a3":"170104"},"meta":{"pop":"3660","elv":"192","dem":"200","tz":"America/Lima"}},{"id":"12253617","name":"Soplín Vargas","ascii_name":"Soplin Vargas","lat":"-0.37293","lon":"-74.67558","country":"PE","lastUpdated":"2021-07-06","type":{"class":"P","code":"PPLA3"},"region":{"a1":"16","a2":"1608","a3":"160803"},"meta":{"pop":"537","elv":"185","dem":"181","tz":"America/Lima"}},{"id":"4020109","name":"Atuona","ascii_name":"Atuona","lat":"-9.80342","lon":"-139.04202","country":"PF","lastUpdated":"2018-02-21","type":{"class":"P","code":"PPL"},"region":{"a1":"04","a2":"10295183"},"meta":{"pop":"1762","dem":"16","tz":"Pacific/Marquesas"}},{"id":"4030556","name":"Rikitea","ascii_name":"Rikitea","lat":"-23.12322","lon":"-134.96858","country":"PF","lastUpdated":"2019-05-11","type":{"class":"P","code":"PPL"},"region":{"a1":"03","a2":"10295219"},"meta":{"pop":"1103","dem":"16","tz":"Pacific/Gambier"}},{"id":"4033077","name":"Vaitape","ascii_name":"Vaitape","lat":"-16.50741","lon":"-151.74913","country":"PF","lastUpdated":"2014-08-19","type":{"class":"P","code":"PPL"},"region":{"a1":"02"},"meta":{"pop":"4927","dem":"7","tz":"Pacific/Tahiti"}},{"id":"4033094","name":"Vairao","ascii_name":"Vairao","lat":"-17.78333","lon":"-149.28333","country":"PF","lastUpdated":"2018-02-21","type":{"class":"P","code":"PPL"},"region":{"a1":"01","a2":"10297426"},"meta":{"pop":"2423","dem":"245","tz":"Pacific/Tahiti"}},{"id":"4033205","name":"Uturoa","ascii_name":"Uturoa","lat":"-16.72891","lon":"-151.44482","country":"PF","lastUpdated":"2013-11-17","type":{"class":"P","code":"PPLA"},"region":{"a1":"02"},"meta":{"pop":"3668","dem":"8","tz":"Pacific/Tahiti"}},{"id":"4033295","name":"Tohautu","ascii_name":"Tohautu","lat":"-17.76099","lon":"-149.31676","country":"PF","lastUpdated":"2019-05-11","type":{"class":"P","code":"PPL"},"region":{"a1":"01"},"meta":{"pop":"2842","dem":"6","tz":"Pacific/Tahiti"}},{"id":"4033356","name":"Tiarei","ascii_name":"Tiarei","lat":"-17.53333","lon":"-149.33333","country":"PF","lastUpdated":"2006-01-17","type":{"class":"P","code":"PPL"},"region":{"a1":"00"},"meta":{"pop":"2795","dem":"-9999","tz":"Pacific/Tahiti"}},{"id":"4033375","name":"Tevaitoa","ascii_name":"Tevaitoa","lat":"-16.79139","lon":"-151.48893","country":"PF","lastUpdated":"2017-01-09","type":{"class":"P","code":"PPL"},"region":{"a1":"00"},"meta":{"pop":"1851","dem":"7","tz":"Pacific/Tahiti"}},{"id":"4033514","name":"Teavaro","ascii_name":"Teavaro","lat":"-17.5","lon":"-149.76667","country":"PF","lastUpdated":"2016-01-07","type":{"class":"P","code":"PPL"},"region":{"a1":"01"},"meta":{"pop":"2289","dem":"27","tz":"Pacific/Tahiti"}},{"id":"4033543","name":"Teahupoo","ascii_name":"Teahupoo","lat":"-17.84645","lon":"-149.26682","country":"PF","lastUpdated":"2019-05-11","type":{"class":"P","code":"PPL"},"region":{"a1":"01","a2":"10297426"},"meta":{"pop":"1422","dem":"29","tz":"Pacific/Tahiti"}},{"id":"4033557","name":"Tautira","ascii_name":"Tautira","lat":"-17.74744","lon":"-149.16123","country":"PF","lastUpdated":"2019-05-11","type":{"class":"P","code":"PPL"},"region":{"a1":"01","a2":"10297425"},"meta":{"pop":"2293","dem":"4","tz":"Pacific/Tahiti"}},{"id":"4033566","name":"Taunoa","ascii_name":"Taunoa","lat":"-17.75139","lon":"-149.35602","country":"PF","lastUpdated":"2019-05-11","type":{"class":"P","code":"PPL"},"region":{"a1":"01","a2":"10297429"},"meta":{"pop":"4131","dem":"9","tz":"Pacific/Tahiti"}},{"id":"4033779","name":"Punaauia","ascii_name":"Punaauia","lat":"-17.63333","lon":"-149.6","country":"PF","lastUpdated":"2023-06-17","type":{"class":"P","code":"PPL"},"region":{"a1":"01"},"meta":{"pop":"25750","dem":"24","tz":"Pacific/Tahiti"}},{"id":"4033792","name":"Pueu","ascii_name":"Pueu","lat":"-17.73831","lon":"-149.22376","country":"PF","lastUpdated":"2019-05-11","type":{"class":"P","code":"PPL"},"region":{"a1":"01","a2":"10297425"},"meta":{"pop":"1968","dem":"6","tz":"Pacific/Tahiti"}},{"id":"4033838","name":"Pirae","ascii_name":"Pirae","lat":"-17.52985","lon":"-149.55119","country":"PF","lastUpdated":"2023-01-18","type":{"class":"P","code":"PPL"},"region":{"a1":"01"},"meta":{"pop":"14475","dem":"26","tz":"Pacific/Tahiti"}},{"id":"4033910","name":"Papetoai","ascii_name":"Papetoai","lat":"-17.49538","lon":"-149.87437","country":"PF","lastUpdated":"2016-01-07","type":{"class":"P","code":"PPL"},"region":{"a1":"01"},"meta":{"pop":"1964","dem":"14","tz":"Pacific/Tahiti"}},{"id":"4033936","name":"Papeete","ascii_name":"Papeete","lat":"-17.5347","lon":"-149.56843","country":"PF","lastUpdated":"2022-05-26","type":{"class":"P","code":"PPLC"},"region":{"a1":"01"},"meta":{"pop":"26357","dem":"42","tz":"Pacific/Tahiti"}},{"id":"4033951","name":"Papao","ascii_name":"Papao","lat":"-17.75","lon":"-149.55","country":"PF","lastUpdated":"2013-08-18","type":{"class":"P","code":"PPL"},"region":{"a1":"01"},"meta":{"pop":"10360","dem":"7","tz":"Pacific/Tahiti"}},{"id":"4033958","name":"Paopao","ascii_name":"Paopao","lat":"-17.51863","lon":"-149.82193","country":"PF","lastUpdated":"2016-01-07","type":{"class":"P","code":"PPL"},"region":{"a1":"01"},"meta":{"pop":"4221","dem":"45","tz":"Pacific/Tahiti"}},{"id":"4034005","name":"Paea","ascii_name":"Paea","lat":"-17.68333","lon":"-149.58333","country":"PF","lastUpdated":"2013-08-18","type":{"class":"P","code":"PPL"},"region":{"a1":"01"},"meta":{"pop":"12084","dem":"16","tz":"Pacific/Tahiti"}},{"id":"4034022","name":"Otutara","ascii_name":"Otutara","lat":"-17.77207","lon":"-149.41341","country":"PF","lastUpdated":"2019-05-11","type":{"class":"P","code":"PPL"},"region":{"a1":"01"},"meta":{"pop":"4609","dem":"9","tz":"Pacific/Tahiti"}},{"id":"4034188","name":"Moerai","ascii_name":"Moerai","lat":"-22.45133","lon":"-151.34191","country":"PF","lastUpdated":"2013-11-10","type":{"class":"P","code":"PPL"},"region":{"a1":"05"},"meta":{"pop":"1044","dem":"6","tz":"Pacific/Tahiti"}},{"id":"4034307","name":"Mahina","ascii_name":"Mahina","lat":"-17.50648","lon":"-149.48899","country":"PF","lastUpdated":"2013-08-17","type":{"class":"P","code":"PPL"},"region":{"a1":"01"},"meta":{"pop":"14369","dem":"12","tz":"Pacific/Tahiti"}},{"id":"4034402","name":"Hitiaa","ascii_name":"Hitiaa","lat":"-17.6","lon":"-149.3","country":"PF","lastUpdated":"2012-01-18","type":{"class":"P","code":"PPL"},"region":{"a1":"00"},"meta":{"pop":"1826","dem":"-9999","tz":"Pacific/Tahiti"}},{"id":"4034438","name":"Haapiti","ascii_name":"Haapiti","lat":"-17.56352","lon":"-149.86905","country":"PF","lastUpdated":"2016-01-07","type":{"class":"P","code":"PPL"},"region":{"a1":"01"},"meta":{"pop":"3959","dem":"16","tz":"Pacific/Tahiti"}},{"id":"4034451","name":"Fitii","ascii_name":"Fitii","lat":"-16.73535","lon":"-151.0327","country":"PF","lastUpdated":"2015-03-31","type":{"class":"P","code":"PPL"},"region":{"a1":"02"},"meta":{"pop":"1154","dem":"9","tz":"Pacific/Tahiti"}},{"id":"4034496","name":"Fare","ascii_name":"Fare","lat":"-16.71085","lon":"-151.03455","country":"PF","lastUpdated":"2015-04-04","type":{"class":"P","code":"PPL"},"region":{"a1":"02"},"meta":{"pop":"1540","dem":"5","tz":"Pacific/Tahiti"}},{"id":"4034548","name":"Faone","ascii_name":"Faone","lat":"-17.66917","lon":"-149.30919","country":"PF","lastUpdated":"2019-05-11","type":{"class":"P","code":"PPL"},"region":{"a1":"01"},"meta":{"pop":"1747","dem":"24","tz":"Pacific/Tahiti"}},{"id":"4034551","name":"Faanui","ascii_name":"Faanui","lat":"-16.48679","lon":"-151.74102","country":"PF","lastUpdated":"2013-11-17","type":{"class":"P","code":"PPL"},"region":{"a1":"00"},"meta":{"pop":"2061","dem":"9","tz":"Pacific/Tahiti"}},{"id":"4034561","name":"Faaa","ascii_name":"Faaa","lat":"-17.55933","lon":"-149.60352","country":"PF","lastUpdated":"2023-01-18","type":{"class":"P","code":"PPL"},"region":{"a1":"01"},"meta":{"pop":"29851","dem":"72","tz":"Pacific/Tahiti"}},{"id":"4034636","name":"Arue","ascii_name":"Arue","lat":"-17.52764","lon":"-149.53437","country":"PF","lastUpdated":"2023-01-18","type":{"class":"P","code":"PPL"},"region":{"a1":"01"},"meta":{"pop":"9458","dem":"39","tz":"Pacific/Tahiti"}},{"id":"4034688","name":"Anau","ascii_name":"Anau","lat":"-16.50148","lon":"-151.72135","country":"PF","lastUpdated":"2019-05-11","type":{"class":"P","code":"PPL"},"region":{"a1":"02"},"meta":{"pop":"1412","dem":"37","tz":"Pacific/Tahiti"}},{"id":"4034741","name":"Afareaitu","ascii_name":"Afareaitu","lat":"-17.55","lon":"-149.78333","country":"PF","lastUpdated":"2016-01-07","type":{"class":"P","code":"PPL"},"region":{"a1":"01"},"meta":{"pop":"3213","dem":"-9999","tz":"Pacific/Tahiti"}},{"id":"4034745","name":"Afaahiti","ascii_name":"Afaahiti","lat":"-17.74395","lon":"-149.32444","country":"PF","lastUpdated":"2018-02-25","type":{"class":"P","code":"PPL"},"region":{"a1":"00"},"meta":{"pop":"5186","dem":"16","tz":"Pacific/Tahiti"}},{"id":"8063344","name":"Taiohae","ascii_name":"Taiohae","lat":"-8.91093","lon":"-140.09972","country":"PF","lastUpdated":"2013-08-10","type":{"class":"P","code":"PPLA"},"region":{"a1":"04"},"meta":{"pop":"1224","dem":"23","tz":"Pacific/Marquesas"}},{"id":"11427336","name":"Tapuarava","ascii_name":"Tapuarava","lat":"-18.46647","lon":"-136.46328","country":"PF","lastUpdated":"2017-01-09","type":{"class":"P","code":"PPLA2"},"region":{"a1":"03","a2":"10295340"},"meta":{"pop":"0","dem":"3","tz":"Pacific/Tahiti"}},{"id":"2083537","name":"Wewak","ascii_name":"Wewak","lat":"-3.54964","lon":"143.63229","country":"PG","lastUpdated":"2018-03-15","type":{"class":"P","code":"PPLA"},"region":{"a1":"11","a2":"2083536"},"meta":{"pop":"18230","dem":"44","tz":"Pacific/Port_Moresby"}},{"id":"2083653","name":"Wau","ascii_name":"Wau","lat":"-7.342","lon":"146.724","country":"PG","lastUpdated":"2024-02-20","type":{"class":"P","code":"PPL"},"region":{"a1":"14","a2":"8657188"},"meta":{"pop":"14629","dem":"1179","tz":"Pacific/Port_Moresby"}},{"id":"2084246","name":"Wabag","ascii_name":"Wabag","lat":"-5.49119","lon":"143.72151","country":"PG","lastUpdated":"2017-07-07","type":{"class":"P","code":"PPLA"},"region":{"a1":"19"},"meta":{"pop":"3958","dem":"2069","tz":"Pacific/Port_Moresby"}},{"id":"2084442","name":"Vanimo","ascii_name":"Vanimo","lat":"-2.68372","lon":"141.30195","country":"PG","lastUpdated":"2020-11-01","type":{"class":"P","code":"PPLA"},"region":{"a1":"18"},"meta":{"pop":"11204","dem":"5","tz":"Pacific/Port_Moresby"}},{"id":"2085772","name":"Tari","ascii_name":"Tari","lat":"-5.845","lon":"142.94667","country":"PG","lastUpdated":"2019-07-10","type":{"class":"P","code":"PPLA"},"region":{"a1":"21"},"meta":{"pop":"8186","dem":"1676","tz":"Pacific/Port_Moresby"}},{"id":"2087894","name":"Rabaul","ascii_name":"Rabaul","lat":"-4.20037","lon":"152.16297","country":"PG","lastUpdated":"2019-09-05","type":{"class":"P","code":"PPL"},"region":{"a1":"10","a2":"2087893"},"meta":{"pop":"8074","dem":"12","tz":"Pacific/Port_Moresby"}},{"id":"2088122","name":"Port Moresby","ascii_name":"Port Moresby","lat":"-9.47723","lon":"147.15089","country":"PG","lastUpdated":"2022-03-06","type":{"class":"P","code":"PPLC"},"region":{"a1":"20"},"meta":{"pop":"283733","dem":"25","tz":"Pacific/Port_Moresby"}},{"id":"2088143","name":"Porgera","ascii_name":"Porgera","lat":"-5.463","lon":"143.148","country":"PG","lastUpdated":"2018-03-14","type":{"class":"P","code":"PPL"},"region":{"a1":"19"},"meta":{"pop":"1578","dem":"2248","tz":"Pacific/Port_Moresby"}},{"id":"2088163","name":"Popondetta","ascii_name":"Popondetta","lat":"-8.76536","lon":"148.23252","country":"PG","lastUpdated":"2015-04-02","type":{"class":"P","code":"PPLA"},"region":{"a1":"04","a2":"2093690"},"meta":{"pop":"28198","dem":"106","tz":"Pacific/Port_Moresby"}},{"id":"2088659","name":"Panguna","ascii_name":"Panguna","lat":"-6.31639","lon":"155.48483","country":"PG","lastUpdated":"2012-01-17","type":{"class":"P","code":"PPL"},"region":{"a1":"07"},"meta":{"pop":"2916","dem":"597","tz":"Pacific/Bougainville"}},{"id":"2090409","name":"Mount Hagen","ascii_name":"Mount Hagen","lat":"-5.85746","lon":"144.23058","country":"PG","lastUpdated":"2019-02-27","type":{"class":"P","code":"PPLA"},"region":{"a1":"16","a2":"2090408"},"meta":{"pop":"33623","dem":"1728","tz":"Pacific/Port_Moresby"}},{"id":"2090495","name":"Morehead","ascii_name":"Morehead","lat":"-8.71065","lon":"141.63668","country":"PG","lastUpdated":"2012-05-05","type":{"class":"P","code":"PPL"},"region":{"a1":"06"},"meta":{"pop":"2246","dem":"11","tz":"Pacific/Port_Moresby"}},{"id":"2090763","name":"Minj","ascii_name":"Minj","lat":"-5.90752","lon":"144.69159","country":"PG","lastUpdated":"2019-07-15","type":{"class":"P","code":"PPLA2"},"region":{"a1":"22","a2":"8657197"},"meta":{"pop":"0","dem":"1607","tz":"Pacific/Port_Moresby"}},{"id":"2090990","name":"Mendi","ascii_name":"Mendi","lat":"-6.14755","lon":"143.65633","country":"PG","lastUpdated":"2018-03-14","type":{"class":"P","code":"PPLA"},"region":{"a1":"05"},"meta":{"pop":"26252","dem":"1729","tz":"Pacific/Port_Moresby"}},{"id":"2091996","name":"Madang","ascii_name":"Madang","lat":"-5.22152","lon":"145.78695","country":"PG","lastUpdated":"2019-02-27","type":{"class":"P","code":"PPLA"},"region":{"a1":"12"},"meta":{"pop":"27419","dem":"4","tz":"Pacific/Port_Moresby"}},{"id":"2092164","name":"Lorengau","ascii_name":"Lorengau","lat":"-2.0341","lon":"147.27173","country":"PG","lastUpdated":"2020-11-01","type":{"class":"P","code":"PPLA"},"region":{"a1":"13"},"meta":{"pop":"5806","dem":"45","tz":"Pacific/Port_Moresby"}},{"id":"2092740","name":"Lae","ascii_name":"Lae","lat":"-6.72333","lon":"146.99611","country":"PG","lastUpdated":"2019-07-10","type":{"class":"P","code":"PPLA"},"region":{"a1":"14"},"meta":{"pop":"76255","dem":"44","tz":"Pacific/Port_Moresby"}},{"id":"2092807","name":"Kwikila","ascii_name":"Kwikila","lat":"-9.81847","lon":"147.65968","country":"PG","lastUpdated":"2014-09-27","type":{"class":"P","code":"PPLA2"},"region":{"a1":"01","a2":"2087633"},"meta":{"pop":"0","dem":"68","tz":"Pacific/Port_Moresby"}},{"id":"2092952","name":"Kurumul","ascii_name":"Kurumul","lat":"-5.855","lon":"144.63111","country":"PG","lastUpdated":"2019-07-10","type":{"class":"P","code":"PPLA"},"region":{"a1":"22"},"meta":{"pop":"0","dem":"1515","tz":"Pacific/Port_Moresby"}},{"id":"2093059","name":"Kundiawa","ascii_name":"Kundiawa","lat":"-6.01972","lon":"144.96917","country":"PG","lastUpdated":"2019-07-10","type":{"class":"P","code":"PPLA"},"region":{"a1":"08"},"meta":{"pop":"9383","dem":"1510","tz":"Pacific/Port_Moresby"}},{"id":"2093685","name":"Kokopo","ascii_name":"Kokopo","lat":"-4.3432","lon":"152.26867","country":"PG","lastUpdated":"2018-10-19","type":{"class":"P","code":"PPLA"},"region":{"a1":"10"},"meta":{"pop":"26273","dem":"22","tz":"Pacific/Port_Moresby"}},{"id":"2093691","name":"Kokoda","ascii_name":"Kokoda","lat":"-8.87778","lon":"147.73642","country":"PG","lastUpdated":"2014-10-31","type":{"class":"P","code":"PPLA2"},"region":{"a1":"04","a2":"2093690"},"meta":{"pop":"6199","dem":"372","tz":"Pacific/Port_Moresby"}},{"id":"2093846","name":"Kiunga","ascii_name":"Kiunga","lat":"-6.12193","lon":"141.29061","country":"PG","lastUpdated":"2017-12-23","type":{"class":"P","code":"PPL"},"region":{"a1":"06"},"meta":{"pop":"11536","dem":"40","tz":"Pacific/Port_Moresby"}},{"id":"2093967","name":"Kimbe","ascii_name":"Kimbe","lat":"-5.55085","lon":"150.13766","country":"PG","lastUpdated":"2015-04-06","type":{"class":"P","code":"PPLA"},"region":{"a1":"17"},"meta":{"pop":"18847","dem":"27","tz":"Pacific/Port_Moresby"}},{"id":"2094027","name":"Kieta","ascii_name":"Kieta","lat":"-6.21462","lon":"155.63251","country":"PG","lastUpdated":"2018-10-24","type":{"class":"P","code":"PPL"},"region":{"a1":"07"},"meta":{"pop":"3611","dem":"8","tz":"Pacific/Bougainville"}},{"id":"2094144","name":"Kerema","ascii_name":"Kerema","lat":"-7.96028","lon":"145.77278","country":"PG","lastUpdated":"2019-07-10","type":{"class":"P","code":"PPLA"},"region":{"a1":"02"},"meta":{"pop":"5646","dem":"22","tz":"Pacific/Port_Moresby"}},{"id":"2094342","name":"Kavieng","ascii_name":"Kavieng","lat":"-2.57337","lon":"150.79516","country":"PG","lastUpdated":"2018-10-24","type":{"class":"P","code":"PPLA"},"region":{"a1":"15","a2":"2094341"},"meta":{"pop":"14490","dem":"14","tz":"Pacific/Port_Moresby"}},{"id":"2094746","name":"Kandrian","ascii_name":"Kandrian","lat":"-6.20655","lon":"149.54744","country":"PG","lastUpdated":"2018-10-26","type":{"class":"P","code":"PPL"},"region":{"a1":"17"},"meta":{"pop":"1014","dem":"5","tz":"Pacific/Port_Moresby"}},{"id":"2095038","name":"Kainantu","ascii_name":"Kainantu","lat":"-6.28872","lon":"145.86548","country":"PG","lastUpdated":"2012-01-17","type":{"class":"P","code":"PPL"},"region":{"a1":"09"},"meta":{"pop":"8509","dem":"1575","tz":"Pacific/Port_Moresby"}},{"id":"2095746","name":"Ihu","ascii_name":"Ihu","lat":"-7.89569","lon":"145.39405","country":"PG","lastUpdated":"2015-04-07","type":{"class":"P","code":"PPLA3"},"region":{"a1":"02","a2":"2094002"},"meta":{"pop":"0","dem":"11","tz":"Pacific/Port_Moresby"}},{"id":"2095925","name":"Ialibu","ascii_name":"Ialibu","lat":"-6.28208","lon":"143.99354","country":"PG","lastUpdated":"2018-04-06","type":{"class":"P","code":"PPL"},"region":{"a1":"05"},"meta":{"pop":"6915","dem":"2061","tz":"Pacific/Port_Moresby"}},{"id":"2096742","name":"Goroka","ascii_name":"Goroka","lat":"-6.085","lon":"145.38667","country":"PG","lastUpdated":"2019-07-10","type":{"class":"P","code":"PPLA"},"region":{"a1":"09"},"meta":{"pop":"18503","dem":"1574","tz":"Pacific/Port_Moresby"}},{"id":"2097418","name":"Finschhafen","ascii_name":"Finschhafen","lat":"-6.604","lon":"147.848","country":"PG","lastUpdated":"2024-02-15","type":{"class":"P","code":"PPL"},"region":{"a1":"14"},"meta":{"pop":"1054","dem":"1","tz":"Pacific/Port_Moresby"}},{"id":"2098329","name":"Daru","ascii_name":"Daru","lat":"-9.07786","lon":"143.20893","country":"PG","lastUpdated":"2015-04-18","type":{"class":"P","code":"PPLA"},"region":{"a1":"06"},"meta":{"pop":"15214","dem":"11","tz":"Pacific/Port_Moresby"}},{"id":"2098869","name":"Bulolo","ascii_name":"Bulolo","lat":"-7.2036","lon":"146.64014","country":"PG","lastUpdated":"2017-06-16","type":{"class":"P","code":"PPL"},"region":{"a1":"14","a2":"8657188"},"meta":{"pop":"16042","dem":"677","tz":"Pacific/Port_Moresby"}},{"id":"2100633","name":"Arawa","ascii_name":"Arawa","lat":"-6.22977","lon":"155.56598","country":"PG","lastUpdated":"2015-02-04","type":{"class":"P","code":"PPLA2"},"region":{"a1":"07"},"meta":{"pop":"40266","dem":"28","tz":"Pacific/Bougainville"}},{"id":"2100765","name":"Angoram","ascii_name":"Angoram","lat":"-4.06253","lon":"144.06609","country":"PG","lastUpdated":"2012-01-17","type":{"class":"P","code":"PPL"},"region":{"a1":"11"},"meta":{"pop":"1604","dem":"0","tz":"Pacific/Port_Moresby"}},{"id":"2100933","name":"Ambunti","ascii_name":"Ambunti","lat":"-4.21717","lon":"142.81832","country":"PG","lastUpdated":"2013-12-24","type":{"class":"P","code":"PPL"},"region":{"a1":"11"},"meta":{"pop":"2073","dem":"29","tz":"Pacific/Port_Moresby"}},{"id":"2101169","name":"Aitape","ascii_name":"Aitape","lat":"-3.13697","lon":"142.34913","country":"PG","lastUpdated":"2018-10-12","type":{"class":"P","code":"PPL"},"region":{"a1":"18"},"meta":{"pop":"5547","dem":"7","tz":"Pacific/Port_Moresby"}},{"id":"2132606","name":"Samarai","ascii_name":"Samarai","lat":"-10.61038","lon":"150.66207","country":"PG","lastUpdated":"2018-10-11","type":{"class":"P","code":"PPL"},"region":{"a1":"03"},"meta":{"pop":"1638","dem":"9","tz":"Pacific/Port_Moresby"}},{"id":"2133990","name":"Alotau","ascii_name":"Alotau","lat":"-10.31509","lon":"150.45742","country":"PG","lastUpdated":"2014-01-05","type":{"class":"P","code":"PPLA"},"region":{"a1":"03"},"meta":{"pop":"10025","dem":"11","tz":"Pacific/Port_Moresby"}},{"id":"8714539","name":"Buka","ascii_name":"Buka","lat":"-5.43261","lon":"154.67098","country":"PG","lastUpdated":"2015-03-12","type":{"class":"P","code":"PPLA"},"region":{"a1":"07"},"meta":{"pop":"0","dem":"2","tz":"Pacific/Bougainville"}},{"id":"9881549","name":"Rauna","ascii_name":"Rauna","lat":"-5.7359","lon":"144.28834","country":"PG","lastUpdated":"2014-12-11","type":{"class":"P","code":"PPLA3"},"region":{"a1":"16"},"meta":{"pop":"0","dem":"1587","tz":"Pacific/Port_Moresby"}},{"id":"1679360","name":"Zumarraga","ascii_name":"Zumarraga","lat":"11.6388","lon":"124.8417","country":"PH","lastUpdated":"2017-12-13","type":{"class":"P","code":"PPLA3"},"region":{"a1":"08","a2":"55","a3":"086023000"},"meta":{"pop":"0","dem":"6","tz":"Asia/Manila"}},{"id":"1679384","name":"Zarraga","ascii_name":"Zarraga","lat":"10.81972","lon":"122.60806","country":"PH","lastUpdated":"2017-12-13","type":{"class":"P","code":"PPLA3"},"region":{"a1":"06","a2":"30","a3":"063047000"},"meta":{"pop":"3253","dem":"8","tz":"Asia/Manila"}},{"id":"1679386","name":"Zaragoza","ascii_name":"Zaragoza","lat":"16.3871","lon":"119.9443","country":"PH","lastUpdated":"2017-12-13","type":{"class":"P","code":"PPL"},"region":{"a1":"01","a2":"51","a3":"015514000"},"meta":{"pop":"7391","dem":"27","tz":"Asia/Manila"}},{"id":"1679423","name":"Zamboanguita","ascii_name":"Zamboanguita","lat":"9.1025","lon":"123.1996","country":"PH","lastUpdated":"2017-12-13","type":{"class":"P","code":"PPLA3"},"region":{"a1":"07","a2":"46","a3":"074625000"},"meta":{"pop":"6164","dem":"11","tz":"Asia/Manila"}},{"id":"1679432","name":"Zamboanga","ascii_name":"Zamboanga","lat":"6.91028","lon":"122.07389","country":"PH","lastUpdated":"2017-12-13","type":{"class":"P","code":"PPLA2"},"region":{"a1":"09","a2":"66","a3":"097332000"},"meta":{"pop":"457623","dem":"9","tz":"Asia/Manila"}},{"id":"1679446","name":"Yumbing","ascii_name":"Yumbing","lat":"9.23933","lon":"124.65778","country":"PH","lastUpdated":"2019-10-09","type":{"class":"P","code":"PPL"},"region":{"a1":"10","a2":"17","a3":"101804000"},"meta":{"pop":"4930","dem":"2","tz":"Asia/Manila"}},{"id":"1679452","name":"Yubo","ascii_name":"Yubo","lat":"10.3896","lon":"123.069","country":"PH","lastUpdated":"2017-12-13","type":{"class":"P","code":"PPL"},"region":{"a1":"06","a2":"H3","a3":"064517000"},"meta":{"pop":"2373","dem":"387","tz":"Asia/Manila"}},{"id":"1679464","name":"Yook","ascii_name":"Yook","lat":"13.22608","lon":"121.964","country":"PH","lastUpdated":"2017-12-13","type":{"class":"P","code":"PPL"},"region":{"a1":"41","a2":"38","a3":"174002000"},"meta":{"pop":"2820","dem":"48","tz":"Asia/Manila"}},{"id":"1679476","name":"Ilaya","ascii_name":"Ilaya","lat":"5.81528","lon":"125.22667","country":"PH","lastUpdated":"2017-12-13","type":{"class":"P","code":"PPL"},"region":{"a1":"12","a2":"M9","a3":"128002000"},"meta":{"pop":"3201","dem":"23","tz":"Asia/Manila"}},{"id":"1679488","name":"Yeban Norte","ascii_name":"Yeban Norte","lat":"17.02195","lon":"121.94194","country":"PH","lastUpdated":"2017-12-13","type":{"class":"P","code":"PPL"},"region":{"a1":"02","a2":"31","a3":"023104000"},"meta":{"pop":"3557","dem":"56","tz":"Asia/Manila"}},{"id":"1679558","name":"Wright","ascii_name":"Wright","lat":"11.77028","lon":"125.02194","country":"PH","lastUpdated":"2017-12-13","type":{"class":"P","code":"PPL"},"region":{"a1":"08","a2":"55","a3":"086022000"},"meta":{"pop":"4703","dem":"4","tz":"Asia/Manila"}},{"id":"1679569","name":"Wines","ascii_name":"Wines","lat":"7.19389","lon":"125.38917","country":"PH","lastUpdated":"2017-12-13","type":{"class":"P","code":"PPL"},"region":{"a1":"11","a2":"25","a3":"112402000"},"meta":{"pop":"2907","dem":"454","tz":"Asia/Manila"}},{"id":"1679645","name":"Wawa","ascii_name":"Wawa","lat":"14.3019","lon":"121.4595","country":"PH","lastUpdated":"2017-12-13","type":{"class":"P","code":"PPL"},"region":{"a1":"40","a2":"33","a3":"043413000"},"meta":{"pop":"2873","dem":"7","tz":"Asia/Manila"}},{"id":"1679648","name":"Wawa","ascii_name":"Wawa","lat":"13.7401","lon":"121.0529","country":"PH","lastUpdated":"2017-12-13","type":{"class":"P","code":"PPL"},"region":{"a1":"40","a2":"09","a3":"041005000"},"meta":{"pop":"4416","dem":"8","tz":"Asia/Manila"}},{"id":"1679649","name":"Wawa","ascii_name":"Wawa","lat":"13.4632","lon":"120.7441","country":"PH","lastUpdated":"2017-12-13","type":{"class":"P","code":"PPL"},"region":{"a1":"41","a2":"40","a3":"175101000"},"meta":{"pop":"4881","dem":"11","tz":"Asia/Manila"}},{"id":"1679678","name":"Wao","ascii_name":"Wao","lat":"7.68333","lon":"124.66667","country":"PH","lastUpdated":"2017-12-13","type":{"class":"P","code":"PPLA3"},"region":{"a1":"14","a2":"35","a3":"153630000"},"meta":{"pop":"17845","dem":"1246","tz":"Asia/Manila"}},{"id":"1679689","name":"Wañgan","ascii_name":"Wangan","lat":"7.15972","lon":"125.44528","country":"PH","lastUpdated":"2017-12-13","type":{"class":"P","code":"PPL"},"region":{"a1":"11","a2":"25","a3":"112402000"},"meta":{"pop":"7621","dem":"279","tz":"Asia/Manila"}},{"id":"1679755","name":"Vizal Santo Niño","ascii_name":"Vizal Santo Nino","lat":"15.02924","lon":"120.90505","country":"PH","lastUpdated":"2017-12-13","type":{"class":"P","code":"PPL"},"region":{"a1":"03","a2":"50","a3":"035405000"},"meta":{"pop":"2529","dem":"14","tz":"Asia/Manila"}},{"id":"1679756","name":"Vizal San Pablo","ascii_name":"Vizal San Pablo","lat":"15.06247","lon":"120.90021","country":"PH","lastUpdated":"2017-12-13","type":{"class":"P","code":"PPL"},"region":{"a1":"03","a2":"50","a3":"035405000"},"meta":{"pop":"2322","dem":"12","tz":"Asia/Manila"}},{"id":"1679766","name":"Vito","ascii_name":"Vito","lat":"10.9031","lon":"123.5154","country":"PH","lastUpdated":"2017-12-13","type":{"class":"P","code":"PPL"},"region":{"a1":"06","a2":"H3","a3":"064523000"},"meta":{"pop":"6141","dem":"10","tz":"Asia/Manila"}},{"id":"1679776","name":"Vitali","ascii_name":"Vitali","lat":"7.37111","lon":"122.28861","country":"PH","lastUpdated":"2017-12-13","type":{"class":"P","code":"PPL"},"region":{"a1":"09","a2":"66","a3":"097332000"},"meta":{"pop":"9653","dem":"11","tz":"Asia/Manila"}},{"id":"1679782","name":"Vista Alegre","ascii_name":"Vista Alegre","lat":"9.9984","lon":"122.7663","country":"PH","lastUpdated":"2017-12-13","type":{"class":"P","code":"PPL"},"region":{"a1":"06","a2":"H3","a3":"064513000"},"meta":{"pop":"2709","dem":"8","tz":"Asia/Manila"}},{"id":"1679796","name":"Viriato","ascii_name":"Viriato","lat":"12.29031","lon":"124.35333","country":"PH","lastUpdated":"2017-12-13","type":{"class":"P","code":"PPL"},"region":{"a1":"08","a2":"67","a3":"084818000"},"meta":{"pop":"2241","dem":"20","tz":"Asia/Manila"}},{"id":"1679802","name":"Virac","ascii_name":"Virac","lat":"13.5848","lon":"124.2374","country":"PH","lastUpdated":"2017-12-13","type":{"class":"P","code":"PPLA3"},"region":{"a1":"05","a2":"19","a3":"052011000"},"meta":{"pop":"15079","dem":"7","tz":"Asia/Manila"}},{"id":"1679811","name":"Vinzons","ascii_name":"Vinzons","lat":"14.1737","lon":"122.9066","country":"PH","lastUpdated":"2017-12-13","type":{"class":"P","code":"PPLA3"},"region":{"a1":"05","a2":"15","a3":"051612000"},"meta":{"pop":"13617","dem":"5","tz":"Asia/Manila"}},{"id":"1679815","name":"Vintar","ascii_name":"Vintar","lat":"18.2284","lon":"120.6475","country":"PH","lastUpdated":"2017-12-13","type":{"class":"P","code":"PPL"},"region":{"a1":"01","a2":"28","a3":"012823000"},"meta":{"pop":"5263","dem":"29","tz":"Asia/Manila"}},{"id":"1679837","name":"Villaviciosa","ascii_name":"Villaviciosa","lat":"17.4379","lon":"120.6262","country":"PH","lastUpdated":"2017-12-13","type":{"class":"P","code":"PPLA3"},"region":{"a1":"15","a2":"01","a3":"140127000"},"meta":{"pop":"0","dem":"178","tz":"Asia/Manila"}},{"id":"1679841","name":"Villa Verde","ascii_name":"Villa Verde","lat":"16.59888","lon":"121.18774","country":"PH","lastUpdated":"2017-12-13","type":{"class":"P","code":"PPLA3"},"region":{"a1":"02","a2":"48","a3":"025014000"},"meta":{"pop":"0","dem":"257","tz":"Asia/Manila"}},{"id":"1679845","name":"Villasis","ascii_name":"Villasis","lat":"15.90167","lon":"120.58833","country":"PH","lastUpdated":"2017-12-13","type":{"class":"P","code":"PPLA3"},"region":{"a1":"01","a2":"51","a3":"015547000"},"meta":{"pop":"13122","dem":"30","tz":"Asia/Manila"}},{"id":"1679850","name":"Villarosa","ascii_name":"Villarosa","lat":"15.55","lon":"120.75","country":"PH","lastUpdated":"2013-03-05","type":{"class":"P","code":"PPL"},"region":{"a1":"15","a2":"44"},"meta":{"pop":"2759","dem":"23","tz":"Asia/Manila"}},{"id":"1679856","name":"Villareal","ascii_name":"Villareal","lat":"11.5659","lon":"124.9281","country":"PH","lastUpdated":"2017-12-13","type":{"class":"P","code":"PPLA3"},"region":{"a1":"08","a2":"55","a3":"086021000"},"meta":{"pop":"3765","dem":"11","tz":"Asia/Manila"}},{"id":"1679868","name":"Villanueva","ascii_name":"Villanueva","lat":"15.79841","lon":"120.54654","country":"PH","lastUpdated":"2017-12-13","type":{"class":"P","code":"PPLX"},"region":{"a1":"01","a2":"51","a3":"015510000"},"meta":{"pop":"2592","dem":"18","tz":"Asia/Manila"}},{"id":"1679873","name":"Villanueva","ascii_name":"Villanueva","lat":"8.58889","lon":"124.77556","country":"PH","lastUpdated":"2017-12-13","type":{"class":"P","code":"PPLA3"},"region":{"a1":"10","a2":"43","a3":"104326000"},"meta":{"pop":"7415","dem":"10","tz":"Asia/Manila"}},{"id":"1679879","name":"Villamor","ascii_name":"Villamor","lat":"6.7038","lon":"124.52009","country":"PH","lastUpdated":"2018-02-06","type":{"class":"P","code":"PPL"},"region":{"a1":"12","a2":"71","a3":"126503000"},"meta":{"pop":"2409","dem":"48","tz":"Asia/Manila"}},{"id":"1679893","name":"Villa Isla","ascii_name":"Villa Isla","lat":"15.7703","lon":"120.8666","country":"PH","lastUpdated":"2017-12-13","type":{"class":"P","code":"PPL"},"region":{"a1":"03","a2":"47","a3":"034917000"},"meta":{"pop":"2256","dem":"93","tz":"Asia/Manila"}},{"id":"1679901","name":"Villahermosa","ascii_name":"Villahermosa","lat":"13.0458","lon":"123.7133","country":"PH","lastUpdated":"2017-12-13","type":{"class":"P","code":"PPL"},"region":{"a1":"05","a2":"05","a3":"050503000"},"meta":{"pop":"2428","dem":"40","tz":"Asia/Manila"}},{"id":"1679945","name":"Villaba","ascii_name":"Villaba","lat":"11.2135","lon":"124.3921","country":"PH","lastUpdated":"2017-12-13","type":{"class":"P","code":"PPLA3"},"region":{"a1":"08","a2":"37","a3":"083751000"},"meta":{"pop":"3266","dem":"7","tz":"Asia/Manila"}},{"id":"1679954","name":"Villa Aglipay","ascii_name":"Villa Aglipay","lat":"15.46605","lon":"120.45273","country":"PH","lastUpdated":"2017-12-13","type":{"class":"P","code":"PPL"},"region":{"a1":"03","a2":"63","a3":"036918000"},"meta":{"pop":"4800","dem":"91","tz":"Asia/Manila"}},{"id":"1679964","name":"Vigo","ascii_name":"Vigo","lat":"13.82666","lon":"120.17922","country":"PH","lastUpdated":"2017-12-13","type":{"class":"P","code":"PPL"},"region":{"a1":"41","a2":"40","a3":"175104000"},"meta":{"pop":"2482","dem":"11","tz":"Asia/Manila"}},{"id":"1679965","name":"Viga","ascii_name":"Viga","lat":"12.5162","lon":"125.0528","country":"PH","lastUpdated":"2017-12-13","type":{"class":"P","code":"PPL"},"region":{"a1":"08","a2":"67","a3":"084808000"},"meta":{"pop":"2024","dem":"9","tz":"Asia/Manila"}},{"id":"1679980","name":"Vigan","ascii_name":"Vigan","lat":"17.57472","lon":"120.38694","country":"PH","lastUpdated":"2017-12-13","type":{"class":"P","code":"PPLA3"},"region":{"a1":"01","a2":"29","a3":"012934000"},"meta":{"pop":"48545","dem":"19","tz":"Asia/Manila"}},{"id":"1679992","name":"Biga","ascii_name":"Biga","lat":"13.90401","lon":"120.64875","country":"PH","lastUpdated":"2017-12-13","type":{"class":"P","code":"PPL"},"region":{"a1":"40","a2":"09","a3":"041008000"},"meta":{"pop":"3096","dem":"33","tz":"Asia/Manila"}},{"id":"1679993","name":"Viga","ascii_name":"Viga","lat":"13.8719","lon":"124.3091","country":"PH","lastUpdated":"2017-12-13","type":{"class":"P","code":"PPLA3"},"region":{"a1":"05","a2":"19","a3":"052010000"},"meta":{"pop":"4089","dem":"6","tz":"Asia/Manila"}},{"id":"1680007","name":"Victorias","ascii_name":"Victorias","lat":"10.90154","lon":"123.0705","country":"PH","lastUpdated":"2017-12-27","type":{"class":"P","code":"PPLA3"},"region":{"a1":"06","a2":"H3","a3":"064531000"},"meta":{"pop":"86510","dem":"12","tz":"Asia/Manila"}},{"id":"1680017","name":"Victoria","ascii_name":"Victoria","lat":"15.5775","lon":"120.6822","country":"PH","lastUpdated":"2017-12-13","type":{"class":"P","code":"PPLA3"},"region":{"a1":"03","a2":"63","a3":"036917000"},"meta":{"pop":"0","dem":"30","tz":"Asia/Manila"}},{"id":"1680018","name":"Victoria","ascii_name":"Victoria","lat":"14.2277","lon":"121.3292","country":"PH","lastUpdated":"2017-12-13","type":{"class":"P","code":"PPLA3"},"region":{"a1":"40","a2":"33","a3":"043430000"},"meta":{"pop":"24456","dem":"14","tz":"Asia/Manila"}},{"id":"1680019","name":"Victoria","ascii_name":"Victoria","lat":"13.17722","lon":"121.27806","country":"PH","lastUpdated":"2017-12-13","type":{"class":"P","code":"PPLA3"},"region":{"a1":"41","a2":"41","a3":"175215000"},"meta":{"pop":"10088","dem":"18","tz":"Asia/Manila"}},{"id":"1680021","name":"Victoria","ascii_name":"Victoria","lat":"12.44722","lon":"124.31111","country":"PH","lastUpdated":"2017-12-13","type":{"class":"P","code":"PPLA3"},"region":{"a1":"08","a2":"67","a3":"084823000"},"meta":{"pop":"2718","dem":"3","tz":"Asia/Manila"}},{"id":"1680036","name":"Biay","ascii_name":"Biay","lat":"15.7402","lon":"119.9067","country":"PH","lastUpdated":"2017-12-13","type":{"class":"P","code":"PPL"},"region":{"a1":"03","a2":"64","a3":"037113000"},"meta":{"pop":"2257","dem":"12","tz":"Asia/Manila"}},{"id":"1680040","name":"Veruela","ascii_name":"Veruela","lat":"8.0731","lon":"125.9558","country":"PH","lastUpdated":"2017-12-13","type":{"class":"P","code":"PPL"},"region":{"a1":"13","a2":"03","a3":"160313000"},"meta":{"pop":"18114","dem":"31","tz":"Asia/Manila"}},{"id":"1680075","name":"Vargas","ascii_name":"Vargas","lat":"15.59332","lon":"120.48709","country":"PH","lastUpdated":"2017-12-13","type":{"class":"P","code":"PPL"},"region":{"a1":"03","a2":"63","a3":"036915000"},"meta":{"pop":"2777","dem":"70","tz":"Asia/Manila"}},{"id":"1680092","name":"Vallehermoso","ascii_name":"Vallehermoso","lat":"10.3349","lon":"123.3259","country":"PH","lastUpdated":"2017-12-13","type":{"class":"P","code":"PPLA3"},"region":{"a1":"07","a2":"46","a3":"074624000"},"meta":{"pop":"10179","dem":"5","tz":"Asia/Manila"}},{"id":"1680093","name":"Valle Hermoso","ascii_name":"Valle Hermoso","lat":"9.7939","lon":"124.2365","country":"PH","lastUpdated":"2017-12-13","type":{"class":"P","code":"PPL"},"region":{"a1":"07","a2":"11","a3":"071212000"},"meta":{"pop":"2116","dem":"229","tz":"Asia/Manila"}},