[{"id":"3673404","name":"Padua","ascii_name":"Padua","lat":"5.13429","lon":"-75.14001","country":"CO","lastUpdated":"2018-08-31","type":{"class":"P","code":"PPL"},"region":{"a1":"28","a2":"73347"},"meta":{"pop":"19311","dem":"2041","tz":"America/Bogota"}},{"id":"3673407","name":"Padilla","ascii_name":"Padilla","lat":"3.22038","lon":"-76.31385","country":"CO","lastUpdated":"2018-07-04","type":{"class":"P","code":"PPLA2"},"region":{"a1":"09","a2":"19513"},"meta":{"pop":"4472","dem":"992","tz":"America/Bogota"}},{"id":"3673413","name":"Pácora","ascii_name":"Pacora","lat":"5.52708","lon":"-75.4593","country":"CO","lastUpdated":"2018-07-04","type":{"class":"P","code":"PPLA2"},"region":{"a1":"37","a2":"17513"},"meta":{"pop":"8218","dem":"1809","tz":"America/Bogota"}},{"id":"3673424","name":"Pacho","ascii_name":"Pacho","lat":"5.13278","lon":"-74.15977","country":"CO","lastUpdated":"2018-07-04","type":{"class":"P","code":"PPLA2"},"region":{"a1":"33","a2":"25513"},"meta":{"pop":"16698","dem":"1783","tz":"America/Bogota"}},{"id":"3673431","name":"Pachavita","ascii_name":"Pachavita","lat":"5.13969","lon":"-73.39739","country":"CO","lastUpdated":"2018-06-08","type":{"class":"P","code":"PPLA2"},"region":{"a1":"36"},"meta":{"pop":"959","dem":"1984","tz":"America/Bogota"}},{"id":"3673455","name":"Ovejas","ascii_name":"Ovejas","lat":"9.52716","lon":"-75.22873","country":"CO","lastUpdated":"2018-09-05","type":{"class":"P","code":"PPLA2"},"region":{"a1":"27","a2":"70508"},"meta":{"pop":"13284","dem":"260","tz":"America/Bogota"}},{"id":"3673475","name":"Otanche","ascii_name":"Otanche","lat":"5.65672","lon":"-74.18249","country":"CO","lastUpdated":"2018-06-08","type":{"class":"P","code":"PPLA2"},"region":{"a1":"36","a2":"15507"},"meta":{"pop":"3589","dem":"1075","tz":"America/Bogota"}},{"id":"3673482","name":"Ospina","ascii_name":"Ospina","lat":"1.0595","lon":"-77.56554","country":"CO","lastUpdated":"2018-08-08","type":{"class":"P","code":"PPLA2"},"region":{"a1":"20","a2":"52506"},"meta":{"pop":"2747","dem":"2862","tz":"America/Bogota"}},{"id":"3673511","name":"Ortega","ascii_name":"Ortega","lat":"3.9361","lon":"-75.22169","country":"CO","lastUpdated":"2018-09-05","type":{"class":"P","code":"PPLA2"},"region":{"a1":"28","a2":"73504"},"meta":{"pop":"6871","dem":"393","tz":"America/Bogota"}},{"id":"3673536","name":"Orocué","ascii_name":"Orocue","lat":"4.79035","lon":"-71.33917","country":"CO","lastUpdated":"2018-07-04","type":{"class":"P","code":"PPLA2"},"region":{"a1":"32","a2":"85230"},"meta":{"pop":"2835","dem":"134","tz":"America/Bogota"}},{"id":"3673578","name":"Oporapa","ascii_name":"Oporapa","lat":"2.02378","lon":"-75.99588","country":"CO","lastUpdated":"2018-08-08","type":{"class":"P","code":"PPLA2"},"region":{"a1":"16","a2":"41503"},"meta":{"pop":"2310","dem":"1385","tz":"America/Bogota"}},{"id":"3673590","name":"Onzaga","ascii_name":"Onzaga","lat":"6.34434","lon":"-72.81726","country":"CO","lastUpdated":"2018-09-05","type":{"class":"P","code":"PPLA2"},"region":{"a1":"26","a2":"68502"},"meta":{"pop":"1393","dem":"1955","tz":"America/Bogota"}},{"id":"3673609","name":"Olaya Herrera","ascii_name":"Olaya Herrera","lat":"1.24803","lon":"-77.49085","country":"CO","lastUpdated":"2018-04-19","type":{"class":"P","code":"PPL"},"region":{"a1":"20","a2":"52207"},"meta":{"pop":"9820","dem":"1666","tz":"America/Bogota"}},{"id":"3673613","name":"Olaya","ascii_name":"Olaya","lat":"6.62773","lon":"-75.8127","country":"CO","lastUpdated":"2018-06-08","type":{"class":"P","code":"PPLA2"},"region":{"a1":"02","a2":"05501"},"meta":{"pop":"710","dem":"489","tz":"America/Bogota"}},{"id":"3673635","name":"Oicatá","ascii_name":"Oicata","lat":"5.59548","lon":"-73.3082","country":"CO","lastUpdated":"2018-06-08","type":{"class":"P","code":"PPLA2"},"region":{"a1":"36","a2":"15500"},"meta":{"pop":"327","dem":"2715","tz":"America/Bogota"}},{"id":"3673637","name":"Oiba","ascii_name":"Oiba","lat":"6.26387","lon":"-73.29876","country":"CO","lastUpdated":"2018-09-05","type":{"class":"P","code":"PPLA2"},"region":{"a1":"26","a2":"68500"},"meta":{"pop":"3959","dem":"1421","tz":"America/Bogota"}},{"id":"3673662","name":"Ocaña","ascii_name":"Ocana","lat":"8.23773","lon":"-73.35604","country":"CO","lastUpdated":"2018-08-08","type":{"class":"P","code":"PPLA2"},"region":{"a1":"21","a2":"54498"},"meta":{"pop":"83511","dem":"1197","tz":"America/Bogota"}},{"id":"3673664","name":"Ocamonte","ascii_name":"Ocamonte","lat":"6.34001","lon":"-73.12205","country":"CO","lastUpdated":"2018-09-05","type":{"class":"P","code":"PPLA2"},"region":{"a1":"26","a2":"68498"},"meta":{"pop":"883","dem":"1409","tz":"America/Bogota"}},{"id":"3673676","name":"Obando","ascii_name":"Obando","lat":"4.57583","lon":"-75.97389","country":"CO","lastUpdated":"2018-09-05","type":{"class":"P","code":"PPLA2"},"region":{"a1":"29","a2":"76497"},"meta":{"pop":"7298","dem":"932","tz":"America/Bogota"}},{"id":"3673690","name":"Nuquí","ascii_name":"Nuqui","lat":"5.7125","lon":"-77.27083","country":"CO","lastUpdated":"2020-06-11","type":{"class":"P","code":"PPLA2"},"region":{"a1":"11"},"meta":{"pop":"2741","dem":"9","tz":"America/Bogota"}},{"id":"3673695","name":"Nunchía","ascii_name":"Nunchia","lat":"5.63589","lon":"-72.19543","country":"CO","lastUpdated":"2017-09-19","type":{"class":"P","code":"PPL"},"region":{"a1":"32","a2":"85225"},"meta":{"pop":"1282","dem":"396","tz":"America/Bogota"}},{"id":"3673730","name":"Nuevo Colón","ascii_name":"Nuevo Colon","lat":"5.35368","lon":"-73.4566","country":"CO","lastUpdated":"2018-06-08","type":{"class":"P","code":"PPLA2"},"region":{"a1":"36","a2":"15494"},"meta":{"pop":"863","dem":"2457","tz":"America/Bogota"}},{"id":"3673756","name":"Nueva Granada","ascii_name":"Nueva Granada","lat":"9.80168","lon":"-74.39304","country":"CO","lastUpdated":"2018-08-08","type":{"class":"P","code":"PPLA2"},"region":{"a1":"38","a2":"47460"},"meta":{"pop":"2714","dem":"113","tz":"America/Bogota"}},{"id":"3673783","name":"Nóvita","ascii_name":"Novita","lat":"4.95511","lon":"-76.60526","country":"CO","lastUpdated":"2018-07-04","type":{"class":"P","code":"PPLA2"},"region":{"a1":"11","a2":"27491"},"meta":{"pop":"1898","dem":"51","tz":"America/Bogota"}},{"id":"3673804","name":"Norosí","ascii_name":"Norosi","lat":"8.52692","lon":"-74.03736","country":"CO","lastUpdated":"2020-06-11","type":{"class":"P","code":"PPLA2"},"region":{"a1":"35","a2":"13490"},"meta":{"pop":"0","dem":"50","tz":"America/Bogota"}},{"id":"3673811","name":"Norcasia","ascii_name":"Norcasia","lat":"5.57535","lon":"-74.88831","country":"CO","lastUpdated":"2018-07-04","type":{"class":"P","code":"PPLA2"},"region":{"a1":"37","a2":"17495"},"meta":{"pop":"5976","dem":"722","tz":"America/Bogota"}},{"id":"3673826","name":"Nocaima","ascii_name":"Nocaima","lat":"5.06696","lon":"-74.38439","country":"CO","lastUpdated":"2016-01-28","type":{"class":"P","code":"PPLA2"},"region":{"a1":"33","a2":"25491"},"meta":{"pop":"2475","dem":"1108","tz":"America/Bogota"}},{"id":"3673829","name":"Nobsa","ascii_name":"Nobsa","lat":"5.76978","lon":"-72.94099","country":"CO","lastUpdated":"2018-06-08","type":{"class":"P","code":"PPLA2"},"region":{"a1":"36","a2":"15491"},"meta":{"pop":"3360","dem":"2497","tz":"America/Bogota"}},{"id":"3673845","name":"Nimaima","ascii_name":"Nimaima","lat":"5.12614","lon":"-74.38495","country":"CO","lastUpdated":"2018-07-04","type":{"class":"P","code":"PPLA2"},"region":{"a1":"33","a2":"25489"},"meta":{"pop":"604","dem":"1107","tz":"America/Bogota"}},{"id":"3673849","name":"Nilo","ascii_name":"Nilo","lat":"4.30604","lon":"-74.62083","country":"CO","lastUpdated":"2018-07-04","type":{"class":"P","code":"PPLA2"},"region":{"a1":"33","a2":"25488"},"meta":{"pop":"1117","dem":"333","tz":"America/Bogota"}},{"id":"3673887","name":"Nemocón","ascii_name":"Nemocon","lat":"5.06767","lon":"-73.87769","country":"CO","lastUpdated":"2018-07-04","type":{"class":"P","code":"PPLA2"},"region":{"a1":"33","a2":"25486"},"meta":{"pop":"5466","dem":"2581","tz":"America/Bogota"}},{"id":"3673899","name":"Neiva","ascii_name":"Neiva","lat":"2.9273","lon":"-75.28189","country":"CO","lastUpdated":"2018-04-19","type":{"class":"P","code":"PPLA"},"region":{"a1":"16","a2":"41001"},"meta":{"pop":"352855","dem":"461","tz":"America/Bogota"}},{"id":"3673902","name":"Neira","ascii_name":"Neira","lat":"5.1665","lon":"-75.52001","country":"CO","lastUpdated":"2018-07-04","type":{"class":"P","code":"PPLA2"},"region":{"a1":"37","a2":"17486"},"meta":{"pop":"11755","dem":"1953","tz":"America/Bogota"}},{"id":"3673974","name":"Necoclí","ascii_name":"Necocli","lat":"8.42627","lon":"-76.78926","country":"CO","lastUpdated":"2020-12-20","type":{"class":"P","code":"PPLA2"},"region":{"a1":"02","a2":"05490"},"meta":{"pop":"10835","dem":"4","tz":"America/Bogota"}},{"id":"3673976","name":"Nechí","ascii_name":"Nechi","lat":"8.09419","lon":"-74.77573","country":"CO","lastUpdated":"2018-06-08","type":{"class":"P","code":"PPLA2"},"region":{"a1":"02","a2":"05495"},"meta":{"pop":"6693","dem":"31","tz":"America/Bogota"}},{"id":"3674010","name":"Natagaima","ascii_name":"Natagaima","lat":"3.62057","lon":"-75.09415","country":"CO","lastUpdated":"2018-09-05","type":{"class":"P","code":"PPLA2"},"region":{"a1":"28","a2":"73483"},"meta":{"pop":"11217","dem":"326","tz":"America/Bogota"}},{"id":"3674012","name":"Nátaga","ascii_name":"Nataga","lat":"2.54359","lon":"-75.80852","country":"CO","lastUpdated":"2018-08-08","type":{"class":"P","code":"PPLA2"},"region":{"a1":"16","a2":"41483"},"meta":{"pop":"2232","dem":"1472","tz":"America/Bogota"}},{"id":"3674027","name":"Nariño","ascii_name":"Narino","lat":"5.60893","lon":"-75.17656","country":"CO","lastUpdated":"2018-06-08","type":{"class":"P","code":"PPLA2"},"region":{"a1":"02","a2":"05483"},"meta":{"pop":"3186","dem":"1656","tz":"America/Bogota"}},{"id":"3674029","name":"Nariño","ascii_name":"Narino","lat":"4.39781","lon":"-74.82731","country":"CO","lastUpdated":"2018-07-04","type":{"class":"P","code":"PPLA2"},"region":{"a1":"33","a2":"25483"},"meta":{"pop":"1213","dem":"264","tz":"America/Bogota"}},{"id":"3674031","name":"Nariño","ascii_name":"Narino","lat":"1.28995","lon":"-77.35721","country":"CO","lastUpdated":"2018-08-08","type":{"class":"P","code":"PPLA2"},"region":{"a1":"20","a2":"52480"},"meta":{"pop":"2933","dem":"2347","tz":"America/Bogota"}},{"id":"3674121","name":"Muzo","ascii_name":"Muzo","lat":"5.53528","lon":"-74.10778","country":"CO","lastUpdated":"2018-06-08","type":{"class":"P","code":"PPLA2"},"region":{"a1":"36","a2":"15480"},"meta":{"pop":"7977","dem":"770","tz":"America/Bogota"}},{"id":"3674124","name":"Mutiscua","ascii_name":"Mutiscua","lat":"7.30061","lon":"-72.74667","country":"CO","lastUpdated":"2018-08-08","type":{"class":"P","code":"PPLA2"},"region":{"a1":"21","a2":"54480"},"meta":{"pop":"918","dem":"2609","tz":"America/Bogota"}},{"id":"3674130","name":"Mutatá","ascii_name":"Mutata","lat":"7.24407","lon":"-76.43564","country":"CO","lastUpdated":"2018-06-08","type":{"class":"P","code":"PPLA2"},"region":{"a1":"02","a2":"05480"},"meta":{"pop":"4811","dem":"132","tz":"America/Bogota"}},{"id":"3674161","name":"Murindó","ascii_name":"Murindo","lat":"6.98057","lon":"-76.82119","country":"CO","lastUpdated":"2018-06-08","type":{"class":"P","code":"PPLA2"},"region":{"a1":"02","a2":"05475"},"meta":{"pop":"2372","dem":"8","tz":"America/Bogota"}},{"id":"3674166","name":"Murillo","ascii_name":"Murillo","lat":"4.87393","lon":"-75.17151","country":"CO","lastUpdated":"2018-09-05","type":{"class":"P","code":"PPLA2"},"region":{"a1":"28","a2":"73461"},"meta":{"pop":"1860","dem":"2986","tz":"America/Bogota"}},{"id":"3674272","name":"Mountain","ascii_name":"Mountain","lat":"13.36667","lon":"-81.36667","country":"CO","lastUpdated":"2016-01-28","type":{"class":"P","code":"PPL"},"region":{"a1":"25","a2":"88564"},"meta":{"pop":"2404","dem":"64","tz":"America/Bogota"}},{"id":"3674280","name":"Motavita","ascii_name":"Motavita","lat":"5.57655","lon":"-73.36696","country":"CO","lastUpdated":"2018-06-08","type":{"class":"P","code":"PPLA2"},"region":{"a1":"36","a2":"15476"},"meta":{"pop":"392","dem":"2906","tz":"America/Bogota"}},{"id":"3674292","name":"Mosquera","ascii_name":"Mosquera","lat":"4.70592","lon":"-74.23021","country":"CO","lastUpdated":"2018-07-04","type":{"class":"P","code":"PPLA2"},"region":{"a1":"33","a2":"25473"},"meta":{"pop":"27005","dem":"2544","tz":"America/Bogota"}},{"id":"3674293","name":"Mosquera","ascii_name":"Mosquera","lat":"2.50861","lon":"-78.4511","country":"CO","lastUpdated":"2018-08-08","type":{"class":"P","code":"PPLA2"},"region":{"a1":"20","a2":"52473"},"meta":{"pop":"3471","dem":"7","tz":"America/Bogota"}},{"id":"3674337","name":"Morroa","ascii_name":"Morroa","lat":"9.33348","lon":"-75.30542","country":"CO","lastUpdated":"2018-09-05","type":{"class":"P","code":"PPLA2"},"region":{"a1":"27","a2":"70473"},"meta":{"pop":"4949","dem":"167","tz":"America/Bogota"}},{"id":"3674393","name":"Morelia","ascii_name":"Morelia","lat":"1.48747","lon":"-75.72581","country":"CO","lastUpdated":"2018-07-04","type":{"class":"P","code":"PPLA2"},"region":{"a1":"08","a2":"18479"},"meta":{"pop":"2257","dem":"263","tz":"America/Bogota"}},{"id":"3674412","name":"Morales","ascii_name":"Morales","lat":"8.2752","lon":"-73.86884","country":"CO","lastUpdated":"2018-07-04","type":{"class":"P","code":"PPLA2"},"region":{"a1":"35","a2":"13473"},"meta":{"pop":"20375","dem":"42","tz":"America/Bogota"}},{"id":"3674453","name":"Montería","ascii_name":"Monteria","lat":"8.74798","lon":"-75.88143","country":"CO","lastUpdated":"2016-01-28","type":{"class":"P","code":"PPLA"},"region":{"a1":"12","a2":"23001"},"meta":{"pop":"272420","dem":"19","tz":"America/Bogota"}},{"id":"3674463","name":"Montenegro","ascii_name":"Montenegro","lat":"4.56639","lon":"-75.75111","country":"CO","lastUpdated":"2018-08-08","type":{"class":"P","code":"PPLA2"},"region":{"a1":"23","a2":"63470"},"meta":{"pop":"36499","dem":"1297","tz":"America/Bogota"}},{"id":"3674470","name":"Montelíbano","ascii_name":"Montelibano","lat":"7.97917","lon":"-75.4202","country":"CO","lastUpdated":"2016-01-28","type":{"class":"P","code":"PPL"},"region":{"a1":"12","a2":"23466"},"meta":{"pop":"85000","dem":"46","tz":"America/Bogota"}},{"id":"3674499","name":"Montecristo","ascii_name":"Montecristo","lat":"8.2971","lon":"-74.4733","country":"CO","lastUpdated":"2018-07-04","type":{"class":"P","code":"PPLA2"},"region":{"a1":"35","a2":"13458"},"meta":{"pop":"5608","dem":"84","tz":"America/Bogota"}},{"id":"3674519","name":"Montebello","ascii_name":"Montebello","lat":"5.94806","lon":"-75.5275","country":"CO","lastUpdated":"2018-06-08","type":{"class":"P","code":"PPLA2"},"region":{"a1":"02","a2":"05467"},"meta":{"pop":"2007","dem":"2395","tz":"America/Bogota"}},{"id":"3674568","name":"Moñitos","ascii_name":"Monitos","lat":"9.2455","lon":"-76.13017","country":"CO","lastUpdated":"2018-07-04","type":{"class":"P","code":"PPLA2"},"region":{"a1":"12","a2":"23500"},"meta":{"pop":"0","dem":"2","tz":"America/Bogota"}},{"id":"3674569","name":"Moñitos","ascii_name":"Monitos","lat":"8.25","lon":"-76.05","country":"CO","lastUpdated":"2018-11-08","type":{"class":"P","code":"PPL"},"region":{"a1":"12","a2":"23807"},"meta":{"pop":"5385","dem":"44","tz":"America/Bogota"}},{"id":"3674572","name":"Moniquirá","ascii_name":"Moniquira","lat":"5.87638","lon":"-73.57284","country":"CO","lastUpdated":"2018-06-08","type":{"class":"P","code":"PPLA2"},"region":{"a1":"36","a2":"15469"},"meta":{"pop":"9785","dem":"1671","tz":"America/Bogota"}},{"id":"3674576","name":"Monguí","ascii_name":"Mongui","lat":"5.72151","lon":"-72.84908","country":"CO","lastUpdated":"2020-06-11","type":{"class":"P","code":"PPLA2"},"region":{"a1":"36","a2":"15466"},"meta":{"pop":"2299","dem":"2929","tz":"America/Bogota"}},{"id":"3674580","name":"Mongua","ascii_name":"Mongua","lat":"5.75084","lon":"-72.80339","country":"CO","lastUpdated":"2018-06-08","type":{"class":"P","code":"PPLA2"},"region":{"a1":"36","a2":"15464"},"meta":{"pop":"2322","dem":"3021","tz":"America/Bogota"}},{"id":"3674597","name":"Mompós","ascii_name":"Mompos","lat":"9.24194","lon":"-74.42667","country":"CO","lastUpdated":"2020-06-11","type":{"class":"P","code":"PPLA2"},"region":{"a1":"35","a2":"13468"},"meta":{"pop":"30861","dem":"19","tz":"America/Bogota"}},{"id":"3674603","name":"Momil","ascii_name":"Momil","lat":"9.23767","lon":"-75.67489","country":"CO","lastUpdated":"2018-07-04","type":{"class":"P","code":"PPLA2"},"region":{"a1":"12","a2":"23464"},"meta":{"pop":"6441","dem":"10","tz":"America/Bogota"}},{"id":"3674618","name":"Molagavita","ascii_name":"Molagavita","lat":"6.67315","lon":"-72.80875","country":"CO","lastUpdated":"2018-09-05","type":{"class":"P","code":"PPLA2"},"region":{"a1":"26","a2":"68468"},"meta":{"pop":"1205","dem":"2173","tz":"America/Bogota"}},{"id":"3674640","name":"Mogotes","ascii_name":"Mogotes","lat":"6.47559","lon":"-72.97046","country":"CO","lastUpdated":"2018-09-05","type":{"class":"P","code":"PPLA2"},"region":{"a1":"26","a2":"68464"},"meta":{"pop":"3438","dem":"1681","tz":"America/Bogota"}},{"id":"3674654","name":"Mocoa","ascii_name":"Mocoa","lat":"1.15284","lon":"-76.65208","country":"CO","lastUpdated":"2015-11-25","type":{"class":"P","code":"PPLA"},"region":{"a1":"22","a2":"86001"},"meta":{"pop":"22035","dem":"612","tz":"America/Bogota"}},{"id":"3674676","name":"Mitú","ascii_name":"Mitu","lat":"1.25778","lon":"-70.23472","country":"CO","lastUpdated":"2017-03-04","type":{"class":"P","code":"PPLA"},"region":{"a1":"30","a2":"97001"},"meta":{"pop":"5917","dem":"174","tz":"America/Bogota"}},{"id":"3674678","name":"Mistrató","ascii_name":"Mistrato","lat":"5.29622","lon":"-75.8839","country":"CO","lastUpdated":"2016-01-28","type":{"class":"P","code":"PPL"},"region":{"a1":"24","a2":"66456"},"meta":{"pop":"6263","dem":"1537","tz":"America/Bogota"}},{"id":"3674702","name":"Miranda","ascii_name":"Miranda","lat":"3.25283","lon":"-76.22924","country":"CO","lastUpdated":"2018-07-04","type":{"class":"P","code":"PPLA2"},"region":{"a1":"09","a2":"19455"},"meta":{"pop":"13223","dem":"1098","tz":"America/Bogota"}},{"id":"3674735","name":"Miraflores","ascii_name":"Miraflores","lat":"5.19608","lon":"-73.14504","country":"CO","lastUpdated":"2018-06-08","type":{"class":"P","code":"PPLA2"},"region":{"a1":"36","a2":"15455"},"meta":{"pop":"2766","dem":"1518","tz":"America/Bogota"}},{"id":"3674740","name":"Miraflores","ascii_name":"Miraflores","lat":"1.33667","lon":"-71.95111","country":"CO","lastUpdated":"2018-07-04","type":{"class":"P","code":"PPLA2"},"region":{"a1":"14","a2":"95200"},"meta":{"pop":"4864","dem":"209","tz":"America/Bogota"}},{"id":"3674784","name":"Milán","ascii_name":"Milan","lat":"1.29034","lon":"-75.50757","country":"CO","lastUpdated":"2018-07-04","type":{"class":"P","code":"PPLA2"},"region":{"a1":"08","a2":"18460"},"meta":{"pop":"2618","dem":"221","tz":"America/Bogota"}},{"id":"3674851","name":"Mercaderes","ascii_name":"Mercaderes","lat":"1.80175","lon":"-77.17032","country":"CO","lastUpdated":"2016-01-28","type":{"class":"P","code":"PPL"},"region":{"a1":"09","a2":"19450"},"meta":{"pop":"4684","dem":"1132","tz":"America/Bogota"}},{"id":"3674885","name":"Melgar","ascii_name":"Melgar","lat":"4.20475","lon":"-74.64075","country":"CO","lastUpdated":"2018-09-05","type":{"class":"P","code":"PPLA2"},"region":{"a1":"28","a2":"73449"},"meta":{"pop":"25980","dem":"325","tz":"America/Bogota"}},{"id":"3674931","name":"Medina","ascii_name":"Medina","lat":"4.51005","lon":"-73.34982","country":"CO","lastUpdated":"2018-07-04","type":{"class":"P","code":"PPLA2"},"region":{"a1":"33","a2":"25438"},"meta":{"pop":"3098","dem":"536","tz":"America/Bogota"}},{"id":"3674962","name":"Medellín","ascii_name":"Medellin","lat":"6.25184","lon":"-75.56359","country":"CO","lastUpdated":"2019-09-05","type":{"class":"P","code":"PPLA"},"region":{"a1":"02","a2":"05001"},"meta":{"pop":"1999979","elv":"1405","dem":"1500","tz":"America/Bogota"}},{"id":"3675118","name":"Matanza","ascii_name":"Matanza","lat":"7.32233","lon":"-73.01516","country":"CO","lastUpdated":"2018-09-05","type":{"class":"P","code":"PPLA2"},"region":{"a1":"26","a2":"68444"},"meta":{"pop":"1669","dem":"1588","tz":"America/Bogota"}},{"id":"3675191","name":"Marulanda","ascii_name":"Marulanda","lat":"5.28393","lon":"-75.26016","country":"CO","lastUpdated":"2018-07-04","type":{"class":"P","code":"PPLA2"},"region":{"a1":"37","a2":"17446"},"meta":{"pop":"1256","dem":"2858","tz":"America/Bogota"}},{"id":"3675212","name":"Marsella","ascii_name":"Marsella","lat":"4.93722","lon":"-75.73778","country":"CO","lastUpdated":"2018-09-05","type":{"class":"P","code":"PPLA2"},"region":{"a1":"24","a2":"66440"},"meta":{"pop":"11158","dem":"1543","tz":"America/Bogota"}},{"id":"3675234","name":"Marquetalia","ascii_name":"Marquetalia","lat":"5.29659","lon":"-75.05496","country":"CO","lastUpdated":"2018-07-04","type":{"class":"P","code":"PPLA2"},"region":{"a1":"37","a2":"17444"},"meta":{"pop":"6224","dem":"1554","tz":"America/Bogota"}},{"id":"3675242","name":"Marmato","ascii_name":"Marmato","lat":"5.47501","lon":"-75.6004","country":"CO","lastUpdated":"2018-07-04","type":{"class":"P","code":"PPLA2"},"region":{"a1":"37","a2":"17442"},"meta":{"pop":"1456","dem":"1327","tz":"America/Bogota"}},{"id":"3675252","name":"San Sebastián de Mariquita","ascii_name":"San Sebastian de Mariquita","lat":"5.19889","lon":"-74.89295","country":"CO","lastUpdated":"2020-06-11","type":{"class":"P","code":"PPLA2"},"region":{"a1":"28","a2":"73443"},"meta":{"pop":"23104","dem":"485","tz":"America/Bogota"}},{"id":"3675255","name":"Maripí","ascii_name":"Maripi","lat":"5.55194","lon":"-74.00861","country":"CO","lastUpdated":"2018-06-08","type":{"class":"P","code":"PPLA2"},"region":{"a1":"36","a2":"15442"},"meta":{"pop":"1143","dem":"1199","tz":"America/Bogota"}},{"id":"3675263","name":"Marinilla","ascii_name":"Marinilla","lat":"6.17358","lon":"-75.33621","country":"CO","lastUpdated":"2018-06-08","type":{"class":"P","code":"PPLA2"},"region":{"a1":"02","a2":"05440"},"meta":{"pop":"24171","dem":"2085","tz":"America/Bogota"}},{"id":"3675287","name":"María la Baja","ascii_name":"Maria la Baja","lat":"9.9832","lon":"-75.30155","country":"CO","lastUpdated":"2018-07-04","type":{"class":"P","code":"PPLA2"},"region":{"a1":"35","a2":"13442"},"meta":{"pop":"23401","dem":"15","tz":"America/Bogota"}},{"id":"3675305","name":"Margarita","ascii_name":"Margarita","lat":"9.15596","lon":"-74.26618","country":"CO","lastUpdated":"2018-07-04","type":{"class":"P","code":"PPLA2"},"region":{"a1":"35","a2":"13440"},"meta":{"pop":"1939","dem":"24","tz":"America/Bogota"}},{"id":"3675409","name":"Manzanares","ascii_name":"Manzanares","lat":"5.25397","lon":"-75.15403","country":"CO","lastUpdated":"2018-07-04","type":{"class":"P","code":"PPLA2"},"region":{"a1":"37","a2":"17541"},"meta":{"pop":"16278","dem":"1867","tz":"America/Bogota"}},{"id":"3675432","name":"Manta","ascii_name":"Manta","lat":"5.00864","lon":"-73.54115","country":"CO","lastUpdated":"2018-07-04","type":{"class":"P","code":"PPLA2"},"region":{"a1":"33","a2":"25436"},"meta":{"pop":"1410","dem":"1920","tz":"America/Bogota"}},{"id":"3675443","name":"Manizales","ascii_name":"Manizales","lat":"5.06889","lon":"-75.51738","country":"CO","lastUpdated":"2016-01-28","type":{"class":"P","code":"PPLA"},"region":{"a1":"37","a2":"17001"},"meta":{"pop":"357814","dem":"2119","tz":"America/Bogota"}},{"id":"3675452","name":"Maní","ascii_name":"Mani","lat":"4.81638","lon":"-72.27946","country":"CO","lastUpdated":"2018-07-04","type":{"class":"P","code":"PPLA2"},"region":{"a1":"32","a2":"85139"},"meta":{"pop":"7031","dem":"178","tz":"America/Bogota"}},{"id":"3675504","name":"Manaure","ascii_name":"Manaure","lat":"11.77505","lon":"-72.44447","country":"CO","lastUpdated":"2018-07-04","type":{"class":"P","code":"PPLA2"},"region":{"a1":"17","a2":"44560"},"meta":{"pop":"9703","dem":"3","tz":"America/Bogota"}},{"id":"3675512","name":"Manatí","ascii_name":"Manati","lat":"10.44589","lon":"-74.95869","country":"CO","lastUpdated":"2018-07-04","type":{"class":"P","code":"PPLA2"},"region":{"a1":"04","a2":"08436"},"meta":{"pop":"14140","dem":"12","tz":"America/Bogota"}},{"id":"3675538","name":"Managrú","ascii_name":"Managru","lat":"5.33653","lon":"-76.72756","country":"CO","lastUpdated":"2018-07-04","type":{"class":"P","code":"PPLA2"},"region":{"a1":"11","a2":"27135"},"meta":{"pop":"0","dem":"48","tz":"America/Bogota"}},{"id":"3675595","name":"Malambo","ascii_name":"Malambo","lat":"10.85953","lon":"-74.77386","country":"CO","lastUpdated":"2018-10-24","type":{"class":"P","code":"PPLA2"},"region":{"a1":"04","a2":"08433"},"meta":{"pop":"101534","dem":"17","tz":"America/Bogota"}},{"id":"3675605","name":"Málaga","ascii_name":"Malaga","lat":"6.69903","lon":"-72.73233","country":"CO","lastUpdated":"2018-09-05","type":{"class":"P","code":"PPLA2"},"region":{"a1":"26","a2":"68432"},"meta":{"pop":"18739","dem":"2210","tz":"America/Bogota"}},{"id":"3675637","name":"Majagual","ascii_name":"Majagual","lat":"8.54119","lon":"-74.62942","country":"CO","lastUpdated":"2018-09-05","type":{"class":"P","code":"PPLA2"},"region":{"a1":"27","a2":"70429"},"meta":{"pop":"11139","dem":"21","tz":"America/Bogota"}},{"id":"3675657","name":"Maicao","ascii_name":"Maicao","lat":"11.37837","lon":"-72.2395","country":"CO","lastUpdated":"2018-07-04","type":{"class":"P","code":"PPLA2"},"region":{"a1":"17","a2":"44430"},"meta":{"pop":"130348","dem":"52","tz":"America/Bogota"}},{"id":"3675668","name":"Mahates","ascii_name":"Mahates","lat":"10.23293","lon":"-75.18985","country":"CO","lastUpdated":"2018-07-04","type":{"class":"P","code":"PPLA2"},"region":{"a1":"35","a2":"13433"},"meta":{"pop":"9224","dem":"10","tz":"America/Bogota"}},{"id":"3675692","name":"Magangué","ascii_name":"Magangue","lat":"9.24202","lon":"-74.75467","country":"CO","lastUpdated":"2020-06-11","type":{"class":"P","code":"PPLA2"},"region":{"a1":"35","a2":"13430"},"meta":{"pop":"100313","dem":"20","tz":"America/Bogota"}},{"id":"3675707","name":"Madrid","ascii_name":"Madrid","lat":"4.73245","lon":"-74.26419","country":"CO","lastUpdated":"2018-07-04","type":{"class":"P","code":"PPLA2"},"region":{"a1":"33","a2":"25430"},"meta":{"pop":"50437","dem":"2547","tz":"America/Bogota"}},{"id":"3675757","name":"Machetá","ascii_name":"Macheta","lat":"5.08154","lon":"-73.60761","country":"CO","lastUpdated":"2018-07-04","type":{"class":"P","code":"PPLA2"},"region":{"a1":"33","a2":"25426"},"meta":{"pop":"1742","dem":"2117","tz":"America/Bogota"}},{"id":"3675768","name":"Maceo","ascii_name":"Maceo","lat":"6.55196","lon":"-74.78741","country":"CO","lastUpdated":"2018-06-08","type":{"class":"P","code":"PPLA2"},"region":{"a1":"02","a2":"05425"},"meta":{"pop":"3109","dem":"951","tz":"America/Bogota"}},{"id":"3675780","name":"Macaravita","ascii_name":"Macaravita","lat":"6.50567","lon":"-72.59299","country":"CO","lastUpdated":"2018-09-05","type":{"class":"P","code":"PPLA2"},"region":{"a1":"26","a2":"68425"},"meta":{"pop":"538","dem":"2291","tz":"America/Bogota"}},{"id":"3675791","name":"Macanal","ascii_name":"Macanal","lat":"4.97214","lon":"-73.31959","country":"CO","lastUpdated":"2018-06-08","type":{"class":"P","code":"PPLA2"},"region":{"a1":"36","a2":"15425"},"meta":{"pop":"734","dem":"1674","tz":"America/Bogota"}},{"id":"3675826","name":"Luruaco","ascii_name":"Luruaco","lat":"10.61712","lon":"-75.15146","country":"CO","lastUpdated":"2016-01-28","type":{"class":"P","code":"PPL"},"region":{"a1":"04","a2":"08421"},"meta":{"pop":"13236","dem":"28","tz":"America/Bogota"}},{"id":"3675857","name":"Lourdes","ascii_name":"Lourdes","lat":"7.94411","lon":"-72.83253","country":"CO","lastUpdated":"2018-08-08","type":{"class":"P","code":"PPLA2"},"region":{"a1":"21","a2":"54418"},"meta":{"pop":"1500","dem":"1426","tz":"America/Bogota"}},{"id":"3675908","name":"Los Santos","ascii_name":"Los Santos","lat":"6.75343","lon":"-73.10473","country":"CO","lastUpdated":"2018-09-05","type":{"class":"P","code":"PPLA2"},"region":{"a1":"26","a2":"68418"},"meta":{"pop":"0","dem":"1327","tz":"America/Bogota"}},{"id":"3675975","name":"Los Patios","ascii_name":"Los Patios","lat":"7.83793","lon":"-72.5037","country":"CO","lastUpdated":"2018-08-08","type":{"class":"P","code":"PPLA2"},"region":{"a1":"21","a2":"54405"},"meta":{"pop":"58661","dem":"395","tz":"America/Bogota"}},{"id":"3675987","name":"Los Palmitos","ascii_name":"Los Palmitos","lat":"9.37899","lon":"-75.26769","country":"CO","lastUpdated":"2018-09-05","type":{"class":"P","code":"PPLA2"},"region":{"a1":"27","a2":"70418"},"meta":{"pop":"14385","dem":"181","tz":"America/Bogota"}},{"id":"3676205","name":"Los Córdobas","ascii_name":"Los Cordobas","lat":"8.89403","lon":"-76.35455","country":"CO","lastUpdated":"2020-06-11","type":{"class":"P","code":"PPLA2"},"region":{"a1":"12","a2":"23419"},"meta":{"pop":"2007","dem":"10","tz":"America/Bogota"}},{"id":"3676397","name":"Lorica","ascii_name":"Lorica","lat":"9.23648","lon":"-75.8135","country":"CO","lastUpdated":"2018-07-04","type":{"class":"P","code":"PPLA2"},"region":{"a1":"12","a2":"23417"},"meta":{"pop":"40605","dem":"10","tz":"America/Bogota"}},{"id":"3676416","name":"López","ascii_name":"Lopez","lat":"2.8454","lon":"-77.24791","country":"CO","lastUpdated":"2020-06-11","type":{"class":"P","code":"PPLA2"},"region":{"a1":"09","a2":"19418"},"meta":{"pop":"0","dem":"36","tz":"America/Bogota"}},{"id":"3676417","name":"López","ascii_name":"Lopez","lat":"2.43333","lon":"-76.8","country":"CO","lastUpdated":"2018-12-05","type":{"class":"P","code":"PPL"},"region":{"a1":"09","a2":"19256"},"meta":{"pop":"3699","dem":"1791","tz":"America/Bogota"}},{"id":"3676477","name":"Lloró","ascii_name":"Lloro","lat":"5.49605","lon":"-76.54945","country":"CO","lastUpdated":"2018-07-04","type":{"class":"P","code":"PPLA2"},"region":{"a1":"11","a2":"27413"},"meta":{"pop":"2651","dem":"90","tz":"America/Bogota"}},{"id":"3676540","name":"Linares","ascii_name":"Linares","lat":"1.35078","lon":"-77.52339","country":"CO","lastUpdated":"2018-08-08","type":{"class":"P","code":"PPLA2"},"region":{"a1":"20","a2":"52411"},"meta":{"pop":"3512","dem":"1475","tz":"America/Bogota"}},{"id":"3676591","name":"Liborina","ascii_name":"Liborina","lat":"6.6779","lon":"-75.81218","country":"CO","lastUpdated":"2018-06-08","type":{"class":"P","code":"PPLA2"},"region":{"a1":"02","a2":"05411"},"meta":{"pop":"2373","dem":"699","tz":"America/Bogota"}},{"id":"3676604","name":"Líbano","ascii_name":"Libano","lat":"4.9218","lon":"-75.06232","country":"CO","lastUpdated":"2018-09-05","type":{"class":"P","code":"PPLA2"},"region":{"a1":"28","a2":"73411"},"meta":{"pop":"28211","dem":"1575","tz":"America/Bogota"}},{"id":"3676623","name":"Leticia","ascii_name":"Leticia","lat":"-4.21528","lon":"-69.94056","country":"CO","lastUpdated":"2016-03-01","type":{"class":"P","code":"PPLA"},"region":{"a1":"01","a2":"91001"},"meta":{"pop":"29666","dem":"82","tz":"America/Bogota"}},{"id":"3676626","name":"Lérida","ascii_name":"Lerida","lat":"4.86242","lon":"-74.90977","country":"CO","lastUpdated":"2018-09-05","type":{"class":"P","code":"PPLA2"},"region":{"a1":"28","a2":"73408"},"meta":{"pop":"20069","dem":"345","tz":"America/Bogota"}},{"id":"3676644","name":"Lenguazaque","ascii_name":"Lenguazaque","lat":"5.30711","lon":"-73.71152","country":"CO","lastUpdated":"2018-07-04","type":{"class":"P","code":"PPLA2"},"region":{"a1":"33","a2":"25407"},"meta":{"pop":"2555","dem":"2577","tz":"America/Bogota"}},{"id":"3676661","name":"Leiva","ascii_name":"Leiva","lat":"1.93497","lon":"-77.30634","country":"CO","lastUpdated":"2018-08-08","type":{"class":"P","code":"PPLA2"},"region":{"a1":"20","a2":"52405"},"meta":{"pop":"3668","dem":"1561","tz":"America/Bogota"}},{"id":"3676674","name":"Lebrija","ascii_name":"Lebrija","lat":"7.11317","lon":"-73.2178","country":"CO","lastUpdated":"2018-09-05","type":{"class":"P","code":"PPLA2"},"region":{"a1":"26","a2":"68406"},"meta":{"pop":"8949","dem":"1016","tz":"America/Bogota"}},{"id":"3676720","name":"La Virginia","ascii_name":"La Virginia","lat":"4.89972","lon":"-75.8825","country":"CO","lastUpdated":"2018-09-05","type":{"class":"P","code":"PPLA2"},"region":{"a1":"24","a2":"66400"},"meta":{"pop":"33835","dem":"901","tz":"America/Bogota"}},{"id":"3676791","name":"La Victoria","ascii_name":"La Victoria","lat":"4.52483","lon":"-76.03921","country":"CO","lastUpdated":"2018-04-18","type":{"class":"P","code":"PPL"},"region":{"a1":"29","a2":"76403"},"meta":{"pop":"11064","dem":"911","tz":"America/Bogota"}},{"id":"3676864","name":"La Vega","ascii_name":"La Vega","lat":"5.00177","lon":"-74.34174","country":"CO","lastUpdated":"2018-04-23","type":{"class":"P","code":"PPL"},"region":{"a1":"33","a2":"25402"},"meta":{"pop":"5706","dem":"1141","tz":"America/Bogota"}},{"id":"3676868","name":"La Vega","ascii_name":"La Vega","lat":"2.00187","lon":"-76.7789","country":"CO","lastUpdated":"2018-07-04","type":{"class":"P","code":"PPLA2"},"region":{"a1":"09","a2":"19397"},"meta":{"pop":"3469","dem":"2182","tz":"America/Bogota"}},{"id":"3676884","name":"La Uvita","ascii_name":"La Uvita","lat":"6.32064","lon":"-72.56281","country":"CO","lastUpdated":"2018-06-08","type":{"class":"P","code":"PPLA2"},"region":{"a1":"36","a2":"15403"},"meta":{"pop":"1708","dem":"2350","tz":"America/Bogota"}},{"id":"3676912","name":"La Unión","ascii_name":"La Union","lat":"8.84965","lon":"-75.27942","country":"CO","lastUpdated":"2018-09-05","type":{"class":"P","code":"PPLA2"},"region":{"a1":"27","a2":"70400"},"meta":{"pop":"4427","dem":"63","tz":"America/Bogota"}},{"id":"3676923","name":"La Unión","ascii_name":"La Union","lat":"5.97431","lon":"-75.36195","country":"CO","lastUpdated":"2018-06-08","type":{"class":"P","code":"PPLA2"},"region":{"a1":"02","a2":"05400"},"meta":{"pop":"8361","dem":"2475","tz":"America/Bogota"}},{"id":"3676928","name":"La Unión","ascii_name":"La Union","lat":"4.53282","lon":"-76.10318","country":"CO","lastUpdated":"2020-06-11","type":{"class":"P","code":"PPLA2"},"region":{"a1":"29","a2":"76400"},"meta":{"pop":"23459","dem":"967","tz":"America/Bogota"}},{"id":"3676934","name":"La Unión","ascii_name":"La Union","lat":"1.6045","lon":"-77.13152","country":"CO","lastUpdated":"2018-08-08","type":{"class":"P","code":"PPLA2"},"region":{"a1":"20","a2":"52399"},"meta":{"pop":"15061","dem":"1721","tz":"America/Bogota"}},{"id":"3677010","name":"La Tebaida","ascii_name":"La Tebaida","lat":"4.45265","lon":"-75.78746","country":"CO","lastUpdated":"2018-04-18","type":{"class":"P","code":"PPLA2"},"region":{"a1":"23","a2":"63401"},"meta":{"pop":"27098","dem":"1191","tz":"America/Bogota"}},{"id":"3677457","name":"La Sierra","ascii_name":"La Sierra","lat":"2.17835","lon":"-76.76265","country":"CO","lastUpdated":"2018-07-04","type":{"class":"P","code":"PPLA2"},"region":{"a1":"09","a2":"19392"},"meta":{"pop":"2129","dem":"1776","tz":"America/Bogota"}},{"id":"3677755","name":"Ánimas","ascii_name":"Animas","lat":"5.27784","lon":"-76.63082","country":"CO","lastUpdated":"2020-06-11","type":{"class":"P","code":"PPLA2"},"region":{"a1":"11","a2":"27810"},"meta":{"pop":"0","dem":"104","tz":"America/Bogota"}},{"id":"3677767","name":"La Salina","ascii_name":"La Salina","lat":"6.13162","lon":"-72.33841","country":"CO","lastUpdated":"2018-07-04","type":{"class":"P","code":"PPLA2"},"region":{"a1":"32","a2":"85136"},"meta":{"pop":"0","dem":"1729","tz":"America/Bogota"}},{"id":"3678000","name":"La Primavera","ascii_name":"La Primavera","lat":"5.49056","lon":"-70.40917","country":"CO","lastUpdated":"2018-10-05","type":{"class":"P","code":"PPLA2"},"region":{"a1":"31","a2":"99524"},"meta":{"pop":"3920","dem":"118","tz":"America/Bogota"}},{"id":"3678083","name":"La Playa","ascii_name":"La Playa","lat":"8.21321","lon":"-73.23827","country":"CO","lastUpdated":"2018-08-08","type":{"class":"P","code":"PPLA2"},"region":{"a1":"21","a2":"54398"},"meta":{"pop":"1215","dem":"1431","tz":"America/Bogota"}},{"id":"3678097","name":"La Plata","ascii_name":"La Plata","lat":"2.39341","lon":"-75.89232","country":"CO","lastUpdated":"2018-08-08","type":{"class":"P","code":"PPLA2"},"region":{"a1":"16","a2":"41396"},"meta":{"pop":"19275","dem":"1020","tz":"America/Bogota"}},{"id":"3678118","name":"La Pintada","ascii_name":"La Pintada","lat":"5.74867","lon":"-75.60626","country":"CO","lastUpdated":"2018-06-08","type":{"class":"P","code":"PPLA2"},"region":{"a1":"02","a2":"05390"},"meta":{"pop":"5342","dem":"602","tz":"America/Bogota"}},{"id":"3678167","name":"La Peña","ascii_name":"La Pena","lat":"5.19847","lon":"-74.39368","country":"CO","lastUpdated":"2018-07-04","type":{"class":"P","code":"PPLA2"},"region":{"a1":"33","a2":"25398"},"meta":{"pop":"1667","dem":"1254","tz":"America/Bogota"}},{"id":"3678186","name":"La Paz","ascii_name":"La Paz","lat":"10.38439","lon":"-73.17332","country":"CO","lastUpdated":"2018-07-04","type":{"class":"P","code":"PPLA2"},"region":{"a1":"10","a2":"20621"},"meta":{"pop":"13249","dem":"152","tz":"America/Bogota"}},{"id":"3678190","name":"La Paz","ascii_name":"La Paz","lat":"6.17848","lon":"-73.58948","country":"CO","lastUpdated":"2018-09-05","type":{"class":"P","code":"PPLA2"},"region":{"a1":"26","a2":"68397"},"meta":{"pop":"1135","dem":"1905","tz":"America/Bogota"}},{"id":"3678278","name":"La Palma","ascii_name":"La Palma","lat":"5.3592","lon":"-74.39047","country":"CO","lastUpdated":"2018-07-04","type":{"class":"P","code":"PPLA2"},"region":{"a1":"33","a2":"25394"},"meta":{"pop":"0","dem":"1447","tz":"America/Bogota"}},{"id":"3678328","name":"Landázuri","ascii_name":"Landazuri","lat":"6.21826","lon":"-73.81121","country":"CO","lastUpdated":"2018-09-05","type":{"class":"P","code":"PPLA2"},"region":{"a1":"26","a2":"68385"},"meta":{"pop":"3483","dem":"945","tz":"America/Bogota"}},{"id":"3678363","name":"La Montañita","ascii_name":"La Montanita","lat":"1.48016","lon":"-75.43664","country":"CO","lastUpdated":"2018-07-04","type":{"class":"P","code":"PPLA2"},"region":{"a1":"08","a2":"18410"},"meta":{"pop":"3305","dem":"243","tz":"America/Bogota"}},{"id":"3678405","name":"La Mesa","ascii_name":"La Mesa","lat":"5.26667","lon":"-73.91667","country":"CO","lastUpdated":"2018-05-09","type":{"class":"P","code":"PPL"},"region":{"a1":"33","a2":"25154"},"meta":{"pop":"26699","dem":"2884","tz":"America/Bogota"}},{"id":"3678415","name":"La Merced","ascii_name":"La Merced","lat":"5.40194","lon":"-75.88472","country":"CO","lastUpdated":"2018-12-05","type":{"class":"P","code":"PPL"},"region":{"a1":"24","a2":"66456"},"meta":{"pop":"3851","dem":"1751","tz":"America/Bogota"}},{"id":"3678575","name":"La Llanada","ascii_name":"La Llanada","lat":"1.4731","lon":"-77.58024","country":"CO","lastUpdated":"2018-08-08","type":{"class":"P","code":"PPLA2"},"region":{"a1":"20","a2":"52385"},"meta":{"pop":"2747","dem":"2314","tz":"America/Bogota"}},{"id":"3678672","name":"La Jagua del Pilar","ascii_name":"La Jagua del Pilar","lat":"10.51061","lon":"-73.07178","country":"CO","lastUpdated":"2018-07-04","type":{"class":"P","code":"PPLA2"},"region":{"a1":"17","a2":"44420"},"meta":{"pop":"894","dem":"203","tz":"America/Bogota"}},{"id":"3678674","name":"La Jagua de Ibirico","ascii_name":"La Jagua de Ibirico","lat":"9.56228","lon":"-73.33405","country":"CO","lastUpdated":"2018-07-04","type":{"class":"P","code":"PPLA2"},"region":{"a1":"10","a2":"20400"},"meta":{"pop":"18555","dem":"140","tz":"America/Bogota"}},{"id":"3678907","name":"La Gloria","ascii_name":"La Gloria","lat":"8.61868","lon":"-73.80265","country":"CO","lastUpdated":"2018-07-04","type":{"class":"P","code":"PPLA2"},"region":{"a1":"10","a2":"20383"},"meta":{"pop":"6810","dem":"36","tz":"America/Bogota"}},{"id":"3679007","name":"La Florida","ascii_name":"La Florida","lat":"1.29851","lon":"-77.40614","country":"CO","lastUpdated":"2018-08-08","type":{"class":"P","code":"PPLA2"},"region":{"a1":"20","a2":"52381"},"meta":{"pop":"2882","dem":"2185","tz":"America/Bogota"}},{"id":"3679065","name":"La Estrella","ascii_name":"La Estrella","lat":"6.15769","lon":"-75.64317","country":"CO","lastUpdated":"2018-06-08","type":{"class":"P","code":"PPLA2"},"region":{"a1":"02","a2":"05380"},"meta":{"pop":"49386","dem":"1765","tz":"America/Bogota"}},{"id":"3679130","name":"La Esperanza","ascii_name":"La Esperanza","lat":"8.21043","lon":"-72.46399","country":"CO","lastUpdated":"2018-12-05","type":{"class":"P","code":"PPL"},"region":{"a1":"21","a2":"54001"},"meta":{"pop":"2718","dem":"81","tz":"America/Bogota"}},{"id":"3679277","name":"La Dorada","ascii_name":"La Dorada","lat":"5.44783","lon":"-74.66311","country":"CO","lastUpdated":"2018-07-04","type":{"class":"P","code":"PPLA2"},"region":{"a1":"37","a2":"17380"},"meta":{"pop":"81950","dem":"176","tz":"America/Bogota"}},{"id":"3679317","name":"La Cumbre","ascii_name":"La Cumbre","lat":"3.64999","lon":"-76.56984","country":"CO","lastUpdated":"2018-09-05","type":{"class":"P","code":"PPLA2"},"region":{"a1":"29","a2":"76377"},"meta":{"pop":"0","dem":"1561","tz":"America/Bogota"}},{"id":"3679379","name":"La Cruz","ascii_name":"La Cruz","lat":"1.60221","lon":"-76.9713","country":"CO","lastUpdated":"2021-09-10","type":{"class":"P","code":"PPLA2"},"region":{"a1":"20","a2":"52378"},"meta":{"pop":"8751","dem":"2404","tz":"America/Bogota"}},{"id":"3679536","name":"La Chamba","ascii_name":"La Chamba","lat":"4.02649","lon":"-74.86844","country":"CO","lastUpdated":"2018-09-01","type":{"class":"P","code":"PPL"},"region":{"a1":"28","a2":"73319"},"meta":{"pop":"7075","dem":"294","tz":"America/Bogota"}},{"id":"3679542","name":"La Celia","ascii_name":"La Celia","lat":"5.00332","lon":"-76.00355","country":"CO","lastUpdated":"2018-09-05","type":{"class":"P","code":"PPLA2"},"region":{"a1":"24","a2":"66687"},"meta":{"pop":"4940","dem":"1392","tz":"America/Bogota"}},{"id":"3679554","name":"La Ceja","ascii_name":"La Ceja","lat":"6.03131","lon":"-75.43333","country":"CO","lastUpdated":"2018-04-20","type":{"class":"P","code":"PPLA2"},"region":{"a1":"02","a2":"05376"},"meta":{"pop":"36584","dem":"2153","tz":"America/Bogota"}},{"id":"3679622","name":"La Capilla","ascii_name":"La Capilla","lat":"5.70493","lon":"-73.47527","country":"CO","lastUpdated":"2018-05-09","type":{"class":"P","code":"PPL"},"region":{"a1":"36","a2":"15407"},"meta":{"pop":"1375","dem":"2576","tz":"America/Bogota"}},{"id":"3679623","name":"La Capilla","ascii_name":"La Capilla","lat":"5.0959","lon":"-73.44407","country":"CO","lastUpdated":"2018-06-08","type":{"class":"P","code":"PPLA2"},"region":{"a1":"36"},"meta":{"pop":"0","dem":"1754","tz":"America/Bogota"}},{"id":"3679660","name":"La Calera","ascii_name":"La Calera","lat":"4.72069","lon":"-73.96926","country":"CO","lastUpdated":"2018-07-04","type":{"class":"P","code":"PPLA2"},"region":{"a1":"33","a2":"25377"},"meta":{"pop":"10175","dem":"2690","tz":"America/Bogota"}},{"id":"3679716","name":"Labranzagrande","ascii_name":"Labranzagrande","lat":"5.56223","lon":"-72.57499","country":"CO","lastUpdated":"2018-06-08","type":{"class":"P","code":"PPLA2"},"region":{"a1":"36","a2":"15377"},"meta":{"pop":"902","dem":"1128","tz":"America/Bogota"}},{"id":"3679776","name":"La Belleza","ascii_name":"La Belleza","lat":"5.86371","lon":"-73.96167","country":"CO","lastUpdated":"2018-09-05","type":{"class":"P","code":"PPLA2"},"region":{"a1":"26","a2":"68377"},"meta":{"pop":"1649","dem":"2240","tz":"America/Bogota"}},{"id":"3679852","name":"La Argentina","ascii_name":"La Argentina","lat":"2.19762","lon":"-75.9799","country":"CO","lastUpdated":"2018-08-15","type":{"class":"P","code":"PPLA2"},"region":{"a1":"16","a2":"41378"},"meta":{"pop":"4800","dem":"1541","tz":"America/Bogota"}},{"id":"3680090","name":"Juradó","ascii_name":"Jurado","lat":"7.10421","lon":"-77.762","country":"CO","lastUpdated":"2015-12-04","type":{"class":"P","code":"PPL"},"region":{"a1":"11","a2":"27372"},"meta":{"pop":"2351","dem":"6","tz":"America/Bogota"}},{"id":"3680112","name":"Junín","ascii_name":"Junin","lat":"4.78333","lon":"-75.01667","country":"CO","lastUpdated":"2018-08-31","type":{"class":"P","code":"PPL"},"region":{"a1":"28","a2":"73861"},"meta":{"pop":"11158","dem":"1235","tz":"America/Bogota"}},{"id":"3680113","name":"Junín","ascii_name":"Junin","lat":"4.79027","lon":"-73.66011","country":"CO","lastUpdated":"2020-06-11","type":{"class":"P","code":"PPLA2"},"region":{"a1":"33","a2":"25372"},"meta":{"pop":"1499","dem":"2376","tz":"America/Bogota"}},{"id":"3680176","name":"Juan de Acosta","ascii_name":"Juan de Acosta","lat":"10.8293","lon":"-75.03346","country":"CO","lastUpdated":"2018-07-04","type":{"class":"P","code":"PPLA2"},"region":{"a1":"04","a2":"08372"},"meta":{"pop":"8655","dem":"51","tz":"America/Bogota"}},{"id":"3680235","name":"Jordán","ascii_name":"Jordan","lat":"6.733","lon":"-73.09588","country":"CO","lastUpdated":"2020-06-11","type":{"class":"P","code":"PPLA2"},"region":{"a1":"26","a2":"68370"},"meta":{"pop":"112","dem":"438","tz":"America/Bogota"}},{"id":"3680297","name":"Jesús María","ascii_name":"Jesus Maria","lat":"5.87715","lon":"-73.78097","country":"CO","lastUpdated":"2018-09-05","type":{"class":"P","code":"PPLA2"},"region":{"a1":"26","a2":"68368"},"meta":{"pop":"823","dem":"1845","tz":"America/Bogota"}},{"id":"3680308","name":"Jerusalén","ascii_name":"Jerusalen","lat":"4.56309","lon":"-74.69519","country":"CO","lastUpdated":"2020-06-11","type":{"class":"P","code":"PPLA2"},"region":{"a1":"33","a2":"25368"},"meta":{"pop":"697","dem":"296","tz":"America/Bogota"}},{"id":"3680316","name":"Jericó","ascii_name":"Jerico","lat":"6.14592","lon":"-72.5708","country":"CO","lastUpdated":"2018-06-08","type":{"class":"P","code":"PPLA2"},"region":{"a1":"36","a2":"15368"},"meta":{"pop":"865","dem":"3075","tz":"America/Bogota"}},{"id":"3680317","name":"Jericó","ascii_name":"Jerico","lat":"5.79211","lon":"-75.78601","country":"CO","lastUpdated":"2018-06-08","type":{"class":"P","code":"PPLA2"},"region":{"a1":"02","a2":"05368"},"meta":{"pop":"7750","dem":"1987","tz":"America/Bogota"}},{"id":"3680335","name":"Jenesano","ascii_name":"Jenesano","lat":"5.38541","lon":"-73.36364","country":"CO","lastUpdated":"2018-06-08","type":{"class":"P","code":"PPLA2"},"region":{"a1":"36","a2":"15367"},"meta":{"pop":"1200","dem":"2072","tz":"America/Bogota"}},{"id":"3680366","name":"Jardín","ascii_name":"Jardin","lat":"5.59902","lon":"-75.81976","country":"CO","lastUpdated":"2018-06-08","type":{"class":"P","code":"PPLA2"},"region":{"a1":"02","a2":"05364"},"meta":{"pop":"7747","dem":"1768","tz":"America/Bogota"}},{"id":"3680387","name":"Jamundí","ascii_name":"Jamundi","lat":"3.26074","lon":"-76.53499","country":"CO","lastUpdated":"2020-06-11","type":{"class":"P","code":"PPLA2"},"region":{"a1":"29","a2":"76364"},"meta":{"pop":"44833","dem":"972","tz":"America/Bogota"}},{"id":"3680393","name":"Jambaló","ascii_name":"Jambalo","lat":"2.77762","lon":"-76.32444","country":"CO","lastUpdated":"2020-06-11","type":{"class":"P","code":"PPLA2"},"region":{"a1":"09","a2":"19364"},"meta":{"pop":"1972","dem":"2318","tz":"America/Bogota"}},{"id":"3680426","name":"Iza","ascii_name":"Iza","lat":"5.61203","lon":"-72.9793","country":"CO","lastUpdated":"2018-06-08","type":{"class":"P","code":"PPLA2"},"region":{"a1":"36","a2":"15362"},"meta":{"pop":"748","dem":"2531","tz":"America/Bogota"}},{"id":"3680434","name":"Ituango","ascii_name":"Ituango","lat":"7.17117","lon":"-75.76404","country":"CO","lastUpdated":"2018-06-08","type":{"class":"P","code":"PPLA2"},"region":{"a1":"02","a2":"05361"},"meta":{"pop":"10769","dem":"1623","tz":"America/Bogota"}},{"id":"3680450","name":"Itagüí","ascii_name":"Itaguei","lat":"6.18461","lon":"-75.59913","country":"CO","lastUpdated":"2018-06-08","type":{"class":"P","code":"PPLA2"},"region":{"a1":"02","a2":"05360"},"meta":{"pop":"281853","dem":"1538","tz":"America/Bogota"}},{"id":"3680453","name":"Istmina","ascii_name":"Istmina","lat":"5.16054","lon":"-76.68397","country":"CO","lastUpdated":"2018-07-04","type":{"class":"P","code":"PPLA2"},"region":{"a1":"11","a2":"27361"},"meta":{"pop":"13788","dem":"55","tz":"America/Bogota"}},{"id":"3680491","name":"Iscuandé","ascii_name":"Iscuande","lat":"2.45065","lon":"-77.97998","country":"CO","lastUpdated":"2018-08-08","type":{"class":"P","code":"PPLA2"},"region":{"a1":"20","a2":"52696"},"meta":{"pop":"4875","dem":"5","tz":"America/Bogota"}},{"id":"3680531","name":"Íquira","ascii_name":"Iquira","lat":"2.64867","lon":"-75.63457","country":"CO","lastUpdated":"2018-08-08","type":{"class":"P","code":"PPLA2"},"region":{"a1":"16","a2":"41357"},"meta":{"pop":"3942","dem":"1106","tz":"America/Bogota"}},{"id":"3680539","name":"Ipiales","ascii_name":"Ipiales","lat":"0.82501","lon":"-77.63966","country":"CO","lastUpdated":"2019-09-05","type":{"class":"P","code":"PPLA2"},"region":{"a1":"20","a2":"52356"},"meta":{"pop":"77729","dem":"2904","tz":"America/Bogota"}},{"id":"3680554","name":"Inzá","ascii_name":"Inza","lat":"2.55452","lon":"-76.06722","country":"CO","lastUpdated":"2018-07-04","type":{"class":"P","code":"PPLA2"},"region":{"a1":"09","a2":"19355"},"meta":{"pop":"2972","dem":"1712","tz":"America/Bogota"}},{"id":"3680601","name":"Imués","ascii_name":"Imues","lat":"1.05516","lon":"-77.49669","country":"CO","lastUpdated":"2018-08-08","type":{"class":"P","code":"PPLA2"},"region":{"a1":"20","a2":"52354"},"meta":{"pop":"1736","dem":"2576","tz":"America/Bogota"}},{"id":"3680616","name":"Iles","ascii_name":"Iles","lat":"0.9704","lon":"-77.52146","country":"CO","lastUpdated":"2018-08-08","type":{"class":"P","code":"PPLA2"},"region":{"a1":"20","a2":"52352"},"meta":{"pop":"1879","dem":"2986","tz":"America/Bogota"}},{"id":"3680641","name":"Icononzo","ascii_name":"Icononzo","lat":"4.17698","lon":"-74.53254","country":"CO","lastUpdated":"2018-09-05","type":{"class":"P","code":"PPLA2"},"region":{"a1":"28","a2":"73352"},"meta":{"pop":"3540","dem":"1308","tz":"America/Bogota"}},{"id":"3680656","name":"Ibagué","ascii_name":"Ibague","lat":"4.43889","lon":"-75.23222","country":"CO","lastUpdated":"2019-09-05","type":{"class":"P","code":"PPLA"},"region":{"a1":"28","a2":"73001"},"meta":{"pop":"421685","dem":"1229","tz":"America/Bogota"}},{"id":"3680840","name":"Honda","ascii_name":"Honda","lat":"5.20856","lon":"-74.73584","country":"CO","lastUpdated":"2018-09-05","type":{"class":"P","code":"PPLA2"},"region":{"a1":"28","a2":"73349"},"meta":{"pop":"28158","dem":"200","tz":"America/Bogota"}},{"id":"3680854","name":"Hobo","ascii_name":"Hobo","lat":"2.58333","lon":"-75.45","country":"CO","lastUpdated":"2018-08-08","type":{"class":"P","code":"PPLA2"},"region":{"a1":"16","a2":"41349"},"meta":{"pop":"4444","dem":"603","tz":"America/Bogota"}},{"id":"3680857","name":"Hispania","ascii_name":"Hispania","lat":"5.79925","lon":"-75.90718","country":"CO","lastUpdated":"2018-06-08","type":{"class":"P","code":"PPLA2"},"region":{"a1":"02","a2":"05353"},"meta":{"pop":"2468","dem":"978","tz":"America/Bogota"}},{"id":"3680880","name":"Herveo","ascii_name":"Herveo","lat":"5.08004","lon":"-75.17556","country":"CO","lastUpdated":"2018-09-05","type":{"class":"P","code":"PPLA2"},"region":{"a1":"28","a2":"73347"},"meta":{"pop":"3490","dem":"2320","tz":"America/Bogota"}},{"id":"3680886","name":"Herrán","ascii_name":"Herran","lat":"7.50611","lon":"-72.48332","country":"CO","lastUpdated":"2018-08-08","type":{"class":"P","code":"PPLA2"},"region":{"a1":"21","a2":"54347"},"meta":{"pop":"1648","dem":"1960","tz":"America/Bogota"}},{"id":"3680902","name":"Heliconia","ascii_name":"Heliconia","lat":"6.20831","lon":"-75.73565","country":"CO","lastUpdated":"2016-01-28","type":{"class":"P","code":"PPL"},"region":{"a1":"02","a2":"05347"},"meta":{"pop":"2403","dem":"1387","tz":"America/Bogota"}},{"id":"3681008","name":"Municipio Hato Corozal","ascii_name":"Municipio Hato Corozal","lat":"6.15676","lon":"-71.76372","country":"CO","lastUpdated":"2018-04-22","type":{"class":"P","code":"PPL"},"region":{"a1":"32","a2":"85125"},"meta":{"pop":"2640","dem":"256","tz":"America/Bogota"}},{"id":"3681025","name":"Hato","ascii_name":"Hato","lat":"6.54302","lon":"-73.30826","country":"CO","lastUpdated":"2018-09-05","type":{"class":"P","code":"PPLA2"},"region":{"a1":"26","a2":"68344"},"meta":{"pop":"600","dem":"1347","tz":"America/Bogota"}},{"id":"3681029","name":"Hatillo de Loba","ascii_name":"Hatillo de Loba","lat":"8.95635","lon":"-74.07819","country":"CO","lastUpdated":"2018-07-04","type":{"class":"P","code":"PPLA2"},"region":{"a1":"35","a2":"13300"},"meta":{"pop":"3639","dem":"28","tz":"America/Bogota"}},{"id":"3681168","name":"Hacarí","ascii_name":"Hacari","lat":"8.32333","lon":"-73.14889","country":"CO","lastUpdated":"2020-06-11","type":{"class":"P","code":"PPLA2"},"region":{"a1":"21","a2":"54344"},"meta":{"pop":"1502","dem":"1247","tz":"America/Bogota"}},{"id":"3681175","name":"Gutiérrez","ascii_name":"Gutierrez","lat":"4.25472","lon":"-74.0025","country":"CO","lastUpdated":"2018-07-04","type":{"class":"P","code":"PPLA2"},"region":{"a1":"33","a2":"25339"},"meta":{"pop":"772","dem":"2295","tz":"America/Bogota"}},{"id":"3681222","name":"Güicán","ascii_name":"Gueican","lat":"6.46554","lon":"-72.41539","country":"CO","lastUpdated":"2018-06-08","type":{"class":"P","code":"PPLA2"},"region":{"a1":"36","a2":"15332"},"meta":{"pop":"2101","dem":"2820","tz":"America/Bogota"}},{"id":"3681234","name":"Güepsa","ascii_name":"Gueepsa","lat":"6.02505","lon":"-73.57313","country":"CO","lastUpdated":"2018-09-05","type":{"class":"P","code":"PPLA2"},"region":{"a1":"26","a2":"68327"},"meta":{"pop":"2471","dem":"1526","tz":"America/Bogota"}},{"id":"3681255","name":"Guayatá","ascii_name":"Guayata","lat":"4.96417","lon":"-73.4875","country":"CO","lastUpdated":"2018-06-08","type":{"class":"P","code":"PPLA2"},"region":{"a1":"36","a2":"15325"},"meta":{"pop":"2857","dem":"1654","tz":"America/Bogota"}},{"id":"3681303","name":"Guayabetal","ascii_name":"Guayabetal","lat":"4.21472","lon":"-73.81719","country":"CO","lastUpdated":"2018-07-04","type":{"class":"P","code":"PPLA2"},"region":{"a1":"33","a2":"25335"},"meta":{"pop":"2017","dem":"1087","tz":"America/Bogota"}},{"id":"3681306","name":"Guayabal de Síquima","ascii_name":"Guayabal de Siquima","lat":"4.87739","lon":"-74.46744","country":"CO","lastUpdated":"2020-06-11","type":{"class":"P","code":"PPLA2"},"region":{"a1":"33","a2":"25328"},"meta":{"pop":"1051","dem":"1604","tz":"America/Bogota"}},{"id":"3681346","name":"Guavatá","ascii_name":"Guavata","lat":"5.95502","lon":"-73.70018","country":"CO","lastUpdated":"2018-09-05","type":{"class":"P","code":"PPLA2"},"region":{"a1":"26","a2":"68324"},"meta":{"pop":"943","dem":"1978","tz":"America/Bogota"}},{"id":"3681353","name":"Guática","ascii_name":"Guatica","lat":"5.31569","lon":"-75.79826","country":"CO","lastUpdated":"2018-09-05","type":{"class":"P","code":"PPLA2"},"region":{"a1":"24","a2":"66318"},"meta":{"pop":"4368","dem":"1916","tz":"America/Bogota"}},{"id":"3681356","name":"Guateque","ascii_name":"Guateque","lat":"5.00619","lon":"-73.47274","country":"CO","lastUpdated":"2018-06-08","type":{"class":"P","code":"PPLA2"},"region":{"a1":"36","a2":"15322"},"meta":{"pop":"7069","dem":"1801","tz":"America/Bogota"}},{"id":"3681360","name":"Guatavita","ascii_name":"Guatavita","lat":"4.93658","lon":"-73.83314","country":"CO","lastUpdated":"2018-07-04","type":{"class":"P","code":"PPLA2"},"region":{"a1":"33","a2":"25326"},"meta":{"pop":"1920","dem":"2700","tz":"America/Bogota"}},{"id":"3681364","name":"Guataquí","ascii_name":"Guataqui","lat":"4.51573","lon":"-74.78935","country":"CO","lastUpdated":"2018-07-04","type":{"class":"P","code":"PPLA2"},"region":{"a1":"33","a2":"25324"},"meta":{"pop":"1139","dem":"255","tz":"America/Bogota"}},{"id":"3681368","name":"Guatapé","ascii_name":"Guatape","lat":"6.23429","lon":"-75.16335","country":"CO","lastUpdated":"2016-01-28","type":{"class":"P","code":"PPL"},"region":{"a1":"02","a2":"05321"},"meta":{"pop":"5389","dem":"1889","tz":"America/Bogota"}},{"id":"3681404","name":"Guasca","ascii_name":"Guasca","lat":"4.86601","lon":"-73.87748","country":"CO","lastUpdated":"2018-07-04","type":{"class":"P","code":"PPLA2"},"region":{"a1":"33","a2":"25322"},"meta":{"pop":"3540","dem":"2681","tz":"America/Bogota"}},{"id":"3681429","name":"Guarne","ascii_name":"Guarne","lat":"6.28046","lon":"-75.44354","country":"CO","lastUpdated":"2018-06-08","type":{"class":"P","code":"PPLA2"},"region":{"a1":"02","a2":"05318"},"meta":{"pop":"14270","dem":"2141","tz":"America/Bogota"}},{"id":"3681474","name":"Guaranda","ascii_name":"Guaranda","lat":"8.46746","lon":"-74.53617","country":"CO","lastUpdated":"2021-03-14","type":{"class":"P","code":"PPLA2"},"region":{"a1":"27","a2":"70265"},"meta":{"pop":"0","dem":"22","tz":"America/Bogota"}},{"id":"3681491","name":"Guapotá","ascii_name":"Guapota","lat":"6.30798","lon":"-73.3202","country":"CO","lastUpdated":"2018-09-05","type":{"class":"P","code":"PPLA2"},"region":{"a1":"26","a2":"68322"},"meta":{"pop":"564","dem":"1480","tz":"America/Bogota"}},{"id":"3681505","name":"Guapí","ascii_name":"Guapi","lat":"2.57082","lon":"-77.88542","country":"CO","lastUpdated":"2020-06-11","type":{"class":"P","code":"PPLA2"},"region":{"a1":"09","a2":"19318"},"meta":{"pop":"13853","dem":"3","tz":"America/Bogota"}},{"id":"3681563","name":"Guamo","ascii_name":"Guamo","lat":"4.03078","lon":"-74.9701","country":"CO","lastUpdated":"2018-09-05","type":{"class":"P","code":"PPLA2"},"region":{"a1":"28","a2":"73319"},"meta":{"pop":"14881","dem":"323","tz":"America/Bogota"}},{"id":"3681596","name":"Guamal","ascii_name":"Guamal","lat":"9.14334","lon":"-74.22384","country":"CO","lastUpdated":"2018-08-08","type":{"class":"P","code":"PPLA2"},"region":{"a1":"38","a2":"47318"},"meta":{"pop":"9016","dem":"28","tz":"America/Bogota"}},{"id":"3681605","name":"Guamal","ascii_name":"Guamal","lat":"3.88043","lon":"-73.76566","country":"CO","lastUpdated":"2018-08-08","type":{"class":"P","code":"PPLA2"},"region":{"a1":"19","a2":"50318"},"meta":{"pop":"5026","dem":"522","tz":"America/Bogota"}},{"id":"3681619","name":"Gualmatán","ascii_name":"Gualmatan","lat":"0.91992","lon":"-77.56738","country":"CO","lastUpdated":"2018-08-08","type":{"class":"P","code":"PPLA2"},"region":{"a1":"20","a2":"52323"},"meta":{"pop":"2510","dem":"2918","tz":"America/Bogota"}},{"id":"3681644","name":"Guaitarilla","ascii_name":"Guaitarilla","lat":"1.13103","lon":"-77.54815","country":"CO","lastUpdated":"2018-08-08","type":{"class":"P","code":"PPLA2"},"region":{"a1":"20","a2":"52320"},"meta":{"pop":"6280","dem":"2627","tz":"America/Bogota"}},{"id":"3681702","name":"Guaduas","ascii_name":"Guaduas","lat":"5.06692","lon":"-74.59499","country":"CO","lastUpdated":"2018-07-04","type":{"class":"P","code":"PPLA2"},"region":{"a1":"33","a2":"25320"},"meta":{"pop":"14392","dem":"993","tz":"America/Bogota"}},{"id":"3681731","name":"Guadalupe","ascii_name":"Guadalupe","lat":"6.81449","lon":"-75.24063","country":"CO","lastUpdated":"2018-06-08","type":{"class":"P","code":"PPLA2"},"region":{"a1":"02","a2":"05315"},"meta":{"pop":"1734","dem":"1851","tz":"America/Bogota"}},{"id":"3681732","name":"Guadalupe","ascii_name":"Guadalupe","lat":"6.2464","lon":"-73.41833","country":"CO","lastUpdated":"2018-09-05","type":{"class":"P","code":"PPLA2"},"region":{"a1":"26","a2":"68320"},"meta":{"pop":"2181","dem":"1444","tz":"America/Bogota"}},{"id":"3681733","name":"Guadalupe","ascii_name":"Guadalupe","lat":"2.0248","lon":"-75.75589","country":"CO","lastUpdated":"2018-08-08","type":{"class":"P","code":"PPLA2"},"region":{"a1":"16","a2":"41319"},"meta":{"pop":"4760","dem":"889","tz":"America/Bogota"}},{"id":"3681756","name":"Guachucal","ascii_name":"Guachucal","lat":"0.96093","lon":"-77.73161","country":"CO","lastUpdated":"2018-08-08","type":{"class":"P","code":"PPLA2"},"region":{"a1":"20","a2":"52317"},"meta":{"pop":"4014","dem":"3091","tz":"America/Bogota"}},{"id":"3681767","name":"Guachetá","ascii_name":"Guacheta","lat":"5.38425","lon":"-73.68617","country":"CO","lastUpdated":"2018-07-04","type":{"class":"P","code":"PPLA2"},"region":{"a1":"33","a2":"25317"},"meta":{"pop":"4245","dem":"2684","tz":"America/Bogota"}},{"id":"3681769","name":"Guachené","ascii_name":"Guachene","lat":"3.13333","lon":"-76.3927","country":"CO","lastUpdated":"2020-06-11","type":{"class":"P","code":"PPLA2"},"region":{"a1":"09","a2":"19300"},"meta":{"pop":"0","dem":"997","tz":"America/Bogota"}},{"id":"3681770","name":"Guachavés","ascii_name":"Guachaves","lat":"1.2224","lon":"-77.67766","country":"CO","lastUpdated":"2020-06-11","type":{"class":"P","code":"PPLA2"},"region":{"a1":"20","a2":"52699"},"meta":{"pop":"0","dem":"2608","tz":"America/Bogota"}},{"id":"3681797","name":"Guacarí","ascii_name":"Guacari","lat":"3.76383","lon":"-76.33292","country":"CO","lastUpdated":"2020-06-11","type":{"class":"P","code":"PPLA2"},"region":{"a1":"29","a2":"76318"},"meta":{"pop":"19637","dem":"976","tz":"America/Bogota"}},{"id":"3681812","name":"Guacamayas","ascii_name":"Guacamayas","lat":"6.46243","lon":"-72.50465","country":"CO","lastUpdated":"2018-06-08","type":{"class":"P","code":"PPLA2"},"region":{"a1":"36","a2":"15317"},"meta":{"pop":"772","dem":"2151","tz":"America/Bogota"}},{"id":"3681832","name":"Guaca","ascii_name":"Guaca","lat":"6.87621","lon":"-72.85594","country":"CO","lastUpdated":"2018-09-05","type":{"class":"P","code":"PPLA2"},"region":{"a1":"26","a2":"68318"},"meta":{"pop":"1637","dem":"2305","tz":"America/Bogota"}},{"id":"3681952","name":"Granada","ascii_name":"Granada","lat":"6.14353","lon":"-75.18532","country":"CO","lastUpdated":"2018-06-08","type":{"class":"P","code":"PPLA2"},"region":{"a1":"02","a2":"05313"},"meta":{"pop":"5661","dem":"2081","tz":"America/Bogota"}},{"id":"3681953","name":"Granada","ascii_name":"Granada","lat":"5.06667","lon":"-74.56667","country":"CO","lastUpdated":"2018-05-09","type":{"class":"P","code":"PPL"},"region":{"a1":"33","a2":"25320"},"meta":{"pop":"1100","dem":"1584","tz":"America/Bogota"}},{"id":"3681955","name":"Granada","ascii_name":"Granada","lat":"4.51997","lon":"-74.35261","country":"CO","lastUpdated":"2018-07-04","type":{"class":"P","code":"PPLA2"},"region":{"a1":"33","a2":"25312"},"meta":{"pop":"0","dem":"2279","tz":"America/Bogota"}},{"id":"3681957","name":"Granada","ascii_name":"Granada","lat":"3.54625","lon":"-73.70687","country":"CO","lastUpdated":"2018-08-08","type":{"class":"P","code":"PPLA2"},"region":{"a1":"19","a2":"50313"},"meta":{"pop":"32365","dem":"336","tz":"America/Bogota"}},{"id":"3681966","name":"Gramalote","ascii_name":"Gramalote","lat":"7.88752","lon":"-72.79749","country":"CO","lastUpdated":"2018-08-08","type":{"class":"P","code":"PPLA2"},"region":{"a1":"21","a2":"54313"},"meta":{"pop":"3577","dem":"1038","tz":"America/Bogota"}},{"id":"3681990","name":"González","ascii_name":"Gonzalez","lat":"8.38944","lon":"-73.37989","country":"CO","lastUpdated":"2018-07-04","type":{"class":"P","code":"PPLA2"},"region":{"a1":"10","a2":"20310"},"meta":{"pop":"5634","dem":"1309","tz":"America/Bogota"}},{"id":"3681997","name":"Gómez Plata","ascii_name":"Gomez Plata","lat":"6.68178","lon":"-75.21907","country":"CO","lastUpdated":"2018-06-08","type":{"class":"P","code":"PPLA2"},"region":{"a1":"02","a2":"05310"},"meta":{"pop":"4097","dem":"1815","tz":"America/Bogota"}},{"id":"3682018","name":"Girón","ascii_name":"Giron","lat":"7.0682","lon":"-73.16981","country":"CO","lastUpdated":"2018-09-05","type":{"class":"P","code":"PPLA2"},"region":{"a1":"26","a2":"68307"},"meta":{"pop":"108466","dem":"706","tz":"America/Bogota"}},{"id":"3682022","name":"Girardota","ascii_name":"Girardota","lat":"6.37747","lon":"-75.44883","country":"CO","lastUpdated":"2018-06-08","type":{"class":"P","code":"PPLA2"},"region":{"a1":"02","a2":"05308"},"meta":{"pop":"0","dem":"1418","tz":"America/Bogota"}},{"id":"3682028","name":"Girardot City","ascii_name":"Girardot City","lat":"4.30079","lon":"-74.80754","country":"CO","lastUpdated":"2018-04-23","type":{"class":"P","code":"PPL"},"region":{"a1":"33","a2":"25307"},"meta":{"pop":"130289","dem":"287","tz":"America/Bogota"}},{"id":"3682030","name":"Giraldo","ascii_name":"Giraldo","lat":"6.68013","lon":"-75.95259","country":"CO","lastUpdated":"2018-06-08","type":{"class":"P","code":"PPLA2"},"region":{"a1":"02","a2":"05306"},"meta":{"pop":"1464","dem":"1955","tz":"America/Bogota"}},{"id":"3682039","name":"Ginebra","ascii_name":"Ginebra","lat":"3.72461","lon":"-76.26675","country":"CO","lastUpdated":"2018-09-05","type":{"class":"P","code":"PPLA2"},"region":{"a1":"29","a2":"76306"},"meta":{"pop":"6088","dem":"1036","tz":"America/Bogota"}},{"id":"3682047","name":"Gigante","ascii_name":"Gigante","lat":"2.38678","lon":"-75.54736","country":"CO","lastUpdated":"2018-04-19","type":{"class":"P","code":"PPL"},"region":{"a1":"16","a2":"41306"},"meta":{"pop":"9829","dem":"808","tz":"America/Bogota"}},{"id":"3682068","name":"Génova","ascii_name":"Genova","lat":"4.31667","lon":"-75.76667","country":"CO","lastUpdated":"2018-05-09","type":{"class":"P","code":"PPL"},"region":{"a1":"23","a2":"63548"},"meta":{"pop":"7140","dem":"1228","tz":"America/Bogota"}},{"id":"3682070","name":"Génova","ascii_name":"Genova","lat":"1.64367","lon":"-77.01924","country":"CO","lastUpdated":"2018-08-08","type":{"class":"P","code":"PPLA2"},"region":{"a1":"20"},"meta":{"pop":"1348","dem":"1931","tz":"America/Bogota"}},{"id":"3682108","name":"Garzón","ascii_name":"Garzon","lat":"2.19593","lon":"-75.62777","country":"CO","lastUpdated":"2018-08-08","type":{"class":"P","code":"PPLA2"},"region":{"a1":"16","a2":"41298"},"meta":{"pop":"29451","dem":"834","tz":"America/Bogota"}},{"id":"3682160","name":"Garagoa","ascii_name":"Garagoa","lat":"5.08236","lon":"-73.36334","country":"CO","lastUpdated":"2018-06-08","type":{"class":"P","code":"PPLA2"},"region":{"a1":"36","a2":"15299"},"meta":{"pop":"11102","dem":"1685","tz":"America/Bogota"}},{"id":"3682172","name":"Gámeza","ascii_name":"Gameza","lat":"5.80263","lon":"-72.80586","country":"CO","lastUpdated":"2018-06-08","type":{"class":"P","code":"PPLA2"},"region":{"a1":"36","a2":"15296"},"meta":{"pop":"1690","dem":"2742","tz":"America/Bogota"}},{"id":"3682178","name":"Gámbita","ascii_name":"Gambita","lat":"5.94597","lon":"-73.34435","country":"CO","lastUpdated":"2018-09-05","type":{"class":"P","code":"PPLA2"},"region":{"a1":"26","a2":"68298"},"meta":{"pop":"742","dem":"1891","tz":"America/Bogota"}},{"id":"3682182","name":"Gamarra","ascii_name":"Gamarra","lat":"8.32279","lon":"-73.74268","country":"CO","lastUpdated":"2018-07-04","type":{"class":"P","code":"PPLA2"},"region":{"a1":"10","a2":"20295"},"meta":{"pop":"7327","dem":"42","tz":"America/Bogota"}},{"id":"3682185","name":"Gama","ascii_name":"Gama","lat":"4.76288","lon":"-73.61091","country":"CO","lastUpdated":"2018-07-04","type":{"class":"P","code":"PPLA2"},"region":{"a1":"33","a2":"25299"},"meta":{"pop":"584","dem":"2171","tz":"America/Bogota"}},{"id":"3682232","name":"Nueva Granada","ascii_name":"Nueva Granada","lat":"9.16095","lon":"-75.04811","country":"CO","lastUpdated":"2021-06-14","type":{"class":"P","code":"PPLA2"},"region":{"a1":"27","a2":"70235"},"meta":{"pop":"9459","dem":"92","tz":"America/Bogota"}},{"id":"3682238","name":"Galapa","ascii_name":"Galapa","lat":"10.89686","lon":"-74.886","country":"CO","lastUpdated":"2018-07-04","type":{"class":"P","code":"PPLA2"},"region":{"a1":"04","a2":"08296"},"meta":{"pop":"19732","dem":"92","tz":"America/Bogota"}},{"id":"3682243","name":"Galán","ascii_name":"Galan","lat":"6.63781","lon":"-73.28878","country":"CO","lastUpdated":"2018-09-05","type":{"class":"P","code":"PPLA2"},"region":{"a1":"26","a2":"68296"},"meta":{"pop":"1122","dem":"938","tz":"America/Bogota"}},{"id":"3682245","name":"Gaitania","ascii_name":"Gaitania","lat":"3.15","lon":"-75.81667","country":"CO","lastUpdated":"2018-09-01","type":{"class":"P","code":"PPL"},"region":{"a1":"28","a2":"73555"},"meta":{"pop":"11000","dem":"2618","tz":"America/Bogota"}},{"id":"3682260","name":"Gachantivá","ascii_name":"Gachantiva","lat":"5.75662","lon":"-73.5395","country":"CO","lastUpdated":"2020-06-11","type":{"class":"P","code":"PPLA2"},"region":{"a1":"36","a2":"15293"},"meta":{"pop":"534","dem":"2431","tz":"America/Bogota"}},{"id":"3682262","name":"Gachancipá","ascii_name":"Gachancipa","lat":"4.99111","lon":"-73.87154","country":"CO","lastUpdated":"2020-06-11","type":{"class":"P","code":"PPLA2"},"region":{"a1":"33","a2":"25295"},"meta":{"pop":"3119","dem":"2565","tz":"America/Bogota"}},{"id":"3682266","name":"Gachalá","ascii_name":"Gachala","lat":"4.69244","lon":"-73.52042","country":"CO","lastUpdated":"2018-07-04","type":{"class":"P","code":"PPLA2"},"region":{"a1":"33","a2":"25293"},"meta":{"pop":"1661","dem":"1729","tz":"America/Bogota"}},{"id":"3682274","name":"Fusagasugá","ascii_name":"Fusagasuga","lat":"4.33646","lon":"-74.36378","country":"CO","lastUpdated":"2020-06-11","type":{"class":"P","code":"PPLA2"},"region":{"a1":"33","a2":"25290"},"meta":{"pop":"88820","dem":"1717","tz":"America/Bogota"}},{"id":"3682279","name":"Fúquene","ascii_name":"Fuquene","lat":"5.40425","lon":"-73.7964","country":"CO","lastUpdated":"2018-07-04","type":{"class":"P","code":"PPLA2"},"region":{"a1":"33","a2":"25288"},"meta":{"pop":"563","dem":"2866","tz":"America/Bogota"}},{"id":"3682281","name":"Funza","ascii_name":"Funza","lat":"4.71638","lon":"-74.21195","country":"CO","lastUpdated":"2018-07-04","type":{"class":"P","code":"PPLA2"},"region":{"a1":"33","a2":"25286"},"meta":{"pop":"54421","dem":"2548","tz":"America/Bogota"}},{"id":"3682283","name":"Funes","ascii_name":"Funes","lat":"1.00075","lon":"-77.44918","country":"CO","lastUpdated":"2018-08-08","type":{"class":"P","code":"PPLA2"},"region":{"a1":"20","a2":"52287"},"meta":{"pop":"2508","dem":"2283","tz":"America/Bogota"}},{"id":"3682292","name":"Fundación","ascii_name":"Fundacion","lat":"10.52066","lon":"-74.18504","country":"CO","lastUpdated":"2018-08-08","type":{"class":"P","code":"PPLA2"},"region":{"a1":"38","a2":"47288"},"meta":{"pop":"59175","dem":"49","tz":"America/Bogota"}},{"id":"3682299","name":"Fuente de Oro","ascii_name":"Fuente de Oro","lat":"3.46263","lon":"-73.62162","country":"CO","lastUpdated":"2018-08-08","type":{"class":"P","code":"PPLA2"},"region":{"a1":"19","a2":"50287"},"meta":{"pop":"3609","dem":"301","tz":"America/Bogota"}},{"id":"3682313","name":"Frontino","ascii_name":"Frontino","lat":"6.77133","lon":"-76.13324","country":"CO","lastUpdated":"2016-01-28","type":{"class":"P","code":"PPL"},"region":{"a1":"02","a2":"05284"},"meta":{"pop":"8603","dem":"1389","tz":"America/Bogota"}},{"id":"3682329","name":"Frías","ascii_name":"Frias","lat":"5.02973","lon":"-75.0086","country":"CO","lastUpdated":"2018-09-01","type":{"class":"P","code":"PPL"},"region":{"a1":"28","a2":"73270"},"meta":{"pop":"1215","dem":"1321","tz":"America/Bogota"}},{"id":"3682330","name":"Fresno","ascii_name":"Fresno","lat":"5.15264","lon":"-75.03624","country":"CO","lastUpdated":"2018-09-05","type":{"class":"P","code":"PPLA2"},"region":{"a1":"28","a2":"73283"},"meta":{"pop":"17668","dem":"1467","tz":"America/Bogota"}},{"id":"3682358","name":"Fosca","ascii_name":"Fosca","lat":"4.33916","lon":"-73.93852","country":"CO","lastUpdated":"2018-07-04","type":{"class":"P","code":"PPLA2"},"region":{"a1":"33","a2":"25281"},"meta":{"pop":"1451","dem":"2112","tz":"America/Bogota"}},{"id":"3682361","name":"Fortul","ascii_name":"Fortul","lat":"6.79261","lon":"-71.77596","country":"CO","lastUpdated":"2018-07-04","type":{"class":"P","code":"PPLA2"},"region":{"a1":"03","a2":"81300"},"meta":{"pop":"4607","dem":"241","tz":"America/Bogota"}},{"id":"3682374","name":"Fonseca","ascii_name":"Fonseca","lat":"10.88606","lon":"-72.8487","country":"CO","lastUpdated":"2018-07-04","type":{"class":"P","code":"PPLA2"},"region":{"a1":"17","a2":"44279"},"meta":{"pop":"23509","dem":"182","tz":"America/Bogota"}},{"id":"3682380","name":"Fómeque","ascii_name":"Fomeque","lat":"4.48797","lon":"-73.89749","country":"CO","lastUpdated":"2018-07-04","type":{"class":"P","code":"PPLA2"},"region":{"a1":"33","a2":"25279"},"meta":{"pop":"5389","dem":"1820","tz":"America/Bogota"}},{"id":"3682385","name":"Floridablanca","ascii_name":"Floridablanca","lat":"7.06222","lon":"-73.08644","country":"CO","lastUpdated":"2018-09-05","type":{"class":"P","code":"PPLA2"},"region":{"a1":"26","a2":"68276"},"meta":{"pop":"252267","dem":"928","tz":"America/Bogota"}},{"id":"3682393","name":"Florida","ascii_name":"Florida","lat":"3.3223","lon":"-76.2348","country":"CO","lastUpdated":"2018-09-05","type":{"class":"P","code":"PPLA2"},"region":{"a1":"29","a2":"76275"},"meta":{"pop":"47173","dem":"1043","tz":"America/Bogota"}},{"id":"3682395","name":"Florián","ascii_name":"Florian","lat":"5.80487","lon":"-73.97029","country":"CO","lastUpdated":"2018-09-05","type":{"class":"P","code":"PPLA2"},"region":{"a1":"26","a2":"68271"},"meta":{"pop":"1227","dem":"1623","tz":"America/Bogota"}},{"id":"3682400","name":"Floresta","ascii_name":"Floresta","lat":"5.85903","lon":"-72.91882","country":"CO","lastUpdated":"2018-06-08","type":{"class":"P","code":"PPLA2"},"region":{"a1":"36","a2":"15276"},"meta":{"pop":"1127","dem":"2503","tz":"America/Bogota"}},{"id":"3682425","name":"Florencia","ascii_name":"Florencia","lat":"1.68318","lon":"-77.07331","country":"CO","lastUpdated":"2018-07-04","type":{"class":"P","code":"PPLA2"},"region":{"a1":"09","a2":"19290"},"meta":{"pop":"1467","dem":"1611","tz":"America/Bogota"}},{"id":"3682426","name":"Florencia","ascii_name":"Florencia","lat":"1.61438","lon":"-75.60623","country":"CO","lastUpdated":"2016-01-28","type":{"class":"P","code":"PPLA"},"region":{"a1":"08","a2":"18001"},"meta":{"pop":"130337","dem":"270","tz":"America/Bogota"}},{"id":"3682458","name":"Flandes","ascii_name":"Flandes","lat":"4.29005","lon":"-74.81612","country":"CO","lastUpdated":"2018-04-18","type":{"class":"P","code":"PPL"},"region":{"a1":"28","a2":"73275"},"meta":{"pop":"20919","dem":"285","tz":"America/Bogota"}},{"id":"3682465","name":"Firavitoba","ascii_name":"Firavitoba","lat":"5.66885","lon":"-72.99289","country":"CO","lastUpdated":"2018-06-08","type":{"class":"P","code":"PPLA2"},"region":{"a1":"36","a2":"15272"},"meta":{"pop":"2136","dem":"2492","tz":"America/Bogota"}},{"id":"3682473","name":"Filandia","ascii_name":"Filandia","lat":"4.67472","lon":"-75.65833","country":"CO","lastUpdated":"2018-08-08","type":{"class":"P","code":"PPLA2"},"region":{"a1":"23","a2":"63272"},"meta":{"pop":"6851","dem":"1919","tz":"America/Bogota"}},{"id":"3682481","name":"Filadelfia","ascii_name":"Filadelfia","lat":"5.29606","lon":"-75.5612","country":"CO","lastUpdated":"2018-07-04","type":{"class":"P","code":"PPLA2"},"region":{"a1":"37","a2":"17272"},"meta":{"pop":"5064","dem":"1584","tz":"America/Bogota"}},{"id":"3682510","name":"Falan","ascii_name":"Falan","lat":"5.12383","lon":"-74.95181","country":"CO","lastUpdated":"2018-09-05","type":{"class":"P","code":"PPLA2"},"region":{"a1":"28","a2":"73270"},"meta":{"pop":"5234","dem":"974","tz":"America/Bogota"}},{"id":"3682516","name":"Facatativá","ascii_name":"Facatativa","lat":"4.81367","lon":"-74.35453","country":"CO","lastUpdated":"2018-07-04","type":{"class":"P","code":"PPLA2"},"region":{"a1":"33","a2":"25269"},"meta":{"pop":"94611","dem":"2589","tz":"America/Bogota"}},{"id":"3682573","name":"Espinal","ascii_name":"Espinal","lat":"4.14924","lon":"-74.88429","country":"CO","lastUpdated":"2018-09-05","type":{"class":"P","code":"PPLA2"},"region":{"a1":"28","a2":"73268"},"meta":{"pop":"56213","dem":"323","tz":"America/Bogota"}},{"id":"3682631","name":"Envigado","ascii_name":"Envigado","lat":"6.17591","lon":"-75.59174","country":"CO","lastUpdated":"2018-06-08","type":{"class":"P","code":"PPLA2"},"region":{"a1":"02","a2":"05266"},"meta":{"pop":"163007","dem":"1539","tz":"America/Bogota"}},{"id":"3682633","name":"Entrerríos","ascii_name":"Entrerrios","lat":"6.5654","lon":"-75.5169","country":"CO","lastUpdated":"2018-06-08","type":{"class":"P","code":"PPLA2"},"region":{"a1":"02","a2":"05264"},"meta":{"pop":"3462","dem":"2312","tz":"America/Bogota"}},{"id":"3682653","name":"Enciso","ascii_name":"Enciso","lat":"6.66808","lon":"-72.69986","country":"CO","lastUpdated":"2018-09-05","type":{"class":"P","code":"PPLA2"},"region":{"a1":"26","a2":"68266"},"meta":{"pop":"698","dem":"1578","tz":"America/Bogota"}},{"id":"3682656","name":"Encino","ascii_name":"Encino","lat":"6.13735","lon":"-73.09847","country":"CO","lastUpdated":"2018-09-05","type":{"class":"P","code":"PPLA2"},"region":{"a1":"26","a2":"68264"},"meta":{"pop":"412","dem":"1862","tz":"America/Bogota"}},{"id":"3682682","name":"El Zulia","ascii_name":"El Zulia","lat":"7.93248","lon":"-72.60125","country":"CO","lastUpdated":"2018-08-08","type":{"class":"P","code":"PPLA2"},"region":{"a1":"21","a2":"54261"},"meta":{"pop":"13521","dem":"207","tz":"America/Bogota"}},{"id":"3682963","name":"El Tambo","ascii_name":"El Tambo","lat":"2.45199","lon":"-76.81029","country":"CO","lastUpdated":"2018-07-04","type":{"class":"P","code":"PPLA2"},"region":{"a1":"09","a2":"19256"},"meta":{"pop":"6355","dem":"1719","tz":"America/Bogota"}},{"id":"3682965","name":"El Tambo","ascii_name":"El Tambo","lat":"1.40785","lon":"-77.39218","country":"CO","lastUpdated":"2018-08-08","type":{"class":"P","code":"PPLA2"},"region":{"a1":"20","a2":"52260"},"meta":{"pop":"7279","dem":"2178","tz":"America/Bogota"}},{"id":"3682981","name":"El Tablón","ascii_name":"El Tablon","lat":"1.42717","lon":"-77.09693","country":"CO","lastUpdated":"2020-06-11","type":{"class":"P","code":"PPLA2"},"region":{"a1":"20","a2":"52258"},"meta":{"pop":"2373","dem":"1590","tz":"America/Bogota"}},{"id":"3683149","name":"El Rosario","ascii_name":"El Rosario","lat":"1.74404","lon":"-77.33481","country":"CO","lastUpdated":"2018-08-08","type":{"class":"P","code":"PPLA2"},"region":{"a1":"20","a2":"52256"},"meta":{"pop":"2607","dem":"1612","tz":"America/Bogota"}},{"id":"3683155","name":"El Rosal","ascii_name":"El Rosal","lat":"4.85314","lon":"-74.25996","country":"CO","lastUpdated":"2018-07-04","type":{"class":"P","code":"PPLA2"},"region":{"a1":"33","a2":"25260"},"meta":{"pop":"5552","dem":"2612","tz":"America/Bogota"}},{"id":"3683180","name":"El Roble","ascii_name":"El Roble","lat":"9.10193","lon":"-75.19508","country":"CO","lastUpdated":"2018-09-05","type":{"class":"P","code":"PPLA2"},"region":{"a1":"27","a2":"70233"},"meta":{"pop":"3324","dem":"91","tz":"America/Bogota"}},{"id":"3683233","name":"El Retén","ascii_name":"El Reten","lat":"10.61135","lon":"-74.26824","country":"CO","lastUpdated":"2020-06-11","type":{"class":"P","code":"PPLA2"},"region":{"a1":"38","a2":"47268"},"meta":{"pop":"15901","dem":"24","tz":"America/Bogota"}},{"id":"3683463","name":"El Piñón","ascii_name":"El Pinon","lat":"10.40283","lon":"-74.82415","country":"CO","lastUpdated":"2018-08-08","type":{"class":"P","code":"PPLA2"},"region":{"a1":"38","a2":"47258"},"meta":{"pop":"7481","dem":"9","tz":"America/Bogota"}},{"id":"3683497","name":"El Peñón","ascii_name":"El Penon","lat":"8.98691","lon":"-73.94697","country":"CO","lastUpdated":"2018-07-04","type":{"class":"P","code":"PPLA2"},"region":{"a1":"35"},"meta":{"pop":"4204","dem":"28","tz":"America/Bogota"}},{"id":"3683499","name":"El Peñón","ascii_name":"El Penon","lat":"6.05489","lon":"-73.81519","country":"CO","lastUpdated":"2018-09-05","type":{"class":"P","code":"PPLA2"},"region":{"a1":"26","a2":"68250"},"meta":{"pop":"0","dem":"2540","tz":"America/Bogota"}},{"id":"3683501","name":"El Peñón","ascii_name":"El Penon","lat":"5.25264","lon":"-74.29069","country":"CO","lastUpdated":"2018-07-04","type":{"class":"P","code":"PPLA2"},"region":{"a1":"33","a2":"25258"},"meta":{"pop":"728","dem":"1444","tz":"America/Bogota"}},{"id":"3683508","name":"El Peñol","ascii_name":"El Penol","lat":"1.45365","lon":"-77.44017","country":"CO","lastUpdated":"2018-08-08","type":{"class":"P","code":"PPLA2"},"region":{"a1":"20","a2":"52254"},"meta":{"pop":"2294","dem":"1595","tz":"America/Bogota"}},{"id":"3683528","name":"El Paujíl","ascii_name":"El Paujil","lat":"1.57006","lon":"-75.32863","country":"CO","lastUpdated":"2020-06-11","type":{"class":"P","code":"PPLA2"},"region":{"a1":"08","a2":"18256"},"meta":{"pop":"7618","dem":"343","tz":"America/Bogota"}},{"id":"3683538","name":"El Paso","ascii_name":"El Paso","lat":"9.65724","lon":"-73.74685","country":"CO","lastUpdated":"2018-07-04","type":{"class":"P","code":"PPLA2"},"region":{"a1":"10","a2":"20250"},"meta":{"pop":"6367","dem":"41","tz":"America/Bogota"}},{"id":"3683778","name":"El Molino","ascii_name":"El Molino","lat":"10.65296","lon":"-72.92461","country":"CO","lastUpdated":"2018-07-04","type":{"class":"P","code":"PPLA2"},"region":{"a1":"17","a2":"44110"},"meta":{"pop":"5265","dem":"253","tz":"America/Bogota"}},{"id":"3684029","name":"Elías","ascii_name":"Elias","lat":"2.0117","lon":"-75.93968","country":"CO","lastUpdated":"2018-08-08","type":{"class":"P","code":"PPLA2"},"region":{"a1":"16","a2":"41244"},"meta":{"pop":"1117","dem":"1292","tz":"America/Bogota"}},{"id":"3684115","name":"El Guamo","ascii_name":"El Guamo","lat":"10.03155","lon":"-74.97612","country":"CO","lastUpdated":"2018-07-04","type":{"class":"P","code":"PPLA2"},"region":{"a1":"35","a2":"13248"},"meta":{"pop":"4732","dem":"73","tz":"America/Bogota"}},{"id":"3684132","name":"El Guacamayo","ascii_name":"El Guacamayo","lat":"6.24518","lon":"-73.49655","country":"CO","lastUpdated":"2019-10-10","type":{"class":"P","code":"PPLA2"},"region":{"a1":"26","a2":"68245"},"meta":{"pop":"428","dem":"1974","tz":"America/Bogota"}},{"id":"3684189","name":"El Espino","ascii_name":"El Espino","lat":"6.48277","lon":"-72.49718","country":"CO","lastUpdated":"2018-06-08","type":{"class":"P","code":"PPLA2"},"region":{"a1":"36","a2":"15248"},"meta":{"pop":"1313","dem":"2127","tz":"America/Bogota"}},{"id":"3684266","name":"El Dovio","ascii_name":"El Dovio","lat":"4.5079","lon":"-76.23619","country":"CO","lastUpdated":"2018-09-05","type":{"class":"P","code":"PPLA2"},"region":{"a1":"29","a2":"76250"},"meta":{"pop":"7942","dem":"1435","tz":"America/Bogota"}},{"id":"3684276","name":"El Doncello","ascii_name":"El Doncello","lat":"1.67817","lon":"-75.28466","country":"CO","lastUpdated":"2018-07-04","type":{"class":"P","code":"PPLA2"},"region":{"a1":"08","a2":"18247"},"meta":{"pop":"13082","dem":"357","tz":"America/Bogota"}},{"id":"3684293","name":"El Difícil","ascii_name":"El Dificil","lat":"9.84975","lon":"-74.23627","country":"CO","lastUpdated":"2020-06-11","type":{"class":"P","code":"PPLA2"},"region":{"a1":"38","a2":"47058"},"meta":{"pop":"0","dem":"165","tz":"America/Bogota"}},{"id":"3684452","name":"El Copey","ascii_name":"El Copey","lat":"10.15031","lon":"-73.9614","country":"CO","lastUpdated":"2018-07-04","type":{"class":"P","code":"PPLA2"},"region":{"a1":"10","a2":"20238"},"meta":{"pop":"18136","dem":"141","tz":"America/Bogota"}},{"id":"3684510","name":"El Cocuy","ascii_name":"El Cocuy","lat":"6.41151","lon":"-72.44876","country":"CO","lastUpdated":"2018-06-08","type":{"class":"P","code":"PPLA2"},"region":{"a1":"36","a2":"15244"},"meta":{"pop":"2706","dem":"2646","tz":"America/Bogota"}},{"id":"3684579","name":"El Charco","ascii_name":"El Charco","lat":"2.47926","lon":"-78.10972","country":"CO","lastUpdated":"2018-08-08","type":{"class":"P","code":"PPLA2"},"region":{"a1":"20","a2":"52250"},"meta":{"pop":"28673","dem":"3","tz":"America/Bogota"}},{"id":"3684615","name":"El Cerrito","ascii_name":"El Cerrito","lat":"3.68549","lon":"-76.31372","country":"CO","lastUpdated":"2018-09-05","type":{"class":"P","code":"PPLA2"},"region":{"a1":"29","a2":"76248"},"meta":{"pop":"38390","dem":"990","tz":"America/Bogota"}},{"id":"3684662","name":"El Castillo","ascii_name":"El Castillo","lat":"3.56363","lon":"-73.79488","country":"CO","lastUpdated":"2018-08-08","type":{"class":"P","code":"PPLA2"},"region":{"a1":"19","a2":"50251"},"meta":{"pop":"2581","dem":"350","tz":"America/Bogota"}},{"id":"3684666","name":"El Carmen de Bolívar","ascii_name":"El Carmen de Bolivar","lat":"9.7174","lon":"-75.12023","country":"CO","lastUpdated":"2020-06-11","type":{"class":"P","code":"PPLA2"},"region":{"a1":"35","a2":"13244"},"meta":{"pop":"47957","dem":"153","tz":"America/Bogota"}},{"id":"3684683","name":"El Carmen","ascii_name":"El Carmen","lat":"8.51064","lon":"-73.44776","country":"CO","lastUpdated":"2018-08-08","type":{"class":"P","code":"PPLA2"},"region":{"a1":"21","a2":"54245"},"meta":{"pop":"5286","dem":"712","tz":"America/Bogota"}},{"id":"3684689","name":"El Carmen de Chucurí","ascii_name":"El Carmen de Chucuri","lat":"6.69736","lon":"-73.51117","country":"CO","lastUpdated":"2020-06-11","type":{"class":"P","code":"PPLA2"},"region":{"a1":"26","a2":"68235"},"meta":{"pop":"1602","dem":"775","tz":"America/Bogota"}},{"id":"3684692","name":"El Carmen","ascii_name":"El Carmen","lat":"5.88778","lon":"-75.16417","country":"CO","lastUpdated":"2012-01-19","type":{"class":"P","code":"PPL"},"region":{"a1":"11"},"meta":{"pop":"2258","dem":"1254","tz":"America/Bogota"}},{"id":"3684770","name":"El Calvario","ascii_name":"El Calvario","lat":"4.35342","lon":"-73.71147","country":"CO","lastUpdated":"2018-08-08","type":{"class":"P","code":"PPLA2"},"region":{"a1":"19","a2":"50245"},"meta":{"pop":"557","dem":"1902","tz":"America/Bogota"}},{"id":"3684785","name":"El Cairo","ascii_name":"El Cairo","lat":"4.76279","lon":"-76.221","country":"CO","lastUpdated":"2018-04-18","type":{"class":"P","code":"PPL"},"region":{"a1":"29","a2":"76246"},"meta":{"pop":"3268","dem":"1924","tz":"America/Bogota"}},{"id":"3684860","name":"El Bordo","ascii_name":"El Bordo","lat":"2.11696","lon":"-76.98214","country":"CO","lastUpdated":"2018-07-04","type":{"class":"P","code":"PPLA2"},"region":{"a1":"09","a2":"19532"},"meta":{"pop":"12072","dem":"990","tz":"America/Bogota"}},{"id":"3684917","name":"El Banco","ascii_name":"El Banco","lat":"9.00114","lon":"-73.97581","country":"CO","lastUpdated":"2018-08-08","type":{"class":"P","code":"PPLA2"},"region":{"a1":"38","a2":"47245"},"meta":{"pop":"54522","dem":"34","tz":"America/Bogota"}},{"id":"3684945","name":"El Bagre","ascii_name":"El Bagre","lat":"7.60347","lon":"-74.80951","country":"CO","lastUpdated":"2016-01-28","type":{"class":"P","code":"PPL"},"region":{"a1":"02","a2":"05250"},"meta":{"pop":"40798","dem":"51","tz":"America/Bogota"}},{"id":"3685001","name":"Algarrobo","ascii_name":"Algarrobo","lat":"10.18618","lon":"-74.06085","country":"CO","lastUpdated":"2018-08-08","type":{"class":"P","code":"PPLA2"},"region":{"a1":"38","a2":"47030"},"meta":{"pop":"0","dem":"110","tz":"America/Bogota"}},{"id":"3685027","name":"El Águila","ascii_name":"El Aguila","lat":"4.91345","lon":"-76.04004","country":"CO","lastUpdated":"2018-09-05","type":{"class":"P","code":"PPLA2"},"region":{"a1":"29","a2":"76243"},"meta":{"pop":"2725","dem":"1708","tz":"America/Bogota"}},{"id":"3685058","name":"Ebéjico","ascii_name":"Ebejico","lat":"6.32598","lon":"-75.76835","country":"CO","lastUpdated":"2018-06-08","type":{"class":"P","code":"PPLA2"},"region":{"a1":"02","a2":"05240"},"meta":{"pop":"2583","dem":"1159","tz":"America/Bogota"}},{"id":"3685069","name":"Durania","ascii_name":"Durania","lat":"7.71307","lon":"-72.65759","country":"CO","lastUpdated":"2018-08-08","type":{"class":"P","code":"PPLA2"},"region":{"a1":"21","a2":"54239"},"meta":{"pop":"3470","dem":"961","tz":"America/Bogota"}},{"id":"3685084","name":"Duitama","ascii_name":"Duitama","lat":"5.8245","lon":"-73.03408","country":"CO","lastUpdated":"2018-06-08","type":{"class":"P","code":"PPLA2"},"region":{"a1":"36","a2":"15238"},"meta":{"pop":"92040","dem":"2522","tz":"America/Bogota"}},{"id":"3685095","name":"Dosquebradas","ascii_name":"Dosquebradas","lat":"4.83916","lon":"-75.66727","country":"CO","lastUpdated":"2018-09-05","type":{"class":"P","code":"PPLA2"},"region":{"a1":"24","a2":"66170"},"meta":{"pop":"179583","dem":"1454","tz":"America/Bogota"}},{"id":"3685126","name":"Donmatías","ascii_name":"Donmatias","lat":"6.48569","lon":"-75.39496","country":"CO","lastUpdated":"2018-06-08","type":{"class":"P","code":"PPLA2"},"region":{"a1":"02","a2":"05237"},"meta":{"pop":"10011","dem":"2157","tz":"America/Bogota"}},{"id":"3685184","name":"Doima","ascii_name":"Doima","lat":"4.42692","lon":"-74.97548","country":"CO","lastUpdated":"2018-09-01","type":{"class":"P","code":"PPL"},"region":{"a1":"28","a2":"73547"},"meta":{"pop":"2808","dem":"603","tz":"America/Bogota"}},{"id":"3685200","name":"Distracción","ascii_name":"Distraccion","lat":"10.89784","lon":"-72.88666","country":"CO","lastUpdated":"2018-07-04","type":{"class":"P","code":"PPLA2"},"region":{"a1":"17","a2":"44098"},"meta":{"pop":"4742","dem":"205","tz":"America/Bogota"}},{"id":"3685223","name":"Dibulla","ascii_name":"Dibulla","lat":"11.27251","lon":"-73.30911","country":"CO","lastUpdated":"2018-07-04","type":{"class":"P","code":"PPLA2"},"region":{"a1":"17","a2":"44090"},"meta":{"pop":"4402","dem":"4","tz":"America/Bogota"}},{"id":"3685273","name":"Darien","ascii_name":"Darien","lat":"3.93135","lon":"-76.48481","country":"CO","lastUpdated":"2018-07-13","type":{"class":"P","code":"PPL"},"region":{"a1":"29","a2":"76126"},"meta":{"pop":"15763","dem":"1521","tz":"America/Bogota"}},{"id":"3685292","name":"Dagua","ascii_name":"Dagua","lat":"3.65685","lon":"-76.68859","country":"CO","lastUpdated":"2018-09-05","type":{"class":"P","code":"PPLA2"},"region":{"a1":"29","a2":"76233"},"meta":{"pop":"12320","dem":"882","tz":"America/Bogota"}},{"id":"3685295","name":"Dabeiba","ascii_name":"Dabeiba","lat":"7.00017","lon":"-76.26915","country":"CO","lastUpdated":"2018-04-20","type":{"class":"P","code":"PPL"},"region":{"a1":"02","a2":"05234"},"meta":{"pop":"11548","dem":"488","tz":"America/Bogota"}},{"id":"3685335","name":"Curumaní","ascii_name":"Curumani","lat":"9.19992","lon":"-73.54274","country":"CO","lastUpdated":"2018-07-04","type":{"class":"P","code":"PPLA2"},"region":{"a1":"10","a2":"20228"},"meta":{"pop":"22084","dem":"59","tz":"America/Bogota"}},{"id":"3685345","name":"Curití","ascii_name":"Curiti","lat":"6.60519","lon":"-73.06809","country":"CO","lastUpdated":"2020-06-11","type":{"class":"P","code":"PPLA2"},"region":{"a1":"26","a2":"68229"},"meta":{"pop":"3417","dem":"1490","tz":"America/Bogota"}},{"id":"3685418","name":"Cunday","ascii_name":"Cunday","lat":"4.06004","lon":"-74.69212","country":"CO","lastUpdated":"2018-09-05","type":{"class":"P","code":"PPLA2"},"region":{"a1":"28","a2":"73226"},"meta":{"pop":"2082","dem":"457","tz":"America/Bogota"}},{"id":"3685428","name":"Cumbitara","ascii_name":"Cumbitara","lat":"1.64786","lon":"-77.57819","country":"CO","lastUpdated":"2018-08-08","type":{"class":"P","code":"PPLA2"},"region":{"a1":"20","a2":"52233"},"meta":{"pop":"1091","dem":"1702","tz":"America/Bogota"}},{"id":"3685432","name":"Cumbal","ascii_name":"Cumbal","lat":"0.90875","lon":"-77.79145","country":"CO","lastUpdated":"2018-08-08","type":{"class":"P","code":"PPLA2"},"region":{"a1":"20","a2":"52227"},"meta":{"pop":"7529","dem":"3127","tz":"America/Bogota"}},{"id":"3685435","name":"Cumaribo","ascii_name":"Cumaribo","lat":"4.44552","lon":"-69.79897","country":"CO","lastUpdated":"2018-10-05","type":{"class":"P","code":"PPLA2"},"region":{"a1":"31","a2":"99773"},"meta":{"pop":"23990","dem":"161","tz":"America/Bogota"}},{"id":"3685442","name":"Cumaral","ascii_name":"Cumaral","lat":"4.2708","lon":"-73.48669","country":"CO","lastUpdated":"2018-08-08","type":{"class":"P","code":"PPLA2"},"region":{"a1":"19","a2":"50226"},"meta":{"pop":"11263","dem":"412","tz":"America/Bogota"}},{"id":"3685482","name":"Cuítiva","ascii_name":"Cuitiva","lat":"5.58007","lon":"-72.96687","country":"CO","lastUpdated":"2018-06-08","type":{"class":"P","code":"PPLA2"},"region":{"a1":"36","a2":"15226"},"meta":{"pop":"233","dem":"2725","tz":"America/Bogota"}},{"id":"3685529","name":"Cucutilla","ascii_name":"Cucutilla","lat":"7.53941","lon":"-72.77238","country":"CO","lastUpdated":"2018-08-08","type":{"class":"P","code":"PPLA2"},"region":{"a1":"21","a2":"54223"},"meta":{"pop":"1950","dem":"1281","tz":"America/Bogota"}},{"id":"3685533","name":"Cúcuta","ascii_name":"Cucuta","lat":"7.89391","lon":"-72.50782","country":"CO","lastUpdated":"2019-09-05","type":{"class":"P","code":"PPLA"},"region":{"a1":"21","a2":"54001"},"meta":{"pop":"721398","dem":"309","tz":"America/Bogota"}},{"id":"3685540","name":"Cucunubá","ascii_name":"Cucunuba","lat":"5.24958","lon":"-73.7661","country":"CO","lastUpdated":"2018-07-04","type":{"class":"P","code":"PPLA2"},"region":{"a1":"33","a2":"25224"},"meta":{"pop":"1699","dem":"2564","tz":"America/Bogota"}},{"id":"3685569","name":"Cucaita","ascii_name":"Cucaita","lat":"5.54373","lon":"-73.45433","country":"CO","lastUpdated":"2018-06-08","type":{"class":"P","code":"PPLA2"},"region":{"a1":"36","a2":"15224"},"meta":{"pop":"1417","dem":"2636","tz":"America/Bogota"}},{"id":"3685571","name":"Cubará","ascii_name":"Cubara","lat":"7.00578","lon":"-72.10568","country":"CO","lastUpdated":"2018-06-08","type":{"class":"P","code":"PPLA2"},"region":{"a1":"36","a2":"15223"},"meta":{"pop":"1466","dem":"351","tz":"America/Bogota"}},{"id":"3685649","name":"Cruces de Anorí","ascii_name":"Cruces de Anori","lat":"7.18333","lon":"-75.06667","country":"CO","lastUpdated":"2020-06-11","type":{"class":"P","code":"PPL"},"region":{"a1":"02","a2":"05040"},"meta":{"pop":"4762","dem":"853","tz":"America/Bogota"}},{"id":"3685702","name":"Cravo Norte","ascii_name":"Cravo Norte","lat":"6.30173","lon":"-70.20415","country":"CO","lastUpdated":"2018-07-04","type":{"class":"P","code":"PPLA2"},"region":{"a1":"03","a2":"81220"},"meta":{"pop":"4787","dem":"103","tz":"America/Bogota"}},{"id":"3685708","name":"Coyaima","ascii_name":"Coyaima","lat":"3.79936","lon":"-75.19467","country":"CO","lastUpdated":"2018-09-05","type":{"class":"P","code":"PPLA2"},"region":{"a1":"28","a2":"73217"},"meta":{"pop":"3893","dem":"359","tz":"America/Bogota"}},{"id":"3685712","name":"Coveñas","ascii_name":"Covenas","lat":"9.40254","lon":"-75.68029","country":"CO","lastUpdated":"2021-03-27","type":{"class":"P","code":"PPLA2"},"region":{"a1":"27","a2":"70221"},"meta":{"pop":"0","dem":"5","tz":"America/Bogota"}},{"id":"3685724","name":"Cotorra","ascii_name":"Cotorra","lat":"9.03886","lon":"-75.78969","country":"CO","lastUpdated":"2018-07-04","type":{"class":"P","code":"PPLA2"},"region":{"a1":"12","a2":"23300"},"meta":{"pop":"4880","dem":"9","tz":"America/Bogota"}},{"id":"3685733","name":"Cota","ascii_name":"Cota","lat":"4.80938","lon":"-74.098","country":"CO","lastUpdated":"2018-07-04","type":{"class":"P","code":"PPLA2"},"region":{"a1":"33","a2":"25214"},"meta":{"pop":"7615","dem":"2557","tz":"America/Bogota"}},{"id":"3685794","name":"Corrales","ascii_name":"Corrales","lat":"5.82968","lon":"-72.84332","country":"CO","lastUpdated":"2018-06-08","type":{"class":"P","code":"PPLA2"},"region":{"a1":"36","a2":"15215"},"meta":{"pop":"1561","dem":"2390","tz":"America/Bogota"}},{"id":"3685823","name":"Corozal","ascii_name":"Corozal","lat":"9.31847","lon":"-75.2933","country":"CO","lastUpdated":"2018-09-05","type":{"class":"P","code":"PPLA2"},"region":{"a1":"27","a2":"70215"},"meta":{"pop":"39800","dem":"152","tz":"America/Bogota"}},{"id":"3685840","name":"Coromoro","ascii_name":"Coromoro","lat":"6.29461","lon":"-73.04022","country":"CO","lastUpdated":"2018-09-05","type":{"class":"P","code":"PPLA2"},"region":{"a1":"26","a2":"68217"},"meta":{"pop":"1010","dem":"1530","tz":"America/Bogota"}},{"id":"3685871","name":"Corinto","ascii_name":"Corinto","lat":"3.17301","lon":"-76.26275","country":"CO","lastUpdated":"2018-07-04","type":{"class":"P","code":"PPLA2"},"region":{"a1":"09","a2":"19212"},"meta":{"pop":"16579","dem":"1059","tz":"America/Bogota"}},{"id":"3685893","name":"Córdoba","ascii_name":"Cordoba","lat":"9.58612","lon":"-74.82705","country":"CO","lastUpdated":"2020-06-11","type":{"class":"P","code":"PPLA2"},"region":{"a1":"35","a2":"13212"},"meta":{"pop":"6597","dem":"18","tz":"America/Bogota"}},{"id":"3685900","name":"Córdoba","ascii_name":"Cordoba","lat":"4.39158","lon":"-75.68723","country":"CO","lastUpdated":"2018-08-08","type":{"class":"P","code":"PPLA2"},"region":{"a1":"23","a2":"63212"},"meta":{"pop":"4063","dem":"1498","tz":"America/Bogota"}},{"id":"3685903","name":"Córdoba","ascii_name":"Cordoba","lat":"0.85362","lon":"-77.51817","country":"CO","lastUpdated":"2020-06-11","type":{"class":"P","code":"PPLA2"},"region":{"a1":"20","a2":"52215"},"meta":{"pop":"3784","dem":"2869","tz":"America/Bogota"}},{"id":"3685943","name":"Coper","ascii_name":"Coper","lat":"5.47681","lon":"-74.04416","country":"CO","lastUpdated":"2018-06-08","type":{"class":"P","code":"PPLA2"},"region":{"a1":"36","a2":"15212"},"meta":{"pop":"814","dem":"951","tz":"America/Bogota"}},{"id":"3685949","name":"Copacabana","ascii_name":"Copacabana","lat":"6.34633","lon":"-75.50888","country":"CO","lastUpdated":"2018-06-08","type":{"class":"P","code":"PPLA2"},"region":{"a1":"02","a2":"05212"},"meta":{"pop":"49169","dem":"1411","tz":"America/Bogota"}},{"id":"3685955","name":"Convención","ascii_name":"Convencion","lat":"8.46894","lon":"-73.33765","country":"CO","lastUpdated":"2018-08-08","type":{"class":"P","code":"PPLA2"},"region":{"a1":"21","a2":"54498"},"meta":{"pop":"0","dem":"1062","tz":"America/Bogota"}},{"id":"3685961","name":"Contratación","ascii_name":"Contratacion","lat":"6.29005","lon":"-73.47354","country":"CO","lastUpdated":"2018-09-05","type":{"class":"P","code":"PPLA2"},"region":{"a1":"26","a2":"68211"},"meta":{"pop":"3505","dem":"1645","tz":"America/Bogota"}},{"id":"3685974","name":"Contadero","ascii_name":"Contadero","lat":"0.90841","lon":"-77.5477","country":"CO","lastUpdated":"2018-08-08","type":{"class":"P","code":"PPLA2"},"region":{"a1":"20","a2":"52210"},"meta":{"pop":"1603","dem":"2582","tz":"America/Bogota"}},{"id":"3685984","name":"Consacá","ascii_name":"Consaca","lat":"1.20805","lon":"-77.46548","country":"CO","lastUpdated":"2018-08-08","type":{"class":"P","code":"PPLA2"},"region":{"a1":"20","a2":"52207"},"meta":{"pop":"2239","dem":"1660","tz":"America/Bogota"}},{"id":"3685994","name":"Confines","ascii_name":"Confines","lat":"6.35625","lon":"-73.24131","country":"CO","lastUpdated":"2018-09-05","type":{"class":"P","code":"PPLA2"},"region":{"a1":"26","a2":"68209"},"meta":{"pop":"472","dem":"1499","tz":"America/Bogota"}},{"id":"3686002","name":"Condoto","ascii_name":"Condoto","lat":"5.09351","lon":"-76.64973","country":"CO","lastUpdated":"2018-07-04","type":{"class":"P","code":"PPLA2"},"region":{"a1":"11","a2":"27205"},"meta":{"pop":"9897","dem":"62","tz":"America/Bogota"}},{"id":"3686010","name":"Concordia","ascii_name":"Concordia","lat":"10.25757","lon":"-74.83333","country":"CO","lastUpdated":"2018-08-08","type":{"class":"P","code":"PPLA2"},"region":{"a1":"38","a2":"47205"},"meta":{"pop":"0","dem":"15","tz":"America/Bogota"}},{"id":"3686011","name":"Concordia","ascii_name":"Concordia","lat":"9.83545","lon":"-74.45548","country":"CO","lastUpdated":"2018-04-19","type":{"class":"P","code":"PPL"},"region":{"a1":"38","a2":"47460"},"meta":{"pop":"6624","dem":"138","tz":"America/Bogota"}},{"id":"3686013","name":"Concordia","ascii_name":"Concordia","lat":"6.04639","lon":"-75.90705","country":"CO","lastUpdated":"2018-06-08","type":{"class":"P","code":"PPLA2"},"region":{"a1":"02","a2":"05209"},"meta":{"pop":"9324","dem":"2000","tz":"America/Bogota"}},{"id":"3686027","name":"Concepción","ascii_name":"Concepcion","lat":"6.76619","lon":"-72.694","country":"CO","lastUpdated":"2018-09-05","type":{"class":"P","code":"PPLA2"},"region":{"a1":"26","a2":"68207"},"meta":{"pop":"2520","dem":"1990","tz":"America/Bogota"}},{"id":"3686028","name":"Concepción","ascii_name":"Concepcion","lat":"6.39408","lon":"-75.2583","country":"CO","lastUpdated":"2018-06-08","type":{"class":"P","code":"PPLA2"},"region":{"a1":"02","a2":"05206"},"meta":{"pop":"1513","dem":"1832","tz":"America/Bogota"}},{"id":"3686051","name":"Combita","ascii_name":"Combita","lat":"5.63333","lon":"-73.31667","country":"CO","lastUpdated":"2018-12-05","type":{"class":"P","code":"PPL"},"region":{"a1":"36","a2":"15204"},"meta":{"pop":"1034","dem":"2745","tz":"America/Bogota"}},