[{"id":"12687912","name":"Adikouassikro","ascii_name":"Adikouassikro","lat":"6.11845","lon":"-4.7749","country":"CI","lastUpdated":"2023-12-22","type":{"class":"P","code":"PPL"},"region":{"a1":"82","a2":"11153160","a3":"11153401"},"meta":{"pop":"1537","dem":"99","tz":"Africa/Abidjan"}},{"id":"12687913","name":"Broukro","ascii_name":"Broukro","lat":"5.9886","lon":"-4.91325","country":"CI","lastUpdated":"2023-12-22","type":{"class":"P","code":"PPL"},"region":{"a1":"82","a2":"11153160","a3":"2280760"},"meta":{"pop":"1617","dem":"71","tz":"Africa/Abidjan"}},{"id":"12687914","name":"Palmindustrie Tamabo","ascii_name":"Palmindustrie Tamabo","lat":"5.44147","lon":"-4.79541","country":"CI","lastUpdated":"2023-12-22","type":{"class":"P","code":"PPL"},"region":{"a1":"82","a2":"11153161","a3":"2288104"},"meta":{"pop":"5177","dem":"77","tz":"Africa/Abidjan"}},{"id":"12687915","name":"Ahougnanfoutou","ascii_name":"Ahougnanfoutou","lat":"5.56936","lon":"-4.87974","country":"CI","lastUpdated":"2023-12-22","type":{"class":"P","code":"PPL"},"region":{"a1":"82","a2":"11153161","a3":"2288104"},"meta":{"pop":"1690","dem":"70","tz":"Africa/Abidjan"}},{"id":"12687916","name":"Gnanzombly","ascii_name":"Gnanzombly","lat":"5.93006","lon":"-4.98006","country":"CI","lastUpdated":"2023-12-22","type":{"class":"P","code":"PPL"},"region":{"a1":"82","a2":"11153160","a3":"2280760"},"meta":{"pop":"1698","dem":"76","tz":"Africa/Abidjan"}},{"id":"12687917","name":"Duquesnes-Crémone","ascii_name":"Duquesnes-Cremone","lat":"6.17606","lon":"-3.9067","country":"CI","lastUpdated":"2023-12-22","type":{"class":"P","code":"PPL"},"region":{"a1":"82","a2":"11153162","a3":"2293341"},"meta":{"pop":"1705","dem":"141","tz":"Africa/Abidjan"}},{"id":"12687918","name":"Adomkro","ascii_name":"Adomkro","lat":"6.04889","lon":"-4.67447","country":"CI","lastUpdated":"2023-12-22","type":{"class":"P","code":"PPL"},"region":{"a1":"82","a2":"11153160","a3":"2280760"},"meta":{"pop":"1757","dem":"73","tz":"Africa/Abidjan"}},{"id":"12687919","name":"Yaffo-Attié","ascii_name":"Yaffo-Attie","lat":"6.53998","lon":"-3.93405","country":"CI","lastUpdated":"2023-12-22","type":{"class":"P","code":"PPL"},"region":{"a1":"82","a2":"11362033","a3":"11153283"},"meta":{"pop":"1777","dem":"152","tz":"Africa/Abidjan"}},{"id":"12687920","name":"Kodimasso","ascii_name":"Kodimasso","lat":"5.89168","lon":"-4.69471","country":"CI","lastUpdated":"2023-12-22","type":{"class":"P","code":"PPL"},"region":{"a1":"82","a2":"11153160","a3":"2280760"},"meta":{"pop":"1779","dem":"76","tz":"Africa/Abidjan"}},{"id":"12687921","name":"Gnankan-Gnankanso","ascii_name":"Gnankan-Gnankanso","lat":"6.01293","lon":"-4.96966","country":"CI","lastUpdated":"2023-12-22","type":{"class":"P","code":"PPL"},"region":{"a1":"82","a2":"11153160","a3":"2280760"},"meta":{"pop":"1905","dem":"91","tz":"Africa/Abidjan"}},{"id":"12687922","name":"Dodokoi","ascii_name":"Dodokoi","lat":"6.21172","lon":"-4.00843","country":"CI","lastUpdated":"2023-12-22","type":{"class":"P","code":"PPL"},"region":{"a1":"82","a2":"11362033","a3":"11153283"},"meta":{"pop":"1983","dem":"139","tz":"Africa/Abidjan"}},{"id":"12687923","name":"Botindin","ascii_name":"Botindin","lat":"5.64327","lon":"-4.90882","country":"CI","lastUpdated":"2023-12-22","type":{"class":"P","code":"PPL"},"region":{"a1":"82","a2":"11153161","a3":"2288104"},"meta":{"pop":"1991","dem":"121","tz":"Africa/Abidjan"}},{"id":"12687924","name":"Vieil-Aklodj","ascii_name":"Vieil-Aklodj","lat":"5.4188","lon":"-4.3519","country":"CI","lastUpdated":"2023-12-22","type":{"class":"P","code":"PPL"},"region":{"a1":"82","a2":"11153161","a3":"2595339"},"meta":{"pop":"1992","dem":"96","tz":"Africa/Abidjan"}},{"id":"12687925","name":"Adjékonankro","ascii_name":"Adjekonankro","lat":"5.704","lon":"-4.86796","country":"CI","lastUpdated":"2023-12-22","type":{"class":"P","code":"PPL"},"region":{"a1":"82","a2":"11153161","a3":"2288104"},"meta":{"pop":"2132","dem":"105","tz":"Africa/Abidjan"}},{"id":"12687926","name":"Yapo-Gare","ascii_name":"Yapo-Gare","lat":"5.79742","lon":"-4.13774","country":"CI","lastUpdated":"2023-12-22","type":{"class":"P","code":"PPL"},"region":{"a1":"82","a2":"11153160","a3":"2293267"},"meta":{"pop":"2240","dem":"74","tz":"Africa/Abidjan"}},{"id":"12687927","name":"Siékro","ascii_name":"Siekro","lat":"5.67811","lon":"-4.87961","country":"CI","lastUpdated":"2023-12-22","type":{"class":"P","code":"PPL"},"region":{"a1":"82","a2":"11153161","a3":"2288104"},"meta":{"pop":"2302","dem":"109","tz":"Africa/Abidjan"}},{"id":"12687928","name":"Amanikro","ascii_name":"Amanikro","lat":"6.17933","lon":"-4.63629","country":"CI","lastUpdated":"2023-12-22","type":{"class":"P","code":"PPL"},"region":{"a1":"82","a2":"11153160","a3":"2280760"},"meta":{"pop":"2345","dem":"76","tz":"Africa/Abidjan"}},{"id":"12687929","name":"Adomokro","ascii_name":"Adomokro","lat":"6.07446","lon":"-4.38731","country":"CI","lastUpdated":"2023-12-22","type":{"class":"P","code":"PPL"},"region":{"a1":"82","a2":"11153160","a3":"2293267"},"meta":{"pop":"2398","dem":"112","tz":"Africa/Abidjan"}},{"id":"12687930","name":"Liboli","ascii_name":"Liboli","lat":"5.22128","lon":"-5.18145","country":"CI","lastUpdated":"2023-12-22","type":{"class":"P","code":"PPL"},"region":{"a1":"82","a2":"11153161","a3":"2288104"},"meta":{"pop":"2443","dem":"72","tz":"Africa/Abidjan"}},{"id":"12687931","name":"Abiéhou","ascii_name":"Abiehou","lat":"5.55396","lon":"-4.53085","country":"CI","lastUpdated":"2023-12-22","type":{"class":"P","code":"PPL"},"region":{"a1":"82","a2":"11153160","a3":"11153397"},"meta":{"pop":"2492","dem":"151","tz":"Africa/Abidjan"}},{"id":"12687932","name":"Affounvassou","ascii_name":"Affounvassou","lat":"6.18518","lon":"-4.59979","country":"CI","lastUpdated":"2023-12-22","type":{"class":"P","code":"PPL"},"region":{"a1":"82","a2":"11153160","a3":"2280760"},"meta":{"pop":"2689","dem":"88","tz":"Africa/Abidjan"}},{"id":"12687933","name":"Galékro","ascii_name":"Galekro","lat":"5.68529","lon":"-3.43001","country":"CI","lastUpdated":"2023-12-22","type":{"class":"P","code":"PPL"},"region":{"a1":"82","a2":"11362033","a3":"2595337"},"meta":{"pop":"2689","dem":"81","tz":"Africa/Abidjan"}},{"id":"12687934","name":"Lahou-Kpanda","ascii_name":"Lahou-Kpanda","lat":"5.13603","lon":"-5.01659","country":"CI","lastUpdated":"2023-12-22","type":{"class":"P","code":"PPL"},"region":{"a1":"82","a2":"11153161","a3":"2288104"},"meta":{"pop":"2757","dem":"72","tz":"Africa/Abidjan"}},{"id":"12687935","name":"Yomidji","ascii_name":"Yomidji","lat":"5.53894","lon":"-4.53322","country":"CI","lastUpdated":"2023-12-22","type":{"class":"P","code":"PPL"},"region":{"a1":"82","a2":"11153161","a3":"2595339"},"meta":{"pop":"2793","dem":"83","tz":"Africa/Abidjan"}},{"id":"12687937","name":"Aka-Chantier","ascii_name":"Aka-Chantier","lat":"5.67535","lon":"-3.32939","country":"CI","lastUpdated":"2023-12-22","type":{"class":"P","code":"PPL"},"region":{"a1":"82","a2":"11362033","a3":"2595337"},"meta":{"pop":"2798","dem":"101","tz":"Africa/Abidjan"}},{"id":"12687938","name":"Lobo-Hopé","ascii_name":"Lobo-Hope","lat":"5.89592","lon":"-3.86461","country":"CI","lastUpdated":"2023-12-22","type":{"class":"P","code":"PPL"},"region":{"a1":"82","a2":"11153162","a3":"2293341"},"meta":{"pop":"2851","dem":"75","tz":"Africa/Abidjan"}},{"id":"12687939","name":"Soukou-Obou","ascii_name":"Soukou-Obou","lat":"5.72988","lon":"-4.6209","country":"CI","lastUpdated":"2023-12-22","type":{"class":"P","code":"PPL"},"region":{"a1":"82","a2":"11153160","a3":"11153397"},"meta":{"pop":"2860","dem":"76","tz":"Africa/Abidjan"}},{"id":"12687940","name":"Daguikoi","ascii_name":"Daguikoi","lat":"6.28497","lon":"-3.98031","country":"CI","lastUpdated":"2023-12-22","type":{"class":"P","code":"PPL"},"region":{"a1":"82","a2":"11362033","a3":"11153283"},"meta":{"pop":"2868","dem":"81","tz":"Africa/Abidjan"}},{"id":"12687941","name":"Dongbo","ascii_name":"Dongbo","lat":"5.40811","lon":"-4.83195","country":"CI","lastUpdated":"2023-12-22","type":{"class":"P","code":"PPL"},"region":{"a1":"82","a2":"11153161","a3":"2288104"},"meta":{"pop":"2870","dem":"74","tz":"Africa/Abidjan"}},{"id":"12687942","name":"Bédé-N'Goran-M'Po","ascii_name":"Bede-N'Goran-M'Po","lat":"6.15672","lon":"-4.4623","country":"CI","lastUpdated":"2023-12-22","type":{"class":"P","code":"PPL"},"region":{"a1":"82","a2":"11153160","a3":"2293267"},"meta":{"pop":"2936","dem":"149","tz":"Africa/Abidjan"}},{"id":"12687943","name":"Gbédjénou","ascii_name":"Gbedjenou","lat":"5.57436","lon":"-4.90272","country":"CI","lastUpdated":"2023-12-22","type":{"class":"P","code":"PPL"},"region":{"a1":"82","a2":"11153161","a3":"2288104"},"meta":{"pop":"2999","dem":"76","tz":"Africa/Abidjan"}},{"id":"12687944","name":"Wahin","ascii_name":"Wahin","lat":"5.79941","lon":"-4.28959","country":"CI","lastUpdated":"2023-12-22","type":{"class":"P","code":"PPL"},"region":{"a1":"82","a2":"11153160","a3":"2293267"},"meta":{"pop":"3177","dem":"74","tz":"Africa/Abidjan"}},{"id":"12687945","name":"Godesso","ascii_name":"Godesso","lat":"5.60302","lon":"-4.91103","country":"CI","lastUpdated":"2023-12-22","type":{"class":"P","code":"PPL"},"region":{"a1":"82","a2":"11153161","a3":"2288104"},"meta":{"pop":"3257","dem":"96","tz":"Africa/Abidjan"}},{"id":"12687946","name":"Asseudji","ascii_name":"Asseudji","lat":"6.32867","lon":"-3.93577","country":"CI","lastUpdated":"2023-12-22","type":{"class":"P","code":"PPL"},"region":{"a1":"82","a2":"11362033","a3":"11153283"},"meta":{"pop":"3353","dem":"107","tz":"Africa/Abidjan"}},{"id":"12687947","name":"Oghlwapo","ascii_name":"Oghlwapo","lat":"5.40253","lon":"-3.74355","country":"CI","lastUpdated":"2023-12-22","type":{"class":"P","code":"PPL"},"region":{"a1":"82","a2":"11362033","a3":"2595337"},"meta":{"pop":"3446","dem":"74","tz":"Africa/Abidjan"}},{"id":"12687948","name":"N'Zérékou","ascii_name":"N'Zerekou","lat":"5.64682","lon":"-3.4172","country":"CI","lastUpdated":"2023-12-22","type":{"class":"P","code":"PPL"},"region":{"a1":"82","a2":"11362033","a3":"2595337"},"meta":{"pop":"3458","dem":"81","tz":"Africa/Abidjan"}},{"id":"12687949","name":"Copa","ascii_name":"Copa","lat":"6.24298","lon":"-4.11802","country":"CI","lastUpdated":"2023-12-22","type":{"class":"P","code":"PPL"},"region":{"a1":"82","a2":"11153160","a3":"2293267"},"meta":{"pop":"3472","dem":"77","tz":"Africa/Abidjan"}},{"id":"12687950","name":"Nyan","ascii_name":"Nyan","lat":"6.00996","lon":"-3.72554","country":"CI","lastUpdated":"2023-12-22","type":{"class":"P","code":"PPL"},"region":{"a1":"82","a2":"11153162","a3":"2293341"},"meta":{"pop":"3513","dem":"100","tz":"Africa/Abidjan"}},{"id":"12687951","name":"Ahondo","ascii_name":"Ahondo","lat":"6.30673","lon":"-5.15111","country":"CI","lastUpdated":"2023-12-22","type":{"class":"P","code":"PPL"},"region":{"a1":"82","a2":"11153160","a3":"11153401"},"meta":{"pop":"3611","dem":"83","tz":"Africa/Abidjan"}},{"id":"12687952","name":"Batéra","ascii_name":"Batera","lat":"5.83675","lon":"-4.73038","country":"CI","lastUpdated":"2023-12-22","type":{"class":"P","code":"PPL"},"region":{"a1":"82","a2":"11153160","a3":"2280760"},"meta":{"pop":"3628","dem":"77","tz":"Africa/Abidjan"}},{"id":"12687953","name":"Trochu","ascii_name":"Trochu","lat":"6.03244","lon":"-4.73518","country":"CI","lastUpdated":"2023-12-22","type":{"class":"P","code":"PPL"},"region":{"a1":"82","a2":"11153160","a3":"2280760"},"meta":{"pop":"3750","dem":"103","tz":"Africa/Abidjan"}},{"id":"12687954","name":"Mèbifon","ascii_name":"Mebifon","lat":"5.95251","lon":"-3.57884","country":"CI","lastUpdated":"2023-12-22","type":{"class":"P","code":"PPL"},"region":{"a1":"82","a2":"11362033","a3":"11153410"},"meta":{"pop":"4345","dem":"91","tz":"Africa/Abidjan"}},{"id":"12687955","name":"Akalékro","ascii_name":"Akalekro","lat":"5.61062","lon":"-4.82517","country":"CI","lastUpdated":"2023-12-22","type":{"class":"P","code":"PPL"},"region":{"a1":"82","a2":"11153160","a3":"2280760"},"meta":{"pop":"4653","dem":"71","tz":"Africa/Abidjan"}},{"id":"12687956","name":"Soribadougou","ascii_name":"Soribadougou","lat":"6.54882","lon":"-3.77689","country":"CI","lastUpdated":"2023-12-22","type":{"class":"P","code":"PPL"},"region":{"a1":"82","a2":"11362033","a3":"11153283"},"meta":{"pop":"4765","dem":"154","tz":"Africa/Abidjan"}},{"id":"12687957","name":"N'Da-Gnamien","ascii_name":"N'Da-Gnamien","lat":"6.16735","lon":"-4.93495","country":"CI","lastUpdated":"2023-12-22","type":{"class":"P","code":"PPL"},"region":{"a1":"82","a2":"11153160","a3":"11153401"},"meta":{"pop":"4913","dem":"76","tz":"Africa/Abidjan"}},{"id":"12687958","name":"Ira","ascii_name":"Ira","lat":"5.35403","lon":"-4.65894","country":"CI","lastUpdated":"2023-12-22","type":{"class":"P","code":"PPL"},"region":{"a1":"82","a2":"11153161","a3":"2595339"},"meta":{"pop":"5558","dem":"74","tz":"Africa/Abidjan"}},{"id":"12687959","name":"Ahéoua","ascii_name":"Aheoua","lat":"6.36064","lon":"-3.86087","country":"CI","lastUpdated":"2023-12-22","type":{"class":"P","code":"PPL"},"region":{"a1":"82","a2":"11362033","a3":"11153283"},"meta":{"pop":"5680","dem":"141","tz":"Africa/Abidjan"}},{"id":"12687960","name":"Djidjikro","ascii_name":"Djidjikro","lat":"5.30993","lon":"-4.87689","country":"CI","lastUpdated":"2023-12-22","type":{"class":"P","code":"PPL"},"region":{"a1":"82","a2":"11153161","a3":"2288104"},"meta":{"pop":"5694","dem":"85","tz":"Africa/Abidjan"}},{"id":"12687961","name":"Irobo","ascii_name":"Irobo","lat":"5.29358","lon":"-4.79603","country":"CI","lastUpdated":"2023-12-22","type":{"class":"P","code":"PPL"},"region":{"a1":"82","a2":"11153161","a3":"2595341"},"meta":{"pop":"6026","dem":"144","tz":"Africa/Abidjan"}},{"id":"12687962","name":"Nouvel-Ousrou","ascii_name":"Nouvel-Ousrou","lat":"5.41101","lon":"-4.51335","country":"CI","lastUpdated":"2023-12-22","type":{"class":"P","code":"PPL"},"region":{"a1":"82","a2":"11153161","a3":"2595339"},"meta":{"pop":"6967","dem":"90","tz":"Africa/Abidjan"}},{"id":"12687963","name":"Ellibou","ascii_name":"Ellibou","lat":"5.6882","lon":"-4.51","country":"CI","lastUpdated":"2023-12-22","type":{"class":"P","code":"PPL"},"region":{"a1":"82","a2":"11153160","a3":"11153397"},"meta":{"pop":"7615","dem":"72","tz":"Africa/Abidjan"}},{"id":"12687964","name":"Assangbadji","ascii_name":"Assangbadji","lat":"6.40782","lon":"-3.87669","country":"CI","lastUpdated":"2023-12-22","type":{"class":"P","code":"PPL"},"region":{"a1":"82","a2":"11362033","a3":"11153283"},"meta":{"pop":"8240","dem":"152","tz":"Africa/Abidjan"}},{"id":"12687965","name":"Dokpodon","ascii_name":"Dokpodon","lat":"5.18955","lon":"-5.45087","country":"CI","lastUpdated":"2023-12-22","type":{"class":"P","code":"PPL"},"region":{"a1":"82","a2":"11153161","a3":"2288104"},"meta":{"pop":"14717","dem":"73","tz":"Africa/Abidjan"}},{"id":"12687966","name":"Gbolouville","ascii_name":"Gbolouville","lat":"5.79408","lon":"-4.66127","country":"CI","lastUpdated":"2023-12-22","type":{"class":"P","code":"PPL"},"region":{"a1":"82","a2":"11153160","a3":"2280760"},"meta":{"pop":"16321","dem":"76","tz":"Africa/Abidjan"}},{"id":"12687992","name":"Boho","ascii_name":"Boho","lat":"7.0859","lon":"-7.35305","country":"CI","lastUpdated":"2023-12-22","type":{"class":"P","code":"PPL"},"region":{"a1":"78","a2":"11153164","a3":"2292178"},"meta":{"pop":"1231","dem":"304","tz":"Africa/Abidjan"}},{"id":"12687996","name":"Kassiapleu","ascii_name":"Kassiapleu","lat":"7.35994","lon":"-7.62384","country":"CI","lastUpdated":"2023-12-22","type":{"class":"P","code":"PPL"},"region":{"a1":"78","a2":"11153165","a3":"2284646"},"meta":{"pop":"1488","dem":"435","tz":"Africa/Abidjan"}},{"id":"12688002","name":"Petit","ascii_name":"Petit","lat":"7.02541","lon":"-7.43438","country":"CI","lastUpdated":"2023-12-22","type":{"class":"P","code":"PPL"},"region":{"a1":"78","a2":"11153164","a3":"2292178"},"meta":{"pop":"1525","dem":"303","tz":"Africa/Abidjan"}},{"id":"12688012","name":"Gaolé-Graba","ascii_name":"Gaole-Graba","lat":"7.57976","lon":"-7.35989","country":"CI","lastUpdated":"2023-12-22","type":{"class":"P","code":"PPL"},"region":{"a1":"78","a2":"11153165","a3":"2291665"},"meta":{"pop":"1537","dem":"620","tz":"Africa/Abidjan"}},{"id":"12688019","name":"Guézon-Gbéan","ascii_name":"Guezon-Gbean","lat":"7.29348","lon":"-7.30629","country":"CI","lastUpdated":"2023-12-22","type":{"class":"P","code":"PPL"},"region":{"a1":"78","a2":"11153164","a3":"11153313"},"meta":{"pop":"2044","dem":"412","tz":"Africa/Abidjan"}},{"id":"12688026","name":"Kprogouélé","ascii_name":"Kprogouele","lat":"7.53194","lon":"-7.33848","country":"CI","lastUpdated":"2023-12-22","type":{"class":"P","code":"PPL"},"region":{"a1":"78","a2":"11153165","a3":"2291665"},"meta":{"pop":"1003","dem":"311","tz":"Africa/Abidjan"}},{"id":"12688027","name":"Trinlé","ascii_name":"Trinle","lat":"7.20704","lon":"-7.6166","country":"CI","lastUpdated":"2023-12-22","type":{"class":"P","code":"PPL"},"region":{"a1":"78","a2":"11153165","a3":"2284646"},"meta":{"pop":"1069","dem":"304","tz":"Africa/Abidjan"}},{"id":"12688028","name":"Téapleu-Cavally","ascii_name":"Teapleu-Cavally","lat":"7.25978","lon":"-8.07124","country":"CI","lastUpdated":"2023-12-22","type":{"class":"P","code":"PPL"},"region":{"a1":"78","a2":"11153165","a3":"2290461"},"meta":{"pop":"1090","dem":"329","tz":"Africa/Abidjan"}},{"id":"12688029","name":"Gandié","ascii_name":"Gandie","lat":"7.61591","lon":"-7.44206","country":"CI","lastUpdated":"2023-12-22","type":{"class":"P","code":"PPL"},"region":{"a1":"78","a2":"11153165","a3":"2291665"},"meta":{"pop":"1092","dem":"641","tz":"Africa/Abidjan"}},{"id":"12688030","name":"Yabli-Guinglo","ascii_name":"Yabli-Guinglo","lat":"7.02942","lon":"-7.45184","country":"CI","lastUpdated":"2023-12-22","type":{"class":"P","code":"PPL"},"region":{"a1":"78","a2":"11153164","a3":"2292178"},"meta":{"pop":"1097","dem":"305","tz":"Africa/Abidjan"}},{"id":"12688031","name":"Zétrozon","ascii_name":"Zetrozon","lat":"7.04853","lon":"-7.16985","country":"CI","lastUpdated":"2023-12-22","type":{"class":"P","code":"PPL"},"region":{"a1":"78","a2":"11153164","a3":"2292178"},"meta":{"pop":"1149","dem":"304","tz":"Africa/Abidjan"}},{"id":"12688032","name":"Vapleu","ascii_name":"Vapleu","lat":"6.82515","lon":"-8.26864","country":"CI","lastUpdated":"2023-12-22","type":{"class":"P","code":"PPL"},"region":{"a1":"78","a2":"11153165","a3":"11153414"},"meta":{"pop":"1151","dem":"247","tz":"Africa/Abidjan"}},{"id":"12688033","name":"Gaoya","ascii_name":"Gaoya","lat":"7.09152","lon":"-7.40563","country":"CI","lastUpdated":"2023-12-22","type":{"class":"P","code":"PPL"},"region":{"a1":"78","a2":"11153164","a3":"2292178"},"meta":{"pop":"1174","dem":"318","tz":"Africa/Abidjan"}},{"id":"12688034","name":"Déagbangompleu","ascii_name":"Deagbangompleu","lat":"6.99812","lon":"-8.12953","country":"CI","lastUpdated":"2023-12-22","type":{"class":"P","code":"PPL"},"region":{"a1":"78","a2":"11153165","a3":"11153414"},"meta":{"pop":"1179","dem":"304","tz":"Africa/Abidjan"}},{"id":"12688035","name":"Yrougouin","ascii_name":"Yrougouin","lat":"7.64101","lon":"-7.60762","country":"CI","lastUpdated":"2023-12-22","type":{"class":"P","code":"PPL"},"region":{"a1":"78","a2":"11153165","a3":"2291665"},"meta":{"pop":"1187","dem":"526","tz":"Africa/Abidjan"}},{"id":"12688036","name":"Guinglo-Ville","ascii_name":"Guinglo-Ville","lat":"7.18774","lon":"-7.40883","country":"CI","lastUpdated":"2023-12-22","type":{"class":"P","code":"PPL"},"region":{"a1":"78","a2":"11153164","a3":"11153313"},"meta":{"pop":"1214","dem":"303","tz":"Africa/Abidjan"}},{"id":"12688037","name":"Oulayably","ascii_name":"Oulayably","lat":"7.28267","lon":"-7.45865","country":"CI","lastUpdated":"2023-12-22","type":{"class":"P","code":"PPL"},"region":{"a1":"78","a2":"11153164","a3":"11153313"},"meta":{"pop":"1215","dem":"348","tz":"Africa/Abidjan"}},{"id":"12688039","name":"Oulaï","ascii_name":"Oulai","lat":"7.21003","lon":"-7.78599","country":"CI","lastUpdated":"2023-12-22","type":{"class":"P","code":"PPL"},"region":{"a1":"78","a2":"11153165","a3":"2284646"},"meta":{"pop":"1236","dem":"304","tz":"Africa/Abidjan"}},{"id":"12688040","name":"Gohouo-Zibiao","ascii_name":"Gohouo-Zibiao","lat":"7.23022","lon":"-7.35852","country":"CI","lastUpdated":"2023-12-22","type":{"class":"P","code":"PPL"},"region":{"a1":"78","a2":"11153164","a3":"2292178"},"meta":{"pop":"1240","dem":"283","tz":"Africa/Abidjan"}},{"id":"12688041","name":"Béoua-Zarabaon","ascii_name":"Beoua-Zarabaon","lat":"6.99964","lon":"-7.81964","country":"CI","lastUpdated":"2023-12-22","type":{"class":"P","code":"PPL"},"region":{"a1":"78","a2":"11153164","a3":"2292178"},"meta":{"pop":"1258","dem":"302","tz":"Africa/Abidjan"}},{"id":"12688042","name":"Tobly","ascii_name":"Tobly","lat":"7.25778","lon":"-7.19347","country":"CI","lastUpdated":"2023-12-22","type":{"class":"P","code":"PPL"},"region":{"a1":"78","a2":"11153164","a3":"11153313"},"meta":{"pop":"1271","dem":"294","tz":"Africa/Abidjan"}},{"id":"12688043","name":"Port-Gentil","ascii_name":"Port-Gentil","lat":"5.75623","lon":"-7.39538","country":"CI","lastUpdated":"2023-12-22","type":{"class":"P","code":"PPL"},"region":{"a1":"78","a2":"11153163","a3":"11153402"},"meta":{"pop":"1301","dem":"152","tz":"Africa/Abidjan"}},{"id":"12688044","name":"Gbadrou","ascii_name":"Gbadrou","lat":"7.36097","lon":"-7.46849","country":"CI","lastUpdated":"2023-12-22","type":{"class":"P","code":"PPL"},"region":{"a1":"78","a2":"11153164","a3":"11153296"},"meta":{"pop":"1302","dem":"458","tz":"Africa/Abidjan"}},{"id":"12688045","name":"Gbézio","ascii_name":"Gbezio","lat":"7.39832","lon":"-7.32613","country":"CI","lastUpdated":"2023-12-22","type":{"class":"P","code":"PPL"},"region":{"a1":"78","a2":"11153164","a3":"11153296"},"meta":{"pop":"1315","dem":"304","tz":"Africa/Abidjan"}},{"id":"12688046","name":"Yabligué","ascii_name":"Yabligue","lat":"7.02834","lon":"-7.41144","country":"CI","lastUpdated":"2023-12-22","type":{"class":"P","code":"PPL"},"region":{"a1":"78","a2":"11153164","a3":"2292178"},"meta":{"pop":"1320","dem":"328","tz":"Africa/Abidjan"}},{"id":"12688047","name":"Zou-Yahi","ascii_name":"Zou-Yahi","lat":"6.3304","lon":"-8.24302","country":"CI","lastUpdated":"2023-12-22","type":{"class":"P","code":"PPL"},"region":{"a1":"78","a2":"11153163","a3":"11072739"},"meta":{"pop":"1324","dem":"237","tz":"Africa/Abidjan"}},{"id":"12688048","name":"Bauhiéleu","ascii_name":"Bauhieleu","lat":"7.00511","lon":"-8.10463","country":"CI","lastUpdated":"2023-12-22","type":{"class":"P","code":"PPL"},"region":{"a1":"78","a2":"11153165","a3":"11153414"},"meta":{"pop":"1330","dem":"305","tz":"Africa/Abidjan"}},{"id":"12688049","name":"Douéné","ascii_name":"Douene","lat":"7.5422","lon":"-7.31873","country":"CI","lastUpdated":"2023-12-22","type":{"class":"P","code":"PPL"},"region":{"a1":"78","a2":"11153165","a3":"2291665"},"meta":{"pop":"1340","dem":"309","tz":"Africa/Abidjan"}},{"id":"12688050","name":"Oulaï-Taibli","ascii_name":"Oulai-Taibli","lat":"6.36017","lon":"-8.12373","country":"CI","lastUpdated":"2023-12-22","type":{"class":"P","code":"PPL"},"region":{"a1":"78","a2":"11153163","a3":"11072739"},"meta":{"pop":"1345","dem":"346","tz":"Africa/Abidjan"}},{"id":"12688051","name":"Goénié","ascii_name":"Goenie","lat":"7.10519","lon":"-7.4715","country":"CI","lastUpdated":"2023-12-22","type":{"class":"P","code":"PPL"},"region":{"a1":"78","a2":"11153164","a3":"2292178"},"meta":{"pop":"1379","dem":"304","tz":"Africa/Abidjan"}},{"id":"12688052","name":"Guékpé","ascii_name":"Guekpe","lat":"7.20211","lon":"-7.39358","country":"CI","lastUpdated":"2023-12-22","type":{"class":"P","code":"PPL"},"region":{"a1":"78","a2":"11153164","a3":"2292178"},"meta":{"pop":"1492","dem":"304","tz":"Africa/Abidjan"}},{"id":"12688053","name":"Bouébly","ascii_name":"Bouebly","lat":"7.21268","lon":"-7.21138","country":"CI","lastUpdated":"2023-12-22","type":{"class":"P","code":"PPL"},"region":{"a1":"78","a2":"11153164","a3":"11153313"},"meta":{"pop":"1512","dem":"263","tz":"Africa/Abidjan"}},{"id":"12688054","name":"Zagoué-Guiané","ascii_name":"Zagoue-Guiane","lat":"7.86789","lon":"-7.43064","country":"CI","lastUpdated":"2023-12-22","type":{"class":"P","code":"PPL"},"region":{"a1":"78","a2":"11153165","a3":"2291665"},"meta":{"pop":"1521","dem":"572","tz":"Africa/Abidjan"}},{"id":"12688055","name":"Nénady-Tébao","ascii_name":"Nenady-Tebao","lat":"7.30591","lon":"-7.37561","country":"CI","lastUpdated":"2023-12-22","type":{"class":"P","code":"PPL"},"region":{"a1":"78","a2":"11153164","a3":"11153313"},"meta":{"pop":"1556","dem":"303","tz":"Africa/Abidjan"}},{"id":"12688056","name":"Kahen-Zagna","ascii_name":"Kahen-Zagna","lat":"6.97427","lon":"-7.54724","country":"CI","lastUpdated":"2023-12-22","type":{"class":"P","code":"PPL"},"region":{"a1":"78","a2":"11153164","a3":"2292178"},"meta":{"pop":"1593","dem":"352","tz":"Africa/Abidjan"}},{"id":"12688057","name":"Ity","ascii_name":"Ity","lat":"6.88388","lon":"-8.1191","country":"CI","lastUpdated":"2023-12-22","type":{"class":"P","code":"PPL"},"region":{"a1":"78","a2":"11153165","a3":"11153414"},"meta":{"pop":"1595","dem":"344","tz":"Africa/Abidjan"}},{"id":"12688058","name":"Gan-Houyé","ascii_name":"Gan-Houye","lat":"6.74898","lon":"-8.33725","country":"CI","lastUpdated":"2023-12-22","type":{"class":"P","code":"PPL"},"region":{"a1":"78","a2":"11153165","a3":"11153414"},"meta":{"pop":"1607","dem":"204","tz":"Africa/Abidjan"}},{"id":"12688059","name":"Tiédrou","ascii_name":"Tiedrou","lat":"7.41002","lon":"-7.39767","country":"CI","lastUpdated":"2023-12-22","type":{"class":"P","code":"PPL"},"region":{"a1":"78","a2":"11153164","a3":"11153296"},"meta":{"pop":"1611","dem":"364","tz":"Africa/Abidjan"}},{"id":"12688060","name":"Datouzon","ascii_name":"Datouzon","lat":"7.28136","lon":"-7.35877","country":"CI","lastUpdated":"2023-12-22","type":{"class":"P","code":"PPL"},"region":{"a1":"78","a2":"11153164","a3":"11153313"},"meta":{"pop":"1625","dem":"304","tz":"Africa/Abidjan"}},{"id":"12688061","name":"Nénady-Kirou","ascii_name":"Nenady-Kirou","lat":"7.20816","lon":"-7.41538","country":"CI","lastUpdated":"2023-12-22","type":{"class":"P","code":"PPL"},"region":{"a1":"78","a2":"11153164","a3":"11153313"},"meta":{"pop":"1785","dem":"302","tz":"Africa/Abidjan"}},{"id":"12688062","name":"Gaba","ascii_name":"Gaba","lat":"7.99549","lon":"-8.0033","country":"CI","lastUpdated":"2023-12-22","type":{"class":"P","code":"PPL"},"region":{"a1":"78","a2":"11153165","a3":"11153400"},"meta":{"pop":"1805","dem":"463","tz":"Africa/Abidjan"}},{"id":"12688063","name":"Natta-Nord","ascii_name":"Natta-Nord","lat":"6.93605","lon":"-8.10497","country":"CI","lastUpdated":"2023-12-22","type":{"class":"P","code":"PPL"},"region":{"a1":"78","a2":"11153165","a3":"11153414"},"meta":{"pop":"1807","dem":"297","tz":"Africa/Abidjan"}},{"id":"12688064","name":"Biélé","ascii_name":"Biele","lat":"7.58282","lon":"-7.62268","country":"CI","lastUpdated":"2023-12-22","type":{"class":"P","code":"PPL"},"region":{"a1":"78","a2":"11153165","a3":"2284646"},"meta":{"pop":"1857","dem":"641","tz":"Africa/Abidjan"}},{"id":"12688065","name":"Guinglo-Gbéan","ascii_name":"Guinglo-Gbean","lat":"7.27103","lon":"-7.32255","country":"CI","lastUpdated":"2023-12-22","type":{"class":"P","code":"PPL"},"region":{"a1":"78","a2":"11153164","a3":"11153313"},"meta":{"pop":"1915","dem":"342","tz":"Africa/Abidjan"}},{"id":"12688066","name":"Gnoahé","ascii_name":"Gnoahe","lat":"7.26941","lon":"-7.30516","country":"CI","lastUpdated":"2023-12-22","type":{"class":"P","code":"PPL"},"region":{"a1":"78","a2":"11153164","a3":"11153313"},"meta":{"pop":"2005","dem":"376","tz":"Africa/Abidjan"}},{"id":"12688067","name":"Béon-Gohouo","ascii_name":"Beon-Gohouo","lat":"6.98648","lon":"-7.56882","country":"CI","lastUpdated":"2023-12-22","type":{"class":"P","code":"PPL"},"region":{"a1":"78","a2":"11153164","a3":"2292178"},"meta":{"pop":"2093","dem":"305","tz":"Africa/Abidjan"}},{"id":"12688068","name":"Petit-Guiglo","ascii_name":"Petit-Guiglo","lat":"6.35186","lon":"-8.21802","country":"CI","lastUpdated":"2023-12-22","type":{"class":"P","code":"PPL"},"region":{"a1":"78","a2":"11153163","a3":"11072739"},"meta":{"pop":"2337","dem":"242","tz":"Africa/Abidjan"}},{"id":"12688069","name":"Kokialo","ascii_name":"Kokialo","lat":"8.01337","lon":"-7.41416","country":"CI","lastUpdated":"2023-12-22","type":{"class":"P","code":"PPL"},"region":{"a1":"78","a2":"11153165","a3":"2291665"},"meta":{"pop":"2168","dem":"586","tz":"Africa/Abidjan"}},{"id":"12688070","name":"Kpanpleu-Sin-Houyé","ascii_name":"Kpanpleu-Sin-Houye","lat":"7.32853","lon":"-8.31208","country":"CI","lastUpdated":"2023-12-22","type":{"class":"P","code":"PPL"},"region":{"a1":"78","a2":"11153165","a3":"2290461"},"meta":{"pop":"2186","dem":"304","tz":"Africa/Abidjan"}},{"id":"12688071","name":"Goueupouta","ascii_name":"Goueupouta","lat":"7.49021","lon":"-8.19879","country":"CI","lastUpdated":"2023-12-22","type":{"class":"P","code":"PPL"},"region":{"a1":"78","a2":"11153165","a3":"2290461"},"meta":{"pop":"2205","dem":"423","tz":"Africa/Abidjan"}},{"id":"12688072","name":"Douédy","ascii_name":"Douedy","lat":"7.3592","lon":"-7.30992","country":"CI","lastUpdated":"2023-12-22","type":{"class":"P","code":"PPL"},"region":{"a1":"78","a2":"11153164","a3":"11153296"},"meta":{"pop":"2212","dem":"411","tz":"Africa/Abidjan"}},{"id":"12688073","name":"Gninglé","ascii_name":"Gningle","lat":"7.59926","lon":"-7.27571","country":"CI","lastUpdated":"2023-12-22","type":{"class":"P","code":"PPL"},"region":{"a1":"78","a2":"11153165","a3":"2291665"},"meta":{"pop":"2228","dem":"302","tz":"Africa/Abidjan"}},{"id":"12688074","name":"Tiény-Séably","ascii_name":"Tieny-Seably","lat":"7.37758","lon":"-7.4544","country":"CI","lastUpdated":"2023-12-22","type":{"class":"P","code":"PPL"},"region":{"a1":"78","a2":"11153164","a3":"11153296"},"meta":{"pop":"2310","dem":"466","tz":"Africa/Abidjan"}},{"id":"12688075","name":"Souampleu","ascii_name":"Souampleu","lat":"7.01152","lon":"-8.03802","country":"CI","lastUpdated":"2023-12-22","type":{"class":"P","code":"PPL"},"region":{"a1":"78","a2":"11153165","a3":"11153414"},"meta":{"pop":"2335","dem":"298","tz":"Africa/Abidjan"}},{"id":"12688076","name":"Dédjan","ascii_name":"Dedjan","lat":"6.3838","lon":"-8.21473","country":"CI","lastUpdated":"2023-12-22","type":{"class":"P","code":"PPL"},"region":{"a1":"78","a2":"11153163","a3":"11072739"},"meta":{"pop":"2447","dem":"254","tz":"Africa/Abidjan"}},{"id":"12688077","name":"Tiébly","ascii_name":"Tiebly","lat":"7.49445","lon":"-7.20816","country":"CI","lastUpdated":"2023-12-22","type":{"class":"P","code":"PPL"},"region":{"a1":"78","a2":"11153164","a3":"11153296"},"meta":{"pop":"2465","dem":"283","tz":"Africa/Abidjan"}},{"id":"12688078","name":"Nézobly","ascii_name":"Nezobly","lat":"6.59965","lon":"-8.47264","country":"CI","lastUpdated":"2023-12-22","type":{"class":"P","code":"PPL"},"region":{"a1":"78","a2":"11153163","a3":"2595343"},"meta":{"pop":"2477","dem":"282","tz":"Africa/Abidjan"}},{"id":"12688079","name":"Bouobly","ascii_name":"Bouobly","lat":"7.13213","lon":"-7.26981","country":"CI","lastUpdated":"2023-12-22","type":{"class":"P","code":"PPL"},"region":{"a1":"78","a2":"11153164","a3":"2292178"},"meta":{"pop":"2485","dem":"298","tz":"Africa/Abidjan"}},{"id":"12688080","name":"Séhoun-Guiglo","ascii_name":"Sehoun-Guiglo","lat":"6.89638","lon":"-7.53724","country":"CI","lastUpdated":"2023-12-22","type":{"class":"P","code":"PPL"},"region":{"a1":"78","a2":"11153164","a3":"2289548"},"meta":{"pop":"2547","dem":"281","tz":"Africa/Abidjan"}},{"id":"12688081","name":"Séably","ascii_name":"Seably","lat":"7.22651","lon":"-7.21372","country":"CI","lastUpdated":"2023-12-22","type":{"class":"P","code":"PPL"},"region":{"a1":"78","a2":"11153164","a3":"11153313"},"meta":{"pop":"2582","dem":"292","tz":"Africa/Abidjan"}},{"id":"12688082","name":"Siébly","ascii_name":"Siebly","lat":"7.29532","lon":"-7.22364","country":"CI","lastUpdated":"2023-12-22","type":{"class":"P","code":"PPL"},"region":{"a1":"78","a2":"11153164","a3":"11153313"},"meta":{"pop":"2767","dem":"304","tz":"Africa/Abidjan"}},{"id":"12688083","name":"Blita","ascii_name":"Blita","lat":"7.52791","lon":"-7.94613","country":"CI","lastUpdated":"2023-12-22","type":{"class":"P","code":"PPL"},"region":{"a1":"78","a2":"11153165","a3":"2291665"},"meta":{"pop":"2811","dem":"589","tz":"Africa/Abidjan"}},{"id":"12688084","name":"Pona-Ouinlo","ascii_name":"Pona-Ouinlo","lat":"6.74087","lon":"-7.05958","country":"CI","lastUpdated":"2023-12-22","type":{"class":"P","code":"PPL"},"region":{"a1":"78","a2":"11153164","a3":"2289548"},"meta":{"pop":"2814","dem":"208","tz":"Africa/Abidjan"}},{"id":"12688085","name":"Kordrou","ascii_name":"Kordrou","lat":"7.31406","lon":"-7.33776","country":"CI","lastUpdated":"2023-12-22","type":{"class":"P","code":"PPL"},"region":{"a1":"78","a2":"11153164","a3":"11153313"},"meta":{"pop":"2977","dem":"325","tz":"Africa/Abidjan"}},{"id":"12688086","name":"Bieutouo","ascii_name":"Bieutouo","lat":"6.90177","lon":"-8.21362","country":"CI","lastUpdated":"2023-12-22","type":{"class":"P","code":"PPL"},"region":{"a1":"78","a2":"11153165","a3":"11153414"},"meta":{"pop":"2994","dem":"365","tz":"Africa/Abidjan"}},{"id":"12688087","name":"Trokpadrou","ascii_name":"Trokpadrou","lat":"7.32196","lon":"-7.47078","country":"CI","lastUpdated":"2023-12-22","type":{"class":"P","code":"PPL"},"region":{"a1":"78","a2":"11153164","a3":"11153313"},"meta":{"pop":"3124","dem":"382","tz":"Africa/Abidjan"}},{"id":"12688088","name":"Grand","ascii_name":"Grand","lat":"7.00857","lon":"-7.40793","country":"CI","lastUpdated":"2023-12-22","type":{"class":"P","code":"PPL"},"region":{"a1":"78","a2":"11153164","a3":"2292178"},"meta":{"pop":"3633","dem":"306","tz":"Africa/Abidjan"}},{"id":"12688089","name":"Diébly","ascii_name":"Diebly","lat":"7.10352","lon":"-7.22019","country":"CI","lastUpdated":"2023-12-22","type":{"class":"P","code":"PPL"},"region":{"a1":"78","a2":"11153164","a3":"2292178"},"meta":{"pop":"4529","dem":"484","tz":"Africa/Abidjan"}},{"id":"12688090","name":"Péhê-Zarabaon","ascii_name":"Pehe-Zarabaon","lat":"6.92937","lon":"-7.76294","country":"CI","lastUpdated":"2023-12-22","type":{"class":"P","code":"PPL"},"region":{"a1":"78","a2":"11153164","a3":"2292178"},"meta":{"pop":"4553","dem":"253","tz":"Africa/Abidjan"}},{"id":"12688091","name":"Gréikro","ascii_name":"Greikro","lat":"6.81693","lon":"-7.05859","country":"CI","lastUpdated":"2023-12-22","type":{"class":"P","code":"PPL"},"region":{"a1":"78","a2":"11153164","a3":"2289548"},"meta":{"pop":"5007","dem":"205","tz":"Africa/Abidjan"}},{"id":"12688092","name":"Nané","ascii_name":"Nane","lat":"7.68757","lon":"-7.18685","country":"CI","lastUpdated":"2023-12-22","type":{"class":"P","code":"PPL"},"region":{"a1":"78","a2":"11153165","a3":"2291665"},"meta":{"pop":"5080","dem":"337","tz":"Africa/Abidjan"}},{"id":"12688093","name":"Pagnébly","ascii_name":"Pagnebly","lat":"7.24845","lon":"-7.13249","country":"CI","lastUpdated":"2023-12-22","type":{"class":"P","code":"PPL"},"region":{"a1":"78","a2":"11153164","a3":"11153313"},"meta":{"pop":"5190","dem":"223","tz":"Africa/Abidjan"}},{"id":"12688094","name":"Kéiténably","ascii_name":"Keitenably","lat":"7.26047","lon":"-7.33748","country":"CI","lastUpdated":"2023-12-22","type":{"class":"P","code":"PPL"},"region":{"a1":"78","a2":"11153164","a3":"11153313"},"meta":{"pop":"5314","dem":"299","tz":"Africa/Abidjan"}},{"id":"12688095","name":"Douékpé","ascii_name":"Douekpe","lat":"7.1362","lon":"-7.32839","country":"CI","lastUpdated":"2023-12-22","type":{"class":"P","code":"PPL"},"region":{"a1":"78","a2":"11153164","a3":"2292178"},"meta":{"pop":"5511","dem":"304","tz":"Africa/Abidjan"}},{"id":"12688096","name":"Gohouo-Zarabaon","ascii_name":"Gohouo-Zarabaon","lat":"7.00374","lon":"-7.7499","country":"CI","lastUpdated":"2023-12-22","type":{"class":"P","code":"PPL"},"region":{"a1":"78","a2":"11153164","a3":"2292178"},"meta":{"pop":"6160","dem":"298","tz":"Africa/Abidjan"}},{"id":"12688097","name":"Pona-Vahi","ascii_name":"Pona-Vahi","lat":"6.94692","lon":"-7.16088","country":"CI","lastUpdated":"2023-12-22","type":{"class":"P","code":"PPL"},"region":{"a1":"78","a2":"11153164","a3":"2289548"},"meta":{"pop":"6333","dem":"232","tz":"Africa/Abidjan"}},{"id":"12688098","name":"Zaodrou","ascii_name":"Zaodrou","lat":"7.15835","lon":"-7.1848","country":"CI","lastUpdated":"2023-12-22","type":{"class":"P","code":"PPL"},"region":{"a1":"78","a2":"11153164","a3":"2292178"},"meta":{"pop":"6865","dem":"263","tz":"Africa/Abidjan"}},{"id":"12688099","name":"Kéibly","ascii_name":"Keibly","lat":"5.99636","lon":"-7.4726","country":"CI","lastUpdated":"2023-12-22","type":{"class":"P","code":"PPL"},"region":{"a1":"78","a2":"11153163","a3":"11153402"},"meta":{"pop":"7654","dem":"158","tz":"Africa/Abidjan"}},{"id":"12688100","name":"Tié-Iné","ascii_name":"Tie-Ine","lat":"6.90141","lon":"-7.59785","country":"CI","lastUpdated":"2023-12-22","type":{"class":"P","code":"PPL"},"region":{"a1":"78","a2":"11153164","a3":"2292178"},"meta":{"pop":"8169","dem":"249","tz":"Africa/Abidjan"}},{"id":"12688101","name":"Gonié-Tahouaké","ascii_name":"Gonie-Tahouake","lat":"7.13159","lon":"-7.29997","country":"CI","lastUpdated":"2023-12-22","type":{"class":"P","code":"PPL"},"region":{"a1":"78","a2":"11153164","a3":"2292178"},"meta":{"pop":"8333","dem":"305","tz":"Africa/Abidjan"}},{"id":"12688102","name":"Doumbiadougou","ascii_name":"Doumbiadougou","lat":"6.60253","lon":"-7.31889","country":"CI","lastUpdated":"2023-12-22","type":{"class":"P","code":"PPL"},"region":{"a1":"78","a2":"11153164","a3":"2289548"},"meta":{"pop":"8595","dem":"268","tz":"Africa/Abidjan"}},{"id":"12688103","name":"Gourané","ascii_name":"Gourane","lat":"7.61198","lon":"-7.2986","country":"CI","lastUpdated":"2023-12-22","type":{"class":"P","code":"PPL"},"region":{"a1":"78","a2":"11153165","a3":"2291665"},"meta":{"pop":"10029","dem":"455","tz":"Africa/Abidjan"}},{"id":"12688104","name":"Tacourably","ascii_name":"Tacourably","lat":"7.2551","lon":"-7.17898","country":"CI","lastUpdated":"2023-12-22","type":{"class":"P","code":"PPL"},"region":{"a1":"78","a2":"11153164","a3":"11153313"},"meta":{"pop":"10160","dem":"283","tz":"Africa/Abidjan"}},{"id":"12688105","name":"Guézon-Tahouaké","ascii_name":"Guezon-Tahouake","lat":"7.0761","lon":"-7.18719","country":"CI","lastUpdated":"2023-12-22","type":{"class":"P","code":"PPL"},"region":{"a1":"78","a2":"11153164","a3":"2292178"},"meta":{"pop":"11438","dem":"603","tz":"Africa/Abidjan"}},{"id":"12688131","name":"Liadjénoufla","ascii_name":"Liadjenoufla","lat":"6.81109","lon":"-5.7775","country":"CI","lastUpdated":"2023-12-22","type":{"class":"P","code":"PPL"},"region":{"a1":"96","a2":"11153167","a3":"2290963"},"meta":{"pop":"4569","dem":"228","tz":"Africa/Abidjan"}},{"id":"12688138","name":"Séizra","ascii_name":"Seizra","lat":"7.52034","lon":"-6.18431","country":"CI","lastUpdated":"2023-12-22","type":{"class":"P","code":"PPL"},"region":{"a1":"96","a2":"11153167","a3":"2279171"},"meta":{"pop":"1564","dem":"239","tz":"Africa/Abidjan"}},{"id":"12688149","name":"Nadigbeu","ascii_name":"Nadigbeu","lat":"6.75631","lon":"-6.90695","country":"CI","lastUpdated":"2023-12-22","type":{"class":"P","code":"PPL"},"region":{"a1":"96","a2":"11153166","a3":"11153415"},"meta":{"pop":"1026","dem":"230","tz":"Africa/Abidjan"}},{"id":"12688150","name":"Kouassi-Périta","ascii_name":"Kouassi-Perita","lat":"6.93597","lon":"-5.6435","country":"CI","lastUpdated":"2023-12-22","type":{"class":"P","code":"PPL"},"region":{"a1":"96","a2":"11153167","a3":"2290963"},"meta":{"pop":"1026","dem":"213","tz":"Africa/Abidjan"}},{"id":"12688151","name":"Blablata","ascii_name":"Blablata","lat":"7.28616","lon":"-6.2456","country":"CI","lastUpdated":"2023-12-22","type":{"class":"P","code":"PPL"},"region":{"a1":"96","a2":"11153167","a3":"2279171"},"meta":{"pop":"5260","dem":"297","tz":"Africa/Abidjan"}},{"id":"12688152","name":"Pouézra","ascii_name":"Pouezra","lat":"7.43398","lon":"-6.22133","country":"CI","lastUpdated":"2023-12-22","type":{"class":"P","code":"PPL"},"region":{"a1":"96","a2":"11153167","a3":"2279171"},"meta":{"pop":"1068","dem":"220","tz":"Africa/Abidjan"}},{"id":"12688153","name":"Nadiéta","ascii_name":"Nadieta","lat":"6.5717","lon":"-5.82141","country":"CI","lastUpdated":"2023-12-22","type":{"class":"P","code":"PPL"},"region":{"a1":"96","a2":"11153167","a3":"2281605"},"meta":{"pop":"1095","dem":"228","tz":"Africa/Abidjan"}},{"id":"12688154","name":"Pakogui","ascii_name":"Pakogui","lat":"6.99909","lon":"-5.63092","country":"CI","lastUpdated":"2023-12-22","type":{"class":"P","code":"PPL"},"region":{"a1":"96","a2":"11153167","a3":"2290963"},"meta":{"pop":"1100","dem":"337","tz":"Africa/Abidjan"}},{"id":"12688155","name":"Zroninfla","ascii_name":"Zroninfla","lat":"7.74675","lon":"-7.00166","country":"CI","lastUpdated":"2023-12-22","type":{"class":"P","code":"PPL"},"region":{"a1":"96","a2":"11153166","a3":"2280044"},"meta":{"pop":"1112","dem":"295","tz":"Africa/Abidjan"}},{"id":"12688156","name":"Dimata","ascii_name":"Dimata","lat":"7.53137","lon":"-6.36337","country":"CI","lastUpdated":"2023-12-22","type":{"class":"P","code":"PPL"},"region":{"a1":"96","a2":"11153166","a3":"2280044"},"meta":{"pop":"1126","dem":"286","tz":"Africa/Abidjan"}},{"id":"12688157","name":"Brouzra","ascii_name":"Brouzra","lat":"7.65656","lon":"-5.94004","country":"CI","lastUpdated":"2023-12-22","type":{"class":"P","code":"PPL"},"region":{"a1":"96","a2":"11153167","a3":"2279171"},"meta":{"pop":"1139","dem":"228","tz":"Africa/Abidjan"}},{"id":"12688158","name":"Drikouaïfla","ascii_name":"Drikouaifla","lat":"7.4267","lon":"-6.00803","country":"CI","lastUpdated":"2023-12-22","type":{"class":"P","code":"PPL"},"region":{"a1":"96","a2":"11153167","a3":"2279171"},"meta":{"pop":"1166","dem":"227","tz":"Africa/Abidjan"}},{"id":"12688159","name":"Zegata-Gouro","ascii_name":"Zegata-Gouro","lat":"6.79198","lon":"-6.05655","country":"CI","lastUpdated":"2023-12-22","type":{"class":"P","code":"PPL"},"region":{"a1":"96","a2":"11153167","a3":"2290963"},"meta":{"pop":"1169","dem":"294","tz":"Africa/Abidjan"}},{"id":"12688160","name":"N'Gattakro","ascii_name":"N'Gattakro","lat":"6.94739","lon":"-5.72303","country":"CI","lastUpdated":"2023-12-22","type":{"class":"P","code":"PPL"},"region":{"a1":"96","a2":"11153167","a3":"2290963"},"meta":{"pop":"1177","dem":"162","tz":"Africa/Abidjan"}},{"id":"12688161","name":"Wandaguhé","ascii_name":"Wandaguhe","lat":"6.81903","lon":"-6.42855","country":"CI","lastUpdated":"2023-12-22","type":{"class":"P","code":"PPL"},"region":{"a1":"96","a2":"11153166","a3":"2290485"},"meta":{"pop":"1234","dem":"289","tz":"Africa/Abidjan"}},{"id":"12688162","name":"Kouablazra","ascii_name":"Kouablazra","lat":"7.28026","lon":"-6.24726","country":"CI","lastUpdated":"2023-12-22","type":{"class":"P","code":"PPL"},"region":{"a1":"96","a2":"11153167","a3":"2279171"},"meta":{"pop":"1284","dem":"302","tz":"Africa/Abidjan"}},{"id":"12688163","name":"Balam","ascii_name":"Balam","lat":"6.50894","lon":"-6.29244","country":"CI","lastUpdated":"2023-12-22","type":{"class":"P","code":"PPL"},"region":{"a1":"96","a2":"11153166","a3":"2287789"},"meta":{"pop":"1339","dem":"267","tz":"Africa/Abidjan"}},{"id":"12688164","name":"Kongo","ascii_name":"Kongo","lat":"6.98723","lon":"-5.69532","country":"CI","lastUpdated":"2023-12-22","type":{"class":"P","code":"PPL"},"region":{"a1":"96","a2":"11153167","a3":"2290963"},"meta":{"pop":"1354","dem":"179","tz":"Africa/Abidjan"}},{"id":"12688165","name":"Gogoguhé","ascii_name":"Gogoguhe","lat":"6.66028","lon":"-6.42073","country":"CI","lastUpdated":"2023-12-22","type":{"class":"P","code":"PPL"},"region":{"a1":"96","a2":"11153166","a3":"2287789"},"meta":{"pop":"2488","dem":"225","tz":"Africa/Abidjan"}},{"id":"12688166","name":"Kridakozahio","ascii_name":"Kridakozahio","lat":"6.35405","lon":"-6.21608","country":"CI","lastUpdated":"2023-12-22","type":{"class":"P","code":"PPL"},"region":{"a1":"96","a2":"11153166","a3":"2287789"},"meta":{"pop":"1650","dem":"229","tz":"Africa/Abidjan"}},{"id":"12688167","name":"Allangba-Konankro","ascii_name":"Allangba-Konankro","lat":"6.94754","lon":"-5.76453","country":"CI","lastUpdated":"2023-12-22","type":{"class":"P","code":"PPL"},"region":{"a1":"96","a2":"11153167","a3":"2290963"},"meta":{"pop":"1650","dem":"165","tz":"Africa/Abidjan"}},{"id":"12688169","name":"Guédiboua","ascii_name":"Guediboua","lat":"6.73463","lon":"-6.52825","country":"CI","lastUpdated":"2023-12-22","type":{"class":"P","code":"PPL"},"region":{"a1":"96","a2":"11153166","a3":"2290485"},"meta":{"pop":"1725","dem":"321","tz":"Africa/Abidjan"}},{"id":"12688170","name":"Zézra","ascii_name":"Zezra","lat":"7.69136","lon":"-6.50621","country":"CI","lastUpdated":"2023-12-22","type":{"class":"P","code":"PPL"},"region":{"a1":"96","a2":"11153166","a3":"2280044"},"meta":{"pop":"1755","dem":"294","tz":"Africa/Abidjan"}},{"id":"12688171","name":"Binoufla","ascii_name":"Binoufla","lat":"6.67386","lon":"-5.88426","country":"CI","lastUpdated":"2023-12-22","type":{"class":"P","code":"PPL"},"region":{"a1":"96","a2":"11153167","a3":"2281605"},"meta":{"pop":"1785","dem":"221","tz":"Africa/Abidjan"}},{"id":"12688172","name":"Kaya-Ziduho","ascii_name":"Kaya-Ziduho","lat":"7.40932","lon":"-6.04822","country":"CI","lastUpdated":"2023-12-22","type":{"class":"P","code":"PPL"},"region":{"a1":"96","a2":"11153167","a3":"2279171"},"meta":{"pop":"1788","dem":"210","tz":"Africa/Abidjan"}},{"id":"12688173","name":"Gonazofla","ascii_name":"Gonazofla","lat":"6.63577","lon":"-6.11557","country":"CI","lastUpdated":"2023-12-22","type":{"class":"P","code":"PPL"},"region":{"a1":"96","a2":"11153167","a3":"2281605"},"meta":{"pop":"1809","dem":"255","tz":"Africa/Abidjan"}},{"id":"12688174","name":"Kibouo","ascii_name":"Kibouo","lat":"6.82898","lon":"-6.51516","country":"CI","lastUpdated":"2023-12-22","type":{"class":"P","code":"PPL"},"region":{"a1":"96","a2":"11153166","a3":"2290485"},"meta":{"pop":"1884","dem":"306","tz":"Africa/Abidjan"}},{"id":"12688175","name":"Diloboua","ascii_name":"Diloboua","lat":"6.53252","lon":"-6.31716","country":"CI","lastUpdated":"2023-12-22","type":{"class":"P","code":"PPL"},"region":{"a1":"96","a2":"11153166","a3":"2287789"},"meta":{"pop":"1913","dem":"253","tz":"Africa/Abidjan"}},{"id":"12688176","name":"Golikro","ascii_name":"Golikro","lat":"7.14498","lon":"-6.1943","country":"CI","lastUpdated":"2023-12-22","type":{"class":"P","code":"PPL"},"region":{"a1":"96","a2":"11153166","a3":"2290485"},"meta":{"pop":"1937","dem":"372","tz":"Africa/Abidjan"}},{"id":"12688177","name":"Gbélibli","ascii_name":"Gbelibli","lat":"6.89387","lon":"-7.02506","country":"CI","lastUpdated":"2023-12-22","type":{"class":"P","code":"PPL"},"region":{"a1":"96","a2":"11153166","a3":"11153415"},"meta":{"pop":"1995","dem":"200","tz":"Africa/Abidjan"}},{"id":"12688178","name":"Bohizra","ascii_name":"Bohizra","lat":"7.48771","lon":"-6.02441","country":"CI","lastUpdated":"2023-12-22","type":{"class":"P","code":"PPL"},"region":{"a1":"96","a2":"11153167","a3":"2279171"},"meta":{"pop":"2032","dem":"218","tz":"Africa/Abidjan"}},{"id":"12688179","name":"Oussou","ascii_name":"Oussou","lat":"6.96527","lon":"-5.79729","country":"CI","lastUpdated":"2023-12-22","type":{"class":"P","code":"PPL"},"region":{"a1":"96","a2":"11153167","a3":"2290963"},"meta":{"pop":"2107","dem":"169","tz":"Africa/Abidjan"}},{"id":"12688180","name":"Yoho","ascii_name":"Yoho","lat":"6.92297","lon":"-5.57969","country":"CI","lastUpdated":"2023-12-22","type":{"class":"P","code":"PPL"},"region":{"a1":"96","a2":"11153167","a3":"2290963"},"meta":{"pop":"2272","dem":"181","tz":"Africa/Abidjan"}},{"id":"12688181","name":"Toutouman","ascii_name":"Toutouman","lat":"7.79249","lon":"-6.61401","country":"CI","lastUpdated":"2023-12-22","type":{"class":"P","code":"PPL"},"region":{"a1":"96","a2":"11153166","a3":"2280044"},"meta":{"pop":"2298","dem":"304","tz":"Africa/Abidjan"}},{"id":"12688182","name":"Benou","ascii_name":"Benou","lat":"6.91719","lon":"-5.83443","country":"CI","lastUpdated":"2023-12-22","type":{"class":"P","code":"PPL"},"region":{"a1":"96","a2":"11153167","a3":"2290963"},"meta":{"pop":"2312","dem":"190","tz":"Africa/Abidjan"}},{"id":"12688183","name":"Kouakou","ascii_name":"Kouakou","lat":"6.99847","lon":"-5.51243","country":"CI","lastUpdated":"2023-12-22","type":{"class":"P","code":"PPL"},"region":{"a1":"96","a2":"11153167","a3":"2290963"},"meta":{"pop":"2374","dem":"212","tz":"Africa/Abidjan"}},{"id":"12688184","name":"Zitta","ascii_name":"Zitta","lat":"6.75073","lon":"-6.91931","country":"CI","lastUpdated":"2023-12-22","type":{"class":"P","code":"PPL"},"region":{"a1":"96","a2":"11153166","a3":"11153415"},"meta":{"pop":"2386","dem":"219","tz":"Africa/Abidjan"}},{"id":"12688185","name":"Baïfla","ascii_name":"Baifla","lat":"7.18266","lon":"-6.30266","country":"CI","lastUpdated":"2023-12-22","type":{"class":"P","code":"PPL"},"region":{"a1":"96","a2":"11153166","a3":"2290485"},"meta":{"pop":"2470","dem":"372","tz":"Africa/Abidjan"}},{"id":"12688186","name":"Ouarébota","ascii_name":"Ouarebota","lat":"6.93295","lon":"-6.01172","country":"CI","lastUpdated":"2023-12-22","type":{"class":"P","code":"PPL"},"region":{"a1":"96","a2":"11153167","a3":"2290963"},"meta":{"pop":"2497","dem":"260","tz":"Africa/Abidjan"}},{"id":"12688187","name":"Trafla-Gottron","ascii_name":"Trafla-Gottron","lat":"7.50372","lon":"-6.37661","country":"CI","lastUpdated":"2023-12-22","type":{"class":"P","code":"PPL"},"region":{"a1":"96","a2":"11153166","a3":"2280044"},"meta":{"pop":"2538","dem":"282","tz":"Africa/Abidjan"}},{"id":"12688188","name":"Akowébo","ascii_name":"Akowebo","lat":"6.94458","lon":"-5.87372","country":"CI","lastUpdated":"2023-12-22","type":{"class":"P","code":"PPL"},"region":{"a1":"96","a2":"11153167","a3":"2290963"},"meta":{"pop":"2726","dem":"190","tz":"Africa/Abidjan"}},{"id":"12688189","name":"Bémadi","ascii_name":"Bemadi","lat":"6.4935","lon":"-6.63674","country":"CI","lastUpdated":"2023-12-22","type":{"class":"P","code":"PPL"},"region":{"a1":"96","a2":"11153166","a3":"2287789"},"meta":{"pop":"2744","dem":"211","tz":"Africa/Abidjan"}},{"id":"12688190","name":"Gokra","ascii_name":"Gokra","lat":"6.68619","lon":"-6.57907","country":"CI","lastUpdated":"2023-12-22","type":{"class":"P","code":"PPL"},"region":{"a1":"96","a2":"11153166","a3":"2290485"},"meta":{"pop":"2805","dem":"295","tz":"Africa/Abidjan"}},{"id":"12688191","name":"Tchébloguhé","ascii_name":"Tchebloguhe","lat":"6.69015","lon":"-6.48741","country":"CI","lastUpdated":"2023-12-22","type":{"class":"P","code":"PPL"},"region":{"a1":"96","a2":"11153166","a3":"2290485"},"meta":{"pop":"2989","dem":"287","tz":"Africa/Abidjan"}},{"id":"12688192","name":"Drékuha","ascii_name":"Drekuha","lat":"6.45828","lon":"-6.7407","country":"CI","lastUpdated":"2023-12-22","type":{"class":"P","code":"PPL"},"region":{"a1":"96","a2":"11153166","a3":"2287789"},"meta":{"pop":"3257","dem":"216","tz":"Africa/Abidjan"}},{"id":"12688193","name":"Bahiry","ascii_name":"Bahiry","lat":"7.30762","lon":"-6.73641","country":"CI","lastUpdated":"2023-12-22","type":{"class":"P","code":"PPL"},"region":{"a1":"96","a2":"11153166","a3":"2280044"},"meta":{"pop":"3745","dem":"268","tz":"Africa/Abidjan"}},{"id":"12688194","name":"N'Dénoukro","ascii_name":"N'Denoukro","lat":"6.90145","lon":"-5.84616","country":"CI","lastUpdated":"2023-12-22","type":{"class":"P","code":"PPL"},"region":{"a1":"96","a2":"11153167","a3":"2290963"},"meta":{"pop":"3745","dem":"195","tz":"Africa/Abidjan"}},{"id":"12688195","name":"Gazibouo","ascii_name":"Gazibouo","lat":"6.36791","lon":"-6.49427","country":"CI","lastUpdated":"2023-12-22","type":{"class":"P","code":"PPL"},"region":{"a1":"96","a2":"11153166","a3":"2287789"},"meta":{"pop":"4043","dem":"202","tz":"Africa/Abidjan"}},{"id":"12688196","name":"Kayéta","ascii_name":"Kayeta","lat":"6.63906","lon":"-5.65406","country":"CI","lastUpdated":"2023-12-22","type":{"class":"P","code":"PPL"},"region":{"a1":"96","a2":"11153167","a3":"2281605"},"meta":{"pop":"4045","dem":"215","tz":"Africa/Abidjan"}},{"id":"12688197","name":"Ouatigbeu","ascii_name":"Ouatigbeu","lat":"6.66836","lon":"-6.89825","country":"CI","lastUpdated":"2023-12-22","type":{"class":"P","code":"PPL"},"region":{"a1":"96","a2":"11153166","a3":"11153415"},"meta":{"pop":"4213","dem":"248","tz":"Africa/Abidjan"}},{"id":"12688198","name":"Domangbeu","ascii_name":"Domangbeu","lat":"6.98467","lon":"-7.01882","country":"CI","lastUpdated":"2023-12-22","type":{"class":"P","code":"PPL"},"region":{"a1":"96","a2":"11153166","a3":"11153415"},"meta":{"pop":"4394","dem":"213","tz":"Africa/Abidjan"}},{"id":"12688199","name":"Nangrékro","ascii_name":"Nangrekro","lat":"6.92853","lon":"-5.86142","country":"CI","lastUpdated":"2023-12-22","type":{"class":"P","code":"PPL"},"region":{"a1":"96","a2":"11153167","a3":"2290963"},"meta":{"pop":"4476","dem":"194","tz":"Africa/Abidjan"}},{"id":"12688200","name":"Litobli","ascii_name":"Litobli","lat":"6.87751","lon":"-7.00803","country":"CI","lastUpdated":"2023-12-22","type":{"class":"P","code":"PPL"},"region":{"a1":"96","a2":"11153166","a3":"11153415"},"meta":{"pop":"4577","dem":"205","tz":"Africa/Abidjan"}},{"id":"12688201","name":"Attossè","ascii_name":"Attosse","lat":"6.8751","lon":"-5.86769","country":"CI","lastUpdated":"2023-12-22","type":{"class":"P","code":"PPL"},"region":{"a1":"96","a2":"11153167","a3":"2290963"},"meta":{"pop":"4701","dem":"207","tz":"Africa/Abidjan"}},{"id":"12688202","name":"Allahou-Bazi","ascii_name":"Allahou-Bazi","lat":"7.03485","lon":"-5.53339","country":"CI","lastUpdated":"2023-12-22","type":{"class":"P","code":"PPL"},"region":{"a1":"96","a2":"11153167","a3":"2290963"},"meta":{"pop":"4767","dem":"263","tz":"Africa/Abidjan"}},{"id":"12688203","name":"Blé","ascii_name":"Ble","lat":"6.82036","lon":"-5.85306","country":"CI","lastUpdated":"2023-12-22","type":{"class":"P","code":"PPL"},"region":{"a1":"96","a2":"11153167","a3":"2290963"},"meta":{"pop":"4831","dem":"232","tz":"Africa/Abidjan"}},{"id":"12688204","name":"Zokoguhé-Didéguhé","ascii_name":"Zokoguhe-Dideguhe","lat":"7.06759","lon":"-6.45901","country":"CI","lastUpdated":"2023-12-22","type":{"class":"P","code":"PPL"},"region":{"a1":"96","a2":"11153166","a3":"2290485"},"meta":{"pop":"5081","dem":"300","tz":"Africa/Abidjan"}},{"id":"12688205","name":"Hallanikro","ascii_name":"Hallanikro","lat":"6.85323","lon":"-5.63957","country":"CI","lastUpdated":"2023-12-22","type":{"class":"P","code":"PPL"},"region":{"a1":"96","a2":"11153167","a3":"2290963"},"meta":{"pop":"5440","dem":"178","tz":"Africa/Abidjan"}},{"id":"12688206","name":"Minfla","ascii_name":"Minfla","lat":"7.52299","lon":"-6.04404","country":"CI","lastUpdated":"2023-12-22","type":{"class":"P","code":"PPL"},"region":{"a1":"96","a2":"11153167","a3":"2279171"},"meta":{"pop":"5602","dem":"215","tz":"Africa/Abidjan"}},{"id":"12688207","name":"Gouriniani","ascii_name":"Gouriniani","lat":"7.20357","lon":"-6.18393","country":"CI","lastUpdated":"2023-12-22","type":{"class":"P","code":"PPL"},"region":{"a1":"96","a2":"11153166","a3":"2290485"},"meta":{"pop":"6320","dem":"386","tz":"Africa/Abidjan"}},{"id":"12688208","name":"Diacohou-Sud","ascii_name":"Diacohou-Sud","lat":"6.78794","lon":"-5.87103","country":"CI","lastUpdated":"2023-12-22","type":{"class":"P","code":"PPL"},"region":{"a1":"96","a2":"11153167","a3":"2290963"},"meta":{"pop":"6900","dem":"228","tz":"Africa/Abidjan"}},{"id":"12688209","name":"Benhuafla","ascii_name":"Benhuafla","lat":"6.59526","lon":"-5.87943","country":"CI","lastUpdated":"2023-12-22","type":{"class":"P","code":"PPL"},"region":{"a1":"96","a2":"11153167","a3":"2281605"},"meta":{"pop":"6926","dem":"235","tz":"Africa/Abidjan"}},{"id":"12688210","name":"Gbéhigbly","ascii_name":"Gbehigbly","lat":"7.25591","lon":"-7.05965","country":"CI","lastUpdated":"2023-12-22","type":{"class":"P","code":"PPL"},"region":{"a1":"96","a2":"11153166","a3":"2280044"},"meta":{"pop":"7285","dem":"206","tz":"Africa/Abidjan"}},{"id":"12688211","name":"N'Douffoukankro","ascii_name":"N'Douffoukankro","lat":"6.8616","lon":"-5.82098","country":"CI","lastUpdated":"2023-12-22","type":{"class":"P","code":"PPL"},"region":{"a1":"96","a2":"11153167","a3":"2290963"},"meta":{"pop":"8025","dem":"204","tz":"Africa/Abidjan"}},{"id":"12688212","name":"Vrouo","ascii_name":"Vrouo","lat":"7.69644","lon":"-6.55352","country":"CI","lastUpdated":"2023-12-22","type":{"class":"P","code":"PPL"},"region":{"a1":"96","a2":"11153166","a3":"2280044"},"meta":{"pop":"17716","dem":"297","tz":"Africa/Abidjan"}},{"id":"12688213","name":"Garango","ascii_name":"Garango","lat":"6.96301","lon":"-5.80875","country":"CI","lastUpdated":"2023-12-22","type":{"class":"P","code":"PPL"},"region":{"a1":"96","a2":"11153167","a3":"2290963"},"meta":{"pop":"8905","dem":"172","tz":"Africa/Abidjan"}},{"id":"12688214","name":"Complexe","ascii_name":"Complexe","lat":"7.60288","lon":"-6.14386","country":"CI","lastUpdated":"2023-12-22","type":{"class":"P","code":"PPL"},"region":{"a1":"96","a2":"11153167","a3":"2279171"},"meta":{"pop":"10366","dem":"222","tz":"Africa/Abidjan"}},{"id":"12688215","name":"Séitifla","ascii_name":"Seitifla","lat":"7.43926","lon":"-6.71813","country":"CI","lastUpdated":"2023-12-22","type":{"class":"P","code":"PPL"},"region":{"a1":"96","a2":"11153166","a3":"2280044"},"meta":{"pop":"10422","dem":"275","tz":"Africa/Abidjan"}},{"id":"12688216","name":"Gbabo","ascii_name":"Gbabo","lat":"7.12097","lon":"-6.76377","country":"CI","lastUpdated":"2023-12-22","type":{"class":"P","code":"PPL"},"region":{"a1":"96","a2":"11153166","a3":"2280044"},"meta":{"pop":"10436","dem":"288","tz":"Africa/Abidjan"}},{"id":"12688217","name":"Manfla","ascii_name":"Manfla","lat":"7.41135","lon":"-5.91127","country":"CI","lastUpdated":"2023-12-22","type":{"class":"P","code":"PPL"},"region":{"a1":"96","a2":"11153167","a3":"2279171"},"meta":{"pop":"12151","dem":"245","tz":"Africa/Abidjan"}},{"id":"12688218","name":"Zaguiéta","ascii_name":"Zaguieta","lat":"6.78815","lon":"-6.06288","country":"CI","lastUpdated":"2023-12-22","type":{"class":"P","code":"PPL"},"region":{"a1":"96","a2":"11153167","a3":"2290963"},"meta":{"pop":"12690","dem":"288","tz":"Africa/Abidjan"}},{"id":"12688219","name":"Bogbam","ascii_name":"Bogbam","lat":"6.38085","lon":"-6.19258","country":"CI","lastUpdated":"2023-12-22","type":{"class":"P","code":"PPL"},"region":{"a1":"96","a2":"11153166","a3":"2287789"},"meta":{"pop":"14657","dem":"232","tz":"Africa/Abidjan"}},{"id":"12688220","name":"Bognonzra","ascii_name":"Bognonzra","lat":"6.94321","lon":"-5.96734","country":"CI","lastUpdated":"2023-12-22","type":{"class":"P","code":"PPL"},"region":{"a1":"96","a2":"11153167","a3":"2290963"},"meta":{"pop":"15282","dem":"233","tz":"Africa/Abidjan"}},{"id":"12688221","name":"Belleville","ascii_name":"Belleville","lat":"6.87341","lon":"-6.84829","country":"CI","lastUpdated":"2023-12-22","type":{"class":"P","code":"PPL"},"region":{"a1":"96","a2":"11153166","a3":"11153415"},"meta":{"pop":"23595","dem":"329","tz":"Africa/Abidjan"}},{"id":"12688234","name":"Kolokaha","ascii_name":"Kolokaha","lat":"9.04843","lon":"-6.09352","country":"CI","lastUpdated":"2023-12-22","type":{"class":"P","code":"PPL"},"region":{"a1":"87","a2":"11153169","a3":"2286303"},"meta":{"pop":"1162","dem":"364","tz":"Africa/Abidjan"}},{"id":"12688313","name":"Pongala","ascii_name":"Pongala","lat":"10.35672","lon":"-5.59446","country":"CI","lastUpdated":"2023-12-22","type":{"class":"P","code":"PPL"},"region":{"a1":"87","a2":"11153177","a3":"11153332"},"meta":{"pop":"1890","dem":"332","tz":"Africa/Abidjan"}},{"id":"12688325","name":"Blagounon","ascii_name":"Blagounon","lat":"9.75622","lon":"-6.16507","country":"CI","lastUpdated":"2023-12-22","type":{"class":"P","code":"PPL"},"region":{"a1":"87","a2":"11153168","a3":"2290835"},"meta":{"pop":"1003","dem":"420","tz":"Africa/Abidjan"}},{"id":"12688326","name":"Flabougou","ascii_name":"Flabougou","lat":"10.49723","lon":"-6.46663","country":"CI","lastUpdated":"2023-12-22","type":{"class":"P","code":"PPL"},"region":{"a1":"87","a2":"2280588","a3":"2280588"},"meta":{"pop":"1003","dem":"345","tz":"Africa/Abidjan"}},{"id":"12688327","name":"Karagboko","ascii_name":"Karagboko","lat":"9.44063","lon":"-4.66472","country":"CI","lastUpdated":"2023-12-22","type":{"class":"P","code":"PPL"},"region":{"a1":"87","a2":"11153177","a3":"11153310"},"meta":{"pop":"1011","dem":"303","tz":"Africa/Abidjan"}},{"id":"12688328","name":"Sibirinakaha","ascii_name":"Sibirinakaha","lat":"9.00168","lon":"-6.09215","country":"CI","lastUpdated":"2023-12-22","type":{"class":"P","code":"PPL"},"region":{"a1":"87","a2":"11153169","a3":"2286303"},"meta":{"pop":"1043","dem":"369","tz":"Africa/Abidjan"}},{"id":"12688329","name":"Fandérékaha","ascii_name":"Fanderekaha","lat":"9.55826","lon":"-5.17988","country":"CI","lastUpdated":"2023-12-22","type":{"class":"P","code":"PPL"},"region":{"a1":"87","a2":"11153177","a3":"2289048"},"meta":{"pop":"1075","dem":"342","tz":"Africa/Abidjan"}},{"id":"12688330","name":"Village Sodesucre","ascii_name":"Village Sodesucre","lat":"9.60594","lon":"-5.27871","country":"CI","lastUpdated":"2023-12-22","type":{"class":"P","code":"PPL"},"region":{"a1":"87","a2":"11153177","a3":"2289048"},"meta":{"pop":"3221","dem":"306","tz":"Africa/Abidjan"}},{"id":"12688331","name":"Zéguéré","ascii_name":"Zeguere","lat":"9.84503","lon":"-6.01422","country":"CI","lastUpdated":"2023-12-22","type":{"class":"P","code":"PPL"},"region":{"a1":"87","a2":"11153169","a3":"11153321"},"meta":{"pop":"1112","dem":"388","tz":"Africa/Abidjan"}},{"id":"12688332","name":"Kopiémévogo","ascii_name":"Kopiemevogo","lat":"9.68271","lon":"-5.54267","country":"CI","lastUpdated":"2023-12-22","type":{"class":"P","code":"PPL"},"region":{"a1":"87","a2":"11153169","a3":"2286303"},"meta":{"pop":"1117","dem":"320","tz":"Africa/Abidjan"}},{"id":"12688333","name":"Mitéguékaha","ascii_name":"Miteguekaha","lat":"9.62545","lon":"-5.45519","country":"CI","lastUpdated":"2023-12-22","type":{"class":"P","code":"PPL"},"region":{"a1":"87","a2":"11153169","a3":"11153399"},"meta":{"pop":"1126","dem":"321","tz":"Africa/Abidjan"}},{"id":"12688334","name":"Tchassanankaha","ascii_name":"Tchassanankaha","lat":"9.59821","lon":"-5.25094","country":"CI","lastUpdated":"2023-12-22","type":{"class":"P","code":"PPL"},"region":{"a1":"87","a2":"11153177","a3":"2289048"},"meta":{"pop":"1134","dem":"297","tz":"Africa/Abidjan"}},{"id":"12688335","name":"Kolonza","ascii_name":"Kolonza","lat":"10.64896","lon":"-6.40678","country":"CI","lastUpdated":"2023-12-22","type":{"class":"P","code":"PPL"},"region":{"a1":"87","a2":"2280588","a3":"2280588"},"meta":{"pop":"1144","dem":"321","tz":"Africa/Abidjan"}},{"id":"12688336","name":"Pofoun","ascii_name":"Pofoun","lat":"10.38846","lon":"-5.70884","country":"CI","lastUpdated":"2023-12-22","type":{"class":"P","code":"PPL"},"region":{"a1":"87","a2":"11153177","a3":"11153332"},"meta":{"pop":"1149","dem":"483","tz":"Africa/Abidjan"}},{"id":"12688337","name":"Doulourovogo","ascii_name":"Doulourovogo","lat":"9.65423","lon":"-5.48293","country":"CI","lastUpdated":"2023-12-22","type":{"class":"P","code":"PPL"},"region":{"a1":"87","a2":"11153169","a3":"2286303"},"meta":{"pop":"1152","dem":"327","tz":"Africa/Abidjan"}},{"id":"12688338","name":"Bévogo","ascii_name":"Bevogo","lat":"9.66913","lon":"-5.48097","country":"CI","lastUpdated":"2023-12-22","type":{"class":"P","code":"PPL"},"region":{"a1":"87","a2":"11153169","a3":"2286303"},"meta":{"pop":"1210","dem":"316","tz":"Africa/Abidjan"}},{"id":"12688339","name":"Niplé","ascii_name":"Niple","lat":"9.48706","lon":"-5.86138","country":"CI","lastUpdated":"2023-12-22","type":{"class":"P","code":"PPL"},"region":{"a1":"87","a2":"11153169","a3":"2286303"},"meta":{"pop":"1218","dem":"460","tz":"Africa/Abidjan"}},{"id":"12688340","name":"Ouayéri-Djélisso","ascii_name":"Ouayeri-Djelisso","lat":"9.40828","lon":"-5.97915","country":"CI","lastUpdated":"2023-12-22","type":{"class":"P","code":"PPL"},"region":{"a1":"87","a2":"11153169","a3":"2286303"},"meta":{"pop":"1232","dem":"417","tz":"Africa/Abidjan"}},{"id":"12688341","name":"Diérissonkaha","ascii_name":"Dierissonkaha","lat":"9.46979","lon":"-5.53591","country":"CI","lastUpdated":"2023-12-22","type":{"class":"P","code":"PPL"},"region":{"a1":"87","a2":"11153169","a3":"2286303"},"meta":{"pop":"1234","dem":"371","tz":"Africa/Abidjan"}},{"id":"12688342","name":"Djégnéné","ascii_name":"Djegnene","lat":"9.18404","lon":"-4.47976","country":"CI","lastUpdated":"2023-12-22","type":{"class":"P","code":"PPL"},"region":{"a1":"87","a2":"11153177","a3":"11153310"},"meta":{"pop":"1249","dem":"302","tz":"Africa/Abidjan"}},{"id":"12688343","name":"Galgologo","ascii_name":"Galgologo","lat":"10.34198","lon":"-5.67897","country":"CI","lastUpdated":"2023-12-22","type":{"class":"P","code":"PPL"},"region":{"a1":"87","a2":"11153177","a3":"11153332"},"meta":{"pop":"1279","dem":"461","tz":"Africa/Abidjan"}},{"id":"12688344","name":"Gbamga","ascii_name":"Gbamga","lat":"9.55158","lon":"-4.93812","country":"CI","lastUpdated":"2023-12-22","type":{"class":"P","code":"PPL"},"region":{"a1":"87","a2":"11153177","a3":"2289048"},"meta":{"pop":"1297","dem":"325","tz":"Africa/Abidjan"}},{"id":"12688345","name":"Sibirikaha","ascii_name":"Sibirikaha","lat":"9.36135","lon":"-5.42707","country":"CI","lastUpdated":"2023-12-22","type":{"class":"P","code":"PPL"},"region":{"a1":"87","a2":"11153169","a3":"2286303"},"meta":{"pop":"1326","dem":"308","tz":"Africa/Abidjan"}},{"id":"12688346","name":"Diarratiédougou","ascii_name":"Diarratiedougou","lat":"10.00665","lon":"-5.25154","country":"CI","lastUpdated":"2023-12-22","type":{"class":"P","code":"PPL"},"region":{"a1":"87","a2":"11153177","a3":"11153332"},"meta":{"pop":"1355","dem":"304","tz":"Africa/Abidjan"}},{"id":"12688347","name":"Sanhara","ascii_name":"Sanhara","lat":"10.01889","lon":"-5.91386","country":"CI","lastUpdated":"2023-12-22","type":{"class":"P","code":"PPL"},"region":{"a1":"87","a2":"11153169","a3":"11153321"},"meta":{"pop":"1383","dem":"426","tz":"Africa/Abidjan"}},{"id":"12688348","name":"Dagbaplé","ascii_name":"Dagbaple","lat":"9.57357","lon":"-5.82126","country":"CI","lastUpdated":"2023-12-22","type":{"class":"P","code":"PPL"},"region":{"a1":"87","a2":"11153169","a3":"2286303"},"meta":{"pop":"1546","dem":"406","tz":"Africa/Abidjan"}},{"id":"12688349","name":"Faranikan","ascii_name":"Faranikan","lat":"9.62252","lon":"-5.58831","country":"CI","lastUpdated":"2023-12-22","type":{"class":"P","code":"PPL"},"region":{"a1":"87","a2":"11153169","a3":"2286303"},"meta":{"pop":"1587","dem":"425","tz":"Africa/Abidjan"}},{"id":"12688350","name":"Ogari","ascii_name":"Ogari","lat":"9.5368","lon":"-5.92474","country":"CI","lastUpdated":"2023-12-22","type":{"class":"P","code":"PPL"},"region":{"a1":"87","a2":"11153169","a3":"2286303"},"meta":{"pop":"1594","dem":"392","tz":"Africa/Abidjan"}},{"id":"12688351","name":"Bémavogo","ascii_name":"Bemavogo","lat":"9.02243","lon":"-5.46561","country":"CI","lastUpdated":"2023-12-22","type":{"class":"P","code":"PPL"},"region":{"a1":"87","a2":"11153169","a3":"2286303"},"meta":{"pop":"1598","dem":"289","tz":"Africa/Abidjan"}},{"id":"12688352","name":"Dékokaha","ascii_name":"Dekokaha","lat":"9.65468","lon":"-5.17971","country":"CI","lastUpdated":"2023-12-22","type":{"class":"P","code":"PPL"},"region":{"a1":"87","a2":"11153177","a3":"2289048"},"meta":{"pop":"1637","dem":"317","tz":"Africa/Abidjan"}},{"id":"12688353","name":"Fodonition","ascii_name":"Fodonition","lat":"9.49843","lon":"-5.64127","country":"CI","lastUpdated":"2023-12-22","type":{"class":"P","code":"PPL"},"region":{"a1":"87","a2":"11153169","a3":"2286303"},"meta":{"pop":"1650","dem":"437","tz":"Africa/Abidjan"}},{"id":"12688354","name":"Village-Sodefel","ascii_name":"Village-Sodefel","lat":"9.62172","lon":"-5.31548","country":"CI","lastUpdated":"2023-12-22","type":{"class":"P","code":"PPL"},"region":{"a1":"87","a2":"11153177","a3":"2289048"},"meta":{"pop":"1673","dem":"307","tz":"Africa/Abidjan"}},{"id":"12688355","name":"Zanakaha","ascii_name":"Zanakaha","lat":"9.63872","lon":"-5.63665","country":"CI","lastUpdated":"2023-12-22","type":{"class":"P","code":"PPL"},"region":{"a1":"87","a2":"11153169","a3":"2286303"},"meta":{"pop":"1685","dem":"356","tz":"Africa/Abidjan"}},{"id":"12688356","name":"Djélébélé","ascii_name":"Djelebele","lat":"9.56813","lon":"-4.98143","country":"CI","lastUpdated":"2023-12-22","type":{"class":"P","code":"PPL"},"region":{"a1":"87","a2":"11153177","a3":"2289048"},"meta":{"pop":"1712","dem":"326","tz":"Africa/Abidjan"}},{"id":"12688357","name":"Koussorokaha","ascii_name":"Koussorokaha","lat":"9.63747","lon":"-5.12262","country":"CI","lastUpdated":"2023-12-22","type":{"class":"P","code":"PPL"},"region":{"a1":"87","a2":"11153177","a3":"2289048"},"meta":{"pop":"1849","dem":"375","tz":"Africa/Abidjan"}},{"id":"12688358","name":"Détikaha","ascii_name":"Detikaha","lat":"9.92581","lon":"-5.16847","country":"CI","lastUpdated":"2023-12-22","type":{"class":"P","code":"PPL"},"region":{"a1":"87","a2":"11153177","a3":"2289048"},"meta":{"pop":"1875","dem":"304","tz":"Africa/Abidjan"}},{"id":"12688359","name":"Nonkparakaha","ascii_name":"Nonkparakaha","lat":"9.57613","lon":"-6.26454","country":"CI","lastUpdated":"2023-12-22","type":{"class":"P","code":"PPL"},"region":{"a1":"87","a2":"11153168","a3":"2290835"},"meta":{"pop":"1906","dem":"449","tz":"Africa/Abidjan"}},{"id":"12688360","name":"Kpafonon","ascii_name":"Kpafonon","lat":"9.68941","lon":"-6.49939","country":"CI","lastUpdated":"2023-12-22","type":{"class":"P","code":"PPL"},"region":{"a1":"87","a2":"11153168","a3":"11153316"},"meta":{"pop":"2206","dem":"444","tz":"Africa/Abidjan"}},{"id":"12688361","name":"Sédiogo","ascii_name":"Sediogo","lat":"9.51187","lon":"-5.47616","country":"CI","lastUpdated":"2023-12-22","type":{"class":"P","code":"PPL"},"region":{"a1":"87","a2":"11153169","a3":"11153399"},"meta":{"pop":"2315","dem":"382","tz":"Africa/Abidjan"}},{"id":"12688362","name":"Poungbè","ascii_name":"Poungbe","lat":"9.9002","lon":"-5.77556","country":"CI","lastUpdated":"2023-12-22","type":{"class":"P","code":"PPL"},"region":{"a1":"87","a2":"11153169","a3":"11153321"},"meta":{"pop":"2372","dem":"356","tz":"Africa/Abidjan"}},{"id":"12688363","name":"Dohiriguékaha","ascii_name":"Dohiriguekaha","lat":"9.46436","lon":"-5.40324","country":"CI","lastUpdated":"2023-12-22","type":{"class":"P","code":"PPL"},"region":{"a1":"87","a2":"11153169","a3":"11153399"},"meta":{"pop":"2516","dem":"316","tz":"Africa/Abidjan"}},{"id":"12688364","name":"Naniékaha","ascii_name":"Naniekaha","lat":"9.78428","lon":"-5.14298","country":"CI","lastUpdated":"2023-12-22","type":{"class":"P","code":"PPL"},"region":{"a1":"87","a2":"11153177","a3":"2289048"},"meta":{"pop":"2972","dem":"309","tz":"Africa/Abidjan"}},{"id":"12688365","name":"Zandanakaha","ascii_name":"Zandanakaha","lat":"10.05314","lon":"-5.2573","country":"CI","lastUpdated":"2023-12-22","type":{"class":"P","code":"PPL"},"region":{"a1":"87","a2":"11153177","a3":"11153332"},"meta":{"pop":"3028","dem":"305","tz":"Africa/Abidjan"}},{"id":"12688366","name":"Lonzo","ascii_name":"Lonzo","lat":"10.03565","lon":"-5.39735","country":"CI","lastUpdated":"2023-12-22","type":{"class":"P","code":"PPL"},"region":{"a1":"87","a2":"11153177","a3":"11153332"},"meta":{"pop":"3204","dem":"353","tz":"Africa/Abidjan"}},{"id":"12688367","name":"Pivonhon","ascii_name":"Pivonhon","lat":"9.45403","lon":"-6.03389","country":"CI","lastUpdated":"2023-12-22","type":{"class":"P","code":"PPL"},"region":{"a1":"87","a2":"11153169","a3":"2286303"},"meta":{"pop":"3290","dem":"428","tz":"Africa/Abidjan"}},{"id":"12688368","name":"Massafonwavogo-Fapaha","ascii_name":"Massafonwavogo-Fapaha","lat":"9.48584","lon":"-5.85458","country":"CI","lastUpdated":"2023-12-22","type":{"class":"P","code":"PPL"},"region":{"a1":"87","a2":"11153169","a3":"2286303"},"meta":{"pop":"3423","dem":"463","tz":"Africa/Abidjan"}},{"id":"12688369","name":"Kapékaha","ascii_name":"Kapekaha","lat":"9.9407","lon":"-5.54678","country":"CI","lastUpdated":"2023-12-22","type":{"class":"P","code":"PPL"},"region":{"a1":"87","a2":"11153177","a3":"11153332"},"meta":{"pop":"3520","dem":"380","tz":"Africa/Abidjan"}},{"id":"12688370","name":"Lofélé","ascii_name":"Lofele","lat":"10.02878","lon":"-5.47535","country":"CI","lastUpdated":"2023-12-22","type":{"class":"P","code":"PPL"},"region":{"a1":"87","a2":"11153177","a3":"11153332"},"meta":{"pop":"3680","dem":"379","tz":"Africa/Abidjan"}},{"id":"12688371","name":"Gbinzo","ascii_name":"Gbinzo","lat":"10.21961","lon":"-5.48452","country":"CI","lastUpdated":"2023-12-22","type":{"class":"P","code":"PPL"},"region":{"a1":"87","a2":"11153177","a3":"11153332"},"meta":{"pop":"3839","dem":"333","tz":"Africa/Abidjan"}},{"id":"12688372","name":"Djédana","ascii_name":"Djedana","lat":"9.21019","lon":"-4.87894","country":"CI","lastUpdated":"2023-12-22","type":{"class":"P","code":"PPL"},"region":{"a1":"87","a2":"11153177","a3":"11153310"},"meta":{"pop":"4040","dem":"301","tz":"Africa/Abidjan"}},{"id":"12688373","name":"Olléo","ascii_name":"Olleo","lat":"9.60842","lon":"-5.78626","country":"CI","lastUpdated":"2023-12-22","type":{"class":"P","code":"PPL"},"region":{"a1":"87","a2":"11153169","a3":"2286303"},"meta":{"pop":"4041","dem":"371","tz":"Africa/Abidjan"}},{"id":"12688374","name":"Tiaplé","ascii_name":"Tiaple","lat":"10.098","lon":"-5.38939","country":"CI","lastUpdated":"2023-12-22","type":{"class":"P","code":"PPL"},"region":{"a1":"87","a2":"11153177","a3":"11153332"},"meta":{"pop":"4175","dem":"320","tz":"Africa/Abidjan"}},{"id":"12688375","name":"Farakoro","ascii_name":"Farakoro","lat":"8.78113","lon":"-5.91635","country":"CI","lastUpdated":"2023-12-22","type":{"class":"P","code":"PPL"},"region":{"a1":"87","a2":"11153169","a3":"11153293"},"meta":{"pop":"4238","dem":"324","tz":"Africa/Abidjan"}},{"id":"12688405","name":"Ouolo","ascii_name":"Ouolo","lat":"9.54831","lon":"-5.4246","country":"CI","lastUpdated":"2023-12-23","type":{"class":"P","code":"PPL"},"region":{"a1":"87","a2":"11153169","a3":"11153399"},"meta":{"pop":"5208","dem":"335","tz":"Africa/Abidjan"}},{"id":"12688406","name":"Kélégbala","ascii_name":"Kelegbala","lat":"10.03229","lon":"-6.75961","country":"CI","lastUpdated":"2023-12-23","type":{"class":"P","code":"PPL"},"region":{"a1":"87","a2":"11153168","a3":"11153316"},"meta":{"pop":"5421","dem":"434","tz":"Africa/Abidjan"}},{"id":"12688407","name":"Mougnini","ascii_name":"Mougnini","lat":"10.01405","lon":"-6.67064","country":"CI","lastUpdated":"2023-12-23","type":{"class":"P","code":"PPL"},"region":{"a1":"87","a2":"11153168","a3":"11153316"},"meta":{"pop":"6800","dem":"456","tz":"Africa/Abidjan"}},{"id":"12688408","name":"Djélisso","ascii_name":"Djelisso","lat":"10.19489","lon":"-5.39097","country":"CI","lastUpdated":"2023-12-23","type":{"class":"P","code":"PPL"},"region":{"a1":"87","a2":"11153177","a3":"11153332"},"meta":{"pop":"8076","dem":"371","tz":"Africa/Abidjan"}},{"id":"12688409","name":"Sodesucre Village","ascii_name":"Sodesucre Village","lat":"9.50652","lon":"-5.27788","country":"CI","lastUpdated":"2023-12-23","type":{"class":"P","code":"PPL"},"region":{"a1":"87","a2":"11153177","a3":"2289048"},"meta":{"pop":"9933","dem":"298","tz":"Africa/Abidjan"}},{"id":"12688411","name":"N'Guessan","ascii_name":"N'Guessan","lat":"7.76289","lon":"-5.20653","country":"CI","lastUpdated":"2023-12-23","type":{"class":"P","code":"PPL"},"region":{"a1":"90","a2":"11153170","a3":"11153288"},"meta":{"pop":"1423","dem":"325","tz":"Africa/Abidjan"}},{"id":"12688444","name":"Mamela Pli","ascii_name":"Mamela Pli","lat":"7.58124","lon":"-5.1476","country":"CI","lastUpdated":"2023-12-23","type":{"class":"P","code":"PPL"},"region":{"a1":"90","a2":"11153170","a3":"2282171"},"meta":{"pop":"1148","dem":"262","tz":"Africa/Abidjan"}},{"id":"12688460","name":"N'Guessankro","ascii_name":"N'Guessankro","lat":"8.00577","lon":"-5.44009","country":"CI","lastUpdated":"2023-12-23","type":{"class":"P","code":"PPL"},"region":{"a1":"90","a2":"11153170","a3":"2291778"},"meta":{"pop":"1654","dem":"240","tz":"Africa/Abidjan"}},{"id":"12688489","name":"Bindolo","ascii_name":"Bindolo","lat":"8.13451","lon":"-4.26049","country":"CI","lastUpdated":"2023-12-23","type":{"class":"P","code":"PPL"},"region":{"a1":"90","a2":"11153171","a3":"2290608"},"meta":{"pop":"1011","dem":"231","tz":"Africa/Abidjan"}},{"id":"12688490","name":"Sola-Boni-Broukro","ascii_name":"Sola-Boni-Broukro","lat":"7.58479","lon":"-5.22374","country":"CI","lastUpdated":"2023-12-23","type":{"class":"P","code":"PPL"},"region":{"a1":"90","a2":"11153170","a3":"2282171"},"meta":{"pop":"1018","dem":"257","tz":"Africa/Abidjan"}},{"id":"12688491","name":"Zédé-N'Drébo","ascii_name":"Zede-N'Drebo","lat":"7.50895","lon":"-5.50808","country":"CI","lastUpdated":"2023-12-23","type":{"class":"P","code":"PPL"},"region":{"a1":"90","a2":"11153170","a3":"2291778"},"meta":{"pop":"1055","dem":"222","tz":"Africa/Abidjan"}},{"id":"12688492","name":"Plahankro","ascii_name":"Plahankro","lat":"8.00673","lon":"-5.28992","country":"CI","lastUpdated":"2023-12-23","type":{"class":"P","code":"PPL"},"region":{"a1":"90","a2":"11153170","a3":"11153288"},"meta":{"pop":"1092","dem":"273","tz":"Africa/Abidjan"}},{"id":"12688493","name":"Kuindjanda","ascii_name":"Kuindjanda","lat":"7.73418","lon":"-5.39057","country":"CI","lastUpdated":"2023-12-23","type":{"class":"P","code":"PPL"},"region":{"a1":"90","a2":"11153170","a3":"2291778"},"meta":{"pop":"1135","dem":"261","tz":"Africa/Abidjan"}},{"id":"12688494","name":"Gninlnafolokaha","ascii_name":"Gninlnafolokaha","lat":"8.62052","lon":"-5.64471","country":"CI","lastUpdated":"2023-12-23","type":{"class":"P","code":"PPL"},"region":{"a1":"90","a2":"11153171","a3":"11153330"},"meta":{"pop":"1156","dem":"304","tz":"Africa/Abidjan"}},{"id":"12688495","name":"Karo-Gblobo","ascii_name":"Karo-Gblobo","lat":"7.79666","lon":"-4.96208","country":"CI","lastUpdated":"2023-12-23","type":{"class":"P","code":"PPL"},"region":{"a1":"90","a2":"11153170","a3":"2290954"},"meta":{"pop":"1161","dem":"284","tz":"Africa/Abidjan"}},{"id":"12688496","name":"Landédougou","ascii_name":"Landedougou","lat":"8.70587","lon":"-4.5552","country":"CI","lastUpdated":"2023-12-23","type":{"class":"P","code":"PPL"},"region":{"a1":"90","a2":"11153171","a3":"2290608"},"meta":{"pop":"1164","dem":"308","tz":"Africa/Abidjan"}},{"id":"12688497","name":"Kénéfoué","ascii_name":"Kenefoue","lat":"7.46749","lon":"-5.58992","country":"CI","lastUpdated":"2023-12-23","type":{"class":"P","code":"PPL"},"region":{"a1":"90","a2":"11153170","a3":"2291778"},"meta":{"pop":"1201","dem":"229","tz":"Africa/Abidjan"}},{"id":"12688498","name":"Kendè-Dan","ascii_name":"Kende-Dan","lat":"7.88093","lon":"-5.67293","country":"CI","lastUpdated":"2023-12-23","type":{"class":"P","code":"PPL"},"region":{"a1":"90","a2":"11153170","a3":"2291778"},"meta":{"pop":"1205","dem":"213","tz":"Africa/Abidjan"}},{"id":"12688499","name":"Zanakaha","ascii_name":"Zanakaha","lat":"8.70167","lon":"-5.53533","country":"CI","lastUpdated":"2023-12-23","type":{"class":"P","code":"PPL"},"region":{"a1":"90","a2":"11153171","a3":"11153330"},"meta":{"pop":"1208","dem":"261","tz":"Africa/Abidjan"}},{"id":"12688500","name":"Yeboué","ascii_name":"Yeboue","lat":"7.50937","lon":"-4.94524","country":"CI","lastUpdated":"2023-12-23","type":{"class":"P","code":"PPL"},"region":{"a1":"90","a2":"11153170","a3":"2290954"},"meta":{"pop":"1213","dem":"225","tz":"Africa/Abidjan"}},{"id":"12688501","name":"N'Doumou","ascii_name":"N'Doumou","lat":"7.64727","lon":"-4.77336","country":"CI","lastUpdated":"2023-12-23","type":{"class":"P","code":"PPL"},"region":{"a1":"90","a2":"11153170","a3":"2290954"},"meta":{"pop":"1244","dem":"224","tz":"Africa/Abidjan"}},{"id":"12688502","name":"Foto-Kouamékro","ascii_name":"Foto-Kouamekro","lat":"7.56834","lon":"-5.13085","country":"CI","lastUpdated":"2023-12-23","type":{"class":"P","code":"PPL"},"region":{"a1":"90","a2":"11153170","a3":"2282171"},"meta":{"pop":"1248","dem":"269","tz":"Africa/Abidjan"}},{"id":"12688503","name":"Agbangnassou","ascii_name":"Agbangnassou","lat":"7.61635","lon":"-5.01134","country":"CI","lastUpdated":"2023-12-23","type":{"class":"P","code":"PPL"},"region":{"a1":"90","a2":"11153170","a3":"2290954"},"meta":{"pop":"1267","dem":"258","tz":"Africa/Abidjan"}},{"id":"12688504","name":"Kouakro-Mizron","ascii_name":"Kouakro-Mizron","lat":"7.83448","lon":"-5.07892","country":"CI","lastUpdated":"2023-12-23","type":{"class":"P","code":"PPL"},"region":{"a1":"90","a2":"11153170","a3":"2290954"},"meta":{"pop":"1271","dem":"297","tz":"Africa/Abidjan"}},{"id":"12688505","name":"Gboly","ascii_name":"Gboly","lat":"8.18177","lon":"-4.76114","country":"CI","lastUpdated":"2023-12-23","type":{"class":"P","code":"PPL"},"region":{"a1":"90","a2":"11153171","a3":"2290608"},"meta":{"pop":"1304","dem":"274","tz":"Africa/Abidjan"}},{"id":"12688506","name":"Langama","ascii_name":"Langama","lat":"7.87082","lon":"-5.1312","country":"CI","lastUpdated":"2023-12-23","type":{"class":"P","code":"PPL"},"region":{"a1":"90","a2":"11153170","a3":"11153288"},"meta":{"pop":"1317","dem":"299","tz":"Africa/Abidjan"}},{"id":"12688507","name":"Kouadio-Sakassou","ascii_name":"Kouadio-Sakassou","lat":"7.48224","lon":"-5.57569","country":"CI","lastUpdated":"2023-12-23","type":{"class":"P","code":"PPL"},"region":{"a1":"90","a2":"11153170","a3":"2291778"},"meta":{"pop":"1322","dem":"228","tz":"Africa/Abidjan"}},{"id":"12688508","name":"Sokala-Djélisso","ascii_name":"Sokala-Djelisso","lat":"8.3524","lon":"-4.54522","country":"CI","lastUpdated":"2023-12-23","type":{"class":"P","code":"PPL"},"region":{"a1":"90","a2":"11153171","a3":"2290608"},"meta":{"pop":"1327","dem":"302","tz":"Africa/Abidjan"}},{"id":"12688509","name":"Yoboué-N'Zué","ascii_name":"Yoboue-N'Zue","lat":"7.59147","lon":"-5.47954","country":"CI","lastUpdated":"2023-12-23","type":{"class":"P","code":"PPL"},"region":{"a1":"90","a2":"11153170","a3":"2291778"},"meta":{"pop":"1331","dem":"229","tz":"Africa/Abidjan"}},{"id":"12688510","name":"Guienzoukro","ascii_name":"Guienzoukro","lat":"7.92246","lon":"-5.49834","country":"CI","lastUpdated":"2023-12-23","type":{"class":"P","code":"PPL"},"region":{"a1":"90","a2":"11153170","a3":"2291778"},"meta":{"pop":"1335","dem":"237","tz":"Africa/Abidjan"}},{"id":"12688511","name":"Dibri-Assirikro","ascii_name":"Dibri-Assirikro","lat":"7.58913","lon":"-5.16783","country":"CI","lastUpdated":"2023-12-23","type":{"class":"P","code":"PPL"},"region":{"a1":"90","a2":"11153170","a3":"2282171"},"meta":{"pop":"1372","dem":"259","tz":"Africa/Abidjan"}},{"id":"12688512","name":"Sessékro","ascii_name":"Sessekro","lat":"7.5418","lon":"-5.06041","country":"CI","lastUpdated":"2023-12-23","type":{"class":"P","code":"PPL"},"region":{"a1":"90","a2":"11153170","a3":"2290954"},"meta":{"pop":"1396","dem":"281","tz":"Africa/Abidjan"}},{"id":"12688513","name":"Sucaf Ci Village","ascii_name":"Sucaf Ci Village","lat":"9.29837","lon":"-5.29325","country":"CI","lastUpdated":"2023-12-23","type":{"class":"P","code":"PPL"},"region":{"a1":"90","a2":"11153171","a3":"11153330"},"meta":{"pop":"7252","dem":"306","tz":"Africa/Abidjan"}},{"id":"12688514","name":"Tchimou-Assékro","ascii_name":"Tchimou-Assekro","lat":"7.84132","lon":"-5.06196","country":"CI","lastUpdated":"2023-12-23","type":{"class":"P","code":"PPL"},"region":{"a1":"90","a2":"11153170","a3":"2290954"},"meta":{"pop":"1455","dem":"296","tz":"Africa/Abidjan"}},{"id":"12688515","name":"Kpana-Ouélasso","ascii_name":"Kpana-Ouelasso","lat":"8.20313","lon":"-4.33654","country":"CI","lastUpdated":"2023-12-23","type":{"class":"P","code":"PPL"},"region":{"a1":"90","a2":"11153171","a3":"2290608"},"meta":{"pop":"1488","dem":"255","tz":"Africa/Abidjan"}},{"id":"12688516","name":"Ando-Zumé","ascii_name":"Ando-Zume","lat":"7.27319","lon":"-5.3474","country":"CI","lastUpdated":"2023-12-23","type":{"class":"P","code":"PPL"},"region":{"a1":"90","a2":"11153170","a3":"2282171"},"meta":{"pop":"1501","dem":"227","tz":"Africa/Abidjan"}},{"id":"12688517","name":"N'Gatta","ascii_name":"N'Gatta","lat":"7.88366","lon":"-5.14764","country":"CI","lastUpdated":"2023-12-23","type":{"class":"P","code":"PPL"},"region":{"a1":"90","a2":"11153170","a3":"11153288"},"meta":{"pop":"1604","dem":"303","tz":"Africa/Abidjan"}},{"id":"12688518","name":"Takpalakaha","ascii_name":"Takpalakaha","lat":"9.16033","lon":"-5.12865","country":"CI","lastUpdated":"2023-12-23","type":{"class":"P","code":"PPL"},"region":{"a1":"90","a2":"11153171","a3":"11153330"},"meta":{"pop":"1628","dem":"341","tz":"Africa/Abidjan"}},{"id":"12688519","name":"Assakra","ascii_name":"Assakra","lat":"7.69433","lon":"-5.46139","country":"CI","lastUpdated":"2023-12-23","type":{"class":"P","code":"PPL"},"region":{"a1":"90","a2":"11153170","a3":"2291778"},"meta":{"pop":"1660","dem":"237","tz":"Africa/Abidjan"}},{"id":"12688520","name":"Konankro-Mizron","ascii_name":"Konankro-Mizron","lat":"7.83413","lon":"-5.07933","country":"CI","lastUpdated":"2023-12-23","type":{"class":"P","code":"PPL"},"region":{"a1":"90","a2":"11153170","a3":"2290954"},"meta":{"pop":"1669","dem":"297","tz":"Africa/Abidjan"}},{"id":"12688521","name":"Toumboho","ascii_name":"Toumboho","lat":"8.10033","lon":"-4.92218","country":"CI","lastUpdated":"2023-12-23","type":{"class":"P","code":"PPL"},"region":{"a1":"90","a2":"11153171","a3":"2287296"},"meta":{"pop":"1721","dem":"228","tz":"Africa/Abidjan"}},{"id":"12688522","name":"Kahankro-Prepressou","ascii_name":"Kahankro-Prepressou","lat":"7.73758","lon":"-4.95638","country":"CI","lastUpdated":"2023-12-23","type":{"class":"P","code":"PPL"},"region":{"a1":"90","a2":"11153170","a3":"2290954"},"meta":{"pop":"1796","dem":"267","tz":"Africa/Abidjan"}},{"id":"12688523","name":"Fitabro","ascii_name":"Fitabro","lat":"7.78987","lon":"-5.49438","country":"CI","lastUpdated":"2023-12-23","type":{"class":"P","code":"PPL"},"region":{"a1":"90","a2":"11153170","a3":"2291778"},"meta":{"pop":"1836","dem":"231","tz":"Africa/Abidjan"}},{"id":"12688524","name":"Goli-Maya","ascii_name":"Goli-Maya","lat":"8.0951","lon":"-5.45695","country":"CI","lastUpdated":"2023-12-23","type":{"class":"P","code":"PPL"},"region":{"a1":"90","a2":"11153170","a3":"2291778"},"meta":{"pop":"1836","dem":"292","tz":"Africa/Abidjan"}},{"id":"12688525","name":"Goli-Kpangbassou","ascii_name":"Goli-Kpangbassou","lat":"7.96129","lon":"-5.50737","country":"CI","lastUpdated":"2023-12-23","type":{"class":"P","code":"PPL"},"region":{"a1":"90","a2":"11153170","a3":"2291778"},"meta":{"pop":"1871","dem":"220","tz":"Africa/Abidjan"}},{"id":"12688526","name":"Klémékro","ascii_name":"Klemekro","lat":"7.75946","lon":"-5.29641","country":"CI","lastUpdated":"2023-12-23","type":{"class":"P","code":"PPL"},"region":{"a1":"90","a2":"11153170","a3":"11153288"},"meta":{"pop":"1921","dem":"303","tz":"Africa/Abidjan"}},{"id":"12688527","name":"Sucaf Cité","ascii_name":"Sucaf Cite","lat":"9.30349","lon":"-5.32004","country":"CI","lastUpdated":"2023-12-23","type":{"class":"P","code":"PPL"},"region":{"a1":"90","a2":"11153171","a3":"11153330"},"meta":{"pop":"2329","dem":"305","tz":"Africa/Abidjan"}},{"id":"12688528","name":"Myan-Gokro","ascii_name":"Myan-Gokro","lat":"8.00934","lon":"-5.41871","country":"CI","lastUpdated":"2023-12-23","type":{"class":"P","code":"PPL"},"region":{"a1":"90","a2":"11153170","a3":"2291778"},"meta":{"pop":"2334","dem":"252","tz":"Africa/Abidjan"}},{"id":"12688529","name":"Kongo","ascii_name":"Kongo","lat":"7.32315","lon":"-5.54143","country":"CI","lastUpdated":"2023-12-23","type":{"class":"P","code":"PPL"},"region":{"a1":"90","a2":"11153170","a3":"2282171"},"meta":{"pop":"2595","dem":"232","tz":"Africa/Abidjan"}},{"id":"12688530","name":"Niambrun","ascii_name":"Niambrun","lat":"7.6202","lon":"-5.56857","country":"CI","lastUpdated":"2023-12-23","type":{"class":"P","code":"PPL"},"region":{"a1":"90","a2":"11153170","a3":"2291778"},"meta":{"pop":"2698","dem":"228","tz":"Africa/Abidjan"}},{"id":"12688531","name":"Sran-Bondossou","ascii_name":"Sran-Bondossou","lat":"7.37929","lon":"-5.59593","country":"CI","lastUpdated":"2023-12-23","type":{"class":"P","code":"PPL"},"region":{"a1":"90","a2":"11153170","a3":"2282171"},"meta":{"pop":"3179","dem":"229","tz":"Africa/Abidjan"}},{"id":"12688532","name":"Naplékaha","ascii_name":"Naplekaha","lat":"8.17856","lon":"-5.3405","country":"CI","lastUpdated":"2023-12-23","type":{"class":"P","code":"PPL"},"region":{"a1":"90","a2":"11153171","a3":"2287296"},"meta":{"pop":"3566","dem":"249","tz":"Africa/Abidjan"}},{"id":"12688533","name":"Ouréguékaha","ascii_name":"Oureguekaha","lat":"8.44923","lon":"-5.1944","country":"CI","lastUpdated":"2023-12-23","type":{"class":"P","code":"PPL"},"region":{"a1":"90","a2":"11153171","a3":"11153330"},"meta":{"pop":"4118","dem":"305","tz":"Africa/Abidjan"}},{"id":"12688534","name":"Ouanadiékaha","ascii_name":"Ouanadiekaha","lat":"8.36292","lon":"-5.17237","country":"CI","lastUpdated":"2023-12-23","type":{"class":"P","code":"PPL"},"region":{"a1":"90","a2":"11153171","a3":"2287296"},"meta":{"pop":"4927","dem":"293","tz":"Africa/Abidjan"}},{"id":"12688535","name":"Sran-Bélakro","ascii_name":"Sran-Belakro","lat":"7.35138","lon":"-5.59067","country":"CI","lastUpdated":"2023-12-23","type":{"class":"P","code":"PPL"},"region":{"a1":"90","a2":"11153170","a3":"2282171"},"meta":{"pop":"7847","dem":"235","tz":"Africa/Abidjan"}},{"id":"12688536","name":"Ayaou-Sokpa","ascii_name":"Ayaou-Sokpa","lat":"7.42057","lon":"-5.61407","country":"CI","lastUpdated":"2023-12-23","type":{"class":"P","code":"PPL"},"region":{"a1":"90","a2":"11153170","a3":"2282171"},"meta":{"pop":"11933","dem":"228","tz":"Africa/Abidjan"}},{"id":"12688594","name":"Silakoro","ascii_name":"Silakoro","lat":"8.36068","lon":"-6.5794","country":"CI","lastUpdated":"2023-12-23","type":{"class":"P","code":"PPL"},"region":{"a1":"97","a2":"11153174","a3":"11153301"},"meta":{"pop":"2214","dem":"332","tz":"Africa/Abidjan"}},{"id":"12688598","name":"Dar Es","ascii_name":"Dar Es","lat":"7.98308","lon":"-6.90316","country":"CI","lastUpdated":"2023-12-23","type":{"class":"P","code":"PPL"},"region":{"a1":"97","a2":"11153174","a3":"2281867"},"meta":{"pop":"1003","dem":"287","tz":"Africa/Abidjan"}},{"id":"12688599","name":"Massala-Gouran","ascii_name":"Massala-Gouran","lat":"7.9219","lon":"-7.02466","country":"CI","lastUpdated":"2023-12-23","type":{"class":"P","code":"PPL"},"region":{"a1":"97","a2":"11153174","a3":"2281867"},"meta":{"pop":"1087","dem":"267","tz":"Africa/Abidjan"}},{"id":"12688600","name":"Souatiesso","ascii_name":"Souatiesso","lat":"7.95146","lon":"-7.53314","country":"CI","lastUpdated":"2023-12-23","type":{"class":"P","code":"PPL"},"region":{"a1":"97","a2":"2597334","a3":"2280373"},"meta":{"pop":"1130","dem":"414","tz":"Africa/Abidjan"}},{"id":"12688601","name":"Dangrézo","ascii_name":"Dangrezo","lat":"8.0504","lon":"-7.09243","country":"CI","lastUpdated":"2023-12-23","type":{"class":"P","code":"PPL"},"region":{"a1":"97","a2":"11153174","a3":"2281867"},"meta":{"pop":"1134","dem":"267","tz":"Africa/Abidjan"}},{"id":"12688602","name":"Féliapla","ascii_name":"Feliapla","lat":"7.9694","lon":"-5.76615","country":"CI","lastUpdated":"2023-12-23","type":{"class":"P","code":"PPL"},"region":{"a1":"97","a2":"11153172","a3":"11153315"},"meta":{"pop":"1213","dem":"260","tz":"Africa/Abidjan"}},{"id":"12688603","name":"Gbihana","ascii_name":"Gbihana","lat":"7.8154","lon":"-6.46759","country":"CI","lastUpdated":"2023-12-23","type":{"class":"P","code":"PPL"},"region":{"a1":"97","a2":"11153174","a3":"2281867"},"meta":{"pop":"1371","dem":"302","tz":"Africa/Abidjan"}},{"id":"12688604","name":"Gbèlo","ascii_name":"Gbelo","lat":"7.92074","lon":"-6.98255","country":"CI","lastUpdated":"2023-12-23","type":{"class":"P","code":"PPL"},"region":{"a1":"97","a2":"11153174","a3":"2281867"},"meta":{"pop":"1396","dem":"279","tz":"Africa/Abidjan"}},{"id":"12688605","name":"Koffina","ascii_name":"Koffina","lat":"8.84659","lon":"-7.87748","country":"CI","lastUpdated":"2023-12-23","type":{"class":"P","code":"PPL"},"region":{"a1":"97","a2":"2597334","a3":"11153311"},"meta":{"pop":"1508","dem":"522","tz":"Africa/Abidjan"}},{"id":"12688606","name":"Dolla","ascii_name":"Dolla","lat":"7.95374","lon":"-7.56707","country":"CI","lastUpdated":"2023-12-23","type":{"class":"P","code":"PPL"},"region":{"a1":"97","a2":"2597334","a3":"2280373"},"meta":{"pop":"1521","dem":"391","tz":"Africa/Abidjan"}},{"id":"12688607","name":"Bagabasso","ascii_name":"Bagabasso","lat":"8.45926","lon":"-6.7496","country":"CI","lastUpdated":"2023-12-23","type":{"class":"P","code":"PPL"},"region":{"a1":"97","a2":"11153174","a3":"2281867"},"meta":{"pop":"1525","dem":"315","tz":"Africa/Abidjan"}},{"id":"12688608","name":"Tabakoro-Dierré","ascii_name":"Tabakoro-Dierre","lat":"8.21882","lon":"-5.62848","country":"CI","lastUpdated":"2023-12-23","type":{"class":"P","code":"PPL"},"region":{"a1":"97","a2":"11153172","a3":"2284587"},"meta":{"pop":"1542","dem":"304","tz":"Africa/Abidjan"}},{"id":"12688609","name":"Tienvolokaha","ascii_name":"Tienvolokaha","lat":"8.76177","lon":"-6.38725","country":"CI","lastUpdated":"2023-12-23","type":{"class":"P","code":"PPL"},"region":{"a1":"97","a2":"11153172","a3":"11153291"},"meta":{"pop":"1547","dem":"304","tz":"Africa/Abidjan"}},{"id":"12688610","name":"Kougbèré","ascii_name":"Kougbere","lat":"8.41474","lon":"-5.81493","country":"CI","lastUpdated":"2023-12-23","type":{"class":"P","code":"PPL"},"region":{"a1":"97","a2":"11153172","a3":"2284587"},"meta":{"pop":"1554","dem":"316","tz":"Africa/Abidjan"}},{"id":"12688611","name":"Niangourala-Tiéné","ascii_name":"Niangourala-Tiene","lat":"8.26534","lon":"-5.82049","country":"CI","lastUpdated":"2023-12-23","type":{"class":"P","code":"PPL"},"region":{"a1":"97","a2":"11153172","a3":"2284587"},"meta":{"pop":"1611","dem":"314","tz":"Africa/Abidjan"}},{"id":"12688612","name":"Bamanasso","ascii_name":"Bamanasso","lat":"8.38326","lon":"-6.13276","country":"CI","lastUpdated":"2023-12-23","type":{"class":"P","code":"PPL"},"region":{"a1":"97","a2":"11153172","a3":"2284587"},"meta":{"pop":"1647","dem":"318","tz":"Africa/Abidjan"}},{"id":"12688613","name":"Drissasso","ascii_name":"Drissasso","lat":"8.00277","lon":"-6.80107","country":"CI","lastUpdated":"2023-12-23","type":{"class":"P","code":"PPL"},"region":{"a1":"97","a2":"11153174","a3":"2281867"},"meta":{"pop":"1729","dem":"294","tz":"Africa/Abidjan"}},{"id":"12688614","name":"Diétiguisso","ascii_name":"Dietiguisso","lat":"8.37964","lon":"-5.76992","country":"CI","lastUpdated":"2023-12-23","type":{"class":"P","code":"PPL"},"region":{"a1":"97","a2":"11153172","a3":"2284587"},"meta":{"pop":"1923","dem":"308","tz":"Africa/Abidjan"}},{"id":"12688615","name":"Gbédéguéla","ascii_name":"Gbedeguela","lat":"8.45746","lon":"-6.65074","country":"CI","lastUpdated":"2023-12-23","type":{"class":"P","code":"PPL"},"region":{"a1":"97","a2":"11153174","a3":"11153301"},"meta":{"pop":"1974","dem":"332","tz":"Africa/Abidjan"}},{"id":"12688616","name":"Massala-Assolo","ascii_name":"Massala-Assolo","lat":"8.15007","lon":"-6.65528","country":"CI","lastUpdated":"2023-12-23","type":{"class":"P","code":"PPL"},"region":{"a1":"97","a2":"11153174","a3":"2281867"},"meta":{"pop":"2275","dem":"304","tz":"Africa/Abidjan"}},{"id":"12688617","name":"Babasso","ascii_name":"Babasso","lat":"8.53982","lon":"-6.69245","country":"CI","lastUpdated":"2023-12-23","type":{"class":"P","code":"PPL"},"region":{"a1":"97","a2":"11153174","a3":"11153301"},"meta":{"pop":"2310","dem":"351","tz":"Africa/Abidjan"}},{"id":"12688618","name":"Madian","ascii_name":"Madian","lat":"8.07674","lon":"-6.17316","country":"CI","lastUpdated":"2023-12-23","type":{"class":"P","code":"PPL"},"region":{"a1":"97","a2":"11153172","a3":"2284587"},"meta":{"pop":"2418","dem":"307","tz":"Africa/Abidjan"}},{"id":"12688619","name":"Dienfé","ascii_name":"Dienfe","lat":"7.93681","lon":"-6.96942","country":"CI","lastUpdated":"2023-12-23","type":{"class":"P","code":"PPL"},"region":{"a1":"97","a2":"11153174","a3":"2281867"},"meta":{"pop":"2829","dem":"279","tz":"Africa/Abidjan"}},{"id":"12688620","name":"Massasso-Bas-Yani","ascii_name":"Massasso-Bas-Yani","lat":"8.63724","lon":"-6.61228","country":"CI","lastUpdated":"2023-12-23","type":{"class":"P","code":"PPL"},"region":{"a1":"97","a2":"11153174","a3":"11153301"},"meta":{"pop":"3015","dem":"377","tz":"Africa/Abidjan"}},{"id":"12688621","name":"Bourounon","ascii_name":"Bourounon","lat":"7.74843","lon":"-6.09362","country":"CI","lastUpdated":"2023-12-23","type":{"class":"P","code":"PPL"},"region":{"a1":"97","a2":"11153172","a3":"11153315"},"meta":{"pop":"3026","dem":"289","tz":"Africa/Abidjan"}},{"id":"12688622","name":"Niongonon","ascii_name":"Niongonon","lat":"8.20785","lon":"-6.66585","country":"CI","lastUpdated":"2023-12-23","type":{"class":"P","code":"PPL"},"region":{"a1":"97","a2":"11153174","a3":"2281867"},"meta":{"pop":"3073","dem":"300","tz":"Africa/Abidjan"}},{"id":"12688623","name":"Ouédallah","ascii_name":"Ouedallah","lat":"8.17604","lon":"-5.7883","country":"CI","lastUpdated":"2023-12-23","type":{"class":"P","code":"PPL"},"region":{"a1":"97","a2":"11153172","a3":"2284587"},"meta":{"pop":"3340","dem":"304","tz":"Africa/Abidjan"}},{"id":"12688624","name":"Korokopla","ascii_name":"Korokopla","lat":"7.88168","lon":"-5.96623","country":"CI","lastUpdated":"2023-12-23","type":{"class":"P","code":"PPL"},"region":{"a1":"97","a2":"11153172","a3":"11153315"},"meta":{"pop":"4489","dem":"257","tz":"Africa/Abidjan"}},{"id":"12688625","name":"Béréni-Dialla","ascii_name":"Bereni-Dialla","lat":"8.00364","lon":"-6.86094","country":"CI","lastUpdated":"2023-12-23","type":{"class":"P","code":"PPL"},"region":{"a1":"97","a2":"11153174","a3":"2281867"},"meta":{"pop":"5124","dem":"285","tz":"Africa/Abidjan"}},{"id":"12688626","name":"Gbimanan","ascii_name":"Gbimanan","lat":"8.23371","lon":"-6.79954","country":"CI","lastUpdated":"2023-12-23","type":{"class":"P","code":"PPL"},"region":{"a1":"97","a2":"11153174","a3":"2281867"},"meta":{"pop":"5454","dem":"318","tz":"Africa/Abidjan"}},{"id":"12688627","name":"Bobosso-Tiénigbé","ascii_name":"Bobosso-Tienigbe","lat":"8.45183","lon":"-5.78737","country":"CI","lastUpdated":"2023-12-23","type":{"class":"P","code":"PPL"},"region":{"a1":"97","a2":"11153172","a3":"2284587"},"meta":{"pop":"11319","dem":"304","tz":"Africa/Abidjan"}},{"id":"12688629","name":"Sagoura-Dougoula","ascii_name":"Sagoura-Dougoula","lat":"7.82719","lon":"-7.02085","country":"CI","lastUpdated":"2023-12-23","type":{"class":"P","code":"PPL"},"region":{"a1":"97","a2":"11153174","a3":"2281867"},"meta":{"pop":"1333","dem":"298","tz":"Africa/Abidjan"}},{"id":"12688630","name":"Brahima","ascii_name":"Brahima","lat":"8.15157","lon":"-6.15965","country":"CI","lastUpdated":"2023-12-23","type":{"class":"P","code":"PPL"},"region":{"a1":"97","a2":"11153172","a3":"2284587"},"meta":{"pop":"3715","dem":"345","tz":"Africa/Abidjan"}},{"id":"12689269","name":"Amonkro","ascii_name":"Amonkro","lat":"6.96964","lon":"-5.42841","country":"CI","lastUpdated":"2024-01-05","type":{"class":"P","code":"PPL"},"region":{"a1":"98","a2":"11153154","a3":"2279754"},"meta":{"pop":"1152","dem":"235","tz":"Africa/Abidjan"}},{"id":"12689270","name":"N'Da","ascii_name":"N'Da","lat":"6.76134","lon":"-5.22292","country":"CI","lastUpdated":"2024-01-05","type":{"class":"P","code":"PPL"},"region":{"a1":"98","a2":"11153154","a3":"2279754"},"meta":{"pop":"1301","dem":"208","tz":"Africa/Abidjan"}},{"id":"12689271","name":"Allai-Yaokro","ascii_name":"Allai-Yaokro","lat":"6.97742","lon":"-5.49517","country":"CI","lastUpdated":"2024-01-05","type":{"class":"P","code":"PPL"},"region":{"a1":"98","a2":"11153154","a3":"2279754"},"meta":{"pop":"1383","dem":"152","tz":"Africa/Abidjan"}},{"id":"12689272","name":"Aboukro","ascii_name":"Aboukro","lat":"6.75904","lon":"-5.32598","country":"CI","lastUpdated":"2024-01-05","type":{"class":"P","code":"PPL"},"region":{"a1":"98","a2":"11153154","a3":"2279754"},