[{"id":"7348210","name":"Shajin","ascii_name":"Shajin","lat":"33.98836","lon":"104.81239","country":"CN","lastUpdated":"2021-10-26","type":{"class":"P","code":"PPL"},"region":{"a1":"15","a2":"6212"},"meta":{"pop":"7558","dem":"1975","tz":"Asia/Shanghai"}},{"id":"7348380","name":"Wuying","ascii_name":"Wuying","lat":"35.01485","lon":"105.8988","country":"CN","lastUpdated":"2021-11-01","type":{"class":"P","code":"PPL"},"region":{"a1":"15","a2":"6205"},"meta":{"pop":"34509","dem":"1463","tz":"Asia/Shanghai"}},{"id":"7348465","name":"Lianhua","ascii_name":"Lianhua","lat":"35.0616","lon":"105.79108","country":"CN","lastUpdated":"2021-11-01","type":{"class":"P","code":"PPLA4"},"region":{"a1":"15","a2":"6205"},"meta":{"pop":"34447","dem":"1415","tz":"Asia/Shanghai"}},{"id":"7348484","name":"Liangshan","ascii_name":"Liangshan","lat":"35.07319","lon":"105.974","country":"CN","lastUpdated":"2021-11-11","type":{"class":"P","code":"PPLA4"},"region":{"a1":"15","a2":"6205"},"meta":{"pop":"12894","dem":"1824","tz":"Asia/Shanghai"}},{"id":"7348537","name":"Weidian","ascii_name":"Weidian","lat":"35.10243","lon":"105.5656","country":"CN","lastUpdated":"2021-11-01","type":{"class":"P","code":"PPLA4"},"region":{"a1":"15","a2":"6205"},"meta":{"pop":"26896","dem":"1577","tz":"Asia/Shanghai"}},{"id":"7351475","name":"Ha’ergai Dadui","ascii_name":"Ha'ergai Dadui","lat":"37.2515","lon":"100.42133","country":"CN","lastUpdated":"2021-12-17","type":{"class":"P","code":"PPL"},"region":{"a1":"06","a2":"6322"},"meta":{"pop":"11128","dem":"3282","tz":"Asia/Shanghai"}},{"id":"7352509","name":"Shibao","ascii_name":"Shibao","lat":"34.10786","lon":"105.31585","country":"CN","lastUpdated":"2021-10-28","type":{"class":"P","code":"PPLA4"},"region":{"a1":"15","a2":"6212"},"meta":{"pop":"22621","dem":"1550","tz":"Asia/Shanghai"}},{"id":"7352544","name":"Shoushan","ascii_name":"Shoushan","lat":"34.27771","lon":"107.74619","country":"CN","lastUpdated":"2021-09-20","type":{"class":"P","code":"PPLA3"},"region":{"a1":"26","a2":"6103"},"meta":{"pop":"0","dem":"522","tz":"Asia/Shanghai"}},{"id":"7353644","name":"Sancang","ascii_name":"Sancang","lat":"33.01378","lon":"105.11507","country":"CN","lastUpdated":"2021-12-06","type":{"class":"P","code":"PPLA4"},"region":{"a1":"15","a2":"6212"},"meta":{"pop":"12833","dem":"1537","tz":"Asia/Shanghai"}},{"id":"7353795","name":"Fengxiang Chengguanzhen","ascii_name":"Fengxiang Chengguanzhen","lat":"34.52301","lon":"107.39127","country":"CN","lastUpdated":"2021-09-20","type":{"class":"P","code":"PPLA3"},"region":{"a1":"26","a2":"6103"},"meta":{"pop":"0","dem":"794","tz":"Asia/Shanghai"}},{"id":"7370270","name":"Zhongshan Donglu","ascii_name":"Zhongshan Donglu","lat":"34.37964","lon":"107.14638","country":"CN","lastUpdated":"2021-09-20","type":{"class":"P","code":"PPLA3"},"region":{"a1":"26","a2":"6103"},"meta":{"pop":"0","dem":"656","tz":"Asia/Shanghai"}},{"id":"7370274","name":"Jinling","ascii_name":"Jinling","lat":"34.36925","lon":"107.14997","country":"CN","lastUpdated":"2021-09-20","type":{"class":"P","code":"PPLA3"},"region":{"a1":"26","a2":"6103"},"meta":{"pop":"0","dem":"590","tz":"Asia/Shanghai"}},{"id":"7372407","name":"Yuhe","ascii_name":"Yuhe","lat":"32.99907","lon":"105.48614","country":"CN","lastUpdated":"2021-12-06","type":{"class":"P","code":"PPLA4"},"region":{"a1":"15","a2":"6212"},"meta":{"pop":"4539","dem":"906","tz":"Asia/Shanghai"}},{"id":"7372475","name":"Luotang","ascii_name":"Luotang","lat":"33.06775","lon":"105.26485","country":"CN","lastUpdated":"2021-12-06","type":{"class":"P","code":"PPLA4"},"region":{"a1":"15","a2":"6212"},"meta":{"pop":"25871","dem":"1182","tz":"Asia/Shanghai"}},{"id":"7372534","name":"Lianghe","ascii_name":"Lianghe","lat":"33.12168","lon":"105.91947","country":"CN","lastUpdated":"2021-10-26","type":{"class":"P","code":"PPLA4"},"region":{"a1":"15","a2":"6212"},"meta":{"pop":"4240","dem":"922","tz":"Asia/Shanghai"}},{"id":"7372556","name":"Yuezhao","ascii_name":"Yuezhao","lat":"33.14059","lon":"105.16108","country":"CN","lastUpdated":"2021-12-06","type":{"class":"P","code":"PPLA4"},"region":{"a1":"15","a2":"6212"},"meta":{"pop":"4663","dem":"1733","tz":"Asia/Shanghai"}},{"id":"7372558","name":"Sanheba","ascii_name":"Sanheba","lat":"33.14188","lon":"105.68298","country":"CN","lastUpdated":"2021-10-26","type":{"class":"P","code":"PPLA4"},"region":{"a1":"15","a2":"6212"},"meta":{"pop":"5841","dem":"871","tz":"Asia/Shanghai"}},{"id":"7372585","name":"Pipa","ascii_name":"Pipa","lat":"33.16635","lon":"105.31344","country":"CN","lastUpdated":"2021-12-06","type":{"class":"P","code":"PPLA4"},"region":{"a1":"15","a2":"6212"},"meta":{"pop":"14053","dem":"1429","tz":"Asia/Shanghai"}},{"id":"7372657","name":"Dianzi","ascii_name":"Dianzi","lat":"33.22041","lon":"105.50127","country":"CN","lastUpdated":"2021-10-25","type":{"class":"P","code":"PPLA4"},"region":{"a1":"15","a2":"6212"},"meta":{"pop":"4334","dem":"1384","tz":"Asia/Shanghai"}},{"id":"7372727","name":"Yuhuang","ascii_name":"Yuhuang","lat":"33.29227","lon":"105.22467","country":"CN","lastUpdated":"2021-12-06","type":{"class":"P","code":"PPLA4"},"region":{"a1":"15","a2":"6212"},"meta":{"pop":"8468","dem":"1338","tz":"Asia/Shanghai"}},{"id":"7372743","name":"Nianba","ascii_name":"Nianba","lat":"33.30637","lon":"105.46936","country":"CN","lastUpdated":"2021-10-26","type":{"class":"P","code":"PPLA4"},"region":{"a1":"15","a2":"6212"},"meta":{"pop":"9431","dem":"1346","tz":"Asia/Shanghai"}},{"id":"7372766","name":"Huangping","ascii_name":"Huangping","lat":"33.32155","lon":"105.3322","country":"CN","lastUpdated":"2021-12-06","type":{"class":"P","code":"PPLA4"},"region":{"a1":"15","a2":"6212"},"meta":{"pop":"8930","dem":"1680","tz":"Asia/Shanghai"}},{"id":"7372786","name":"Wangba","ascii_name":"Wangba","lat":"33.34313","lon":"105.69458","country":"CN","lastUpdated":"2021-10-26","type":{"class":"P","code":"PPL"},"region":{"a1":"15","a2":"6212"},"meta":{"pop":"7752","dem":"1242","tz":"Asia/Shanghai"}},{"id":"7372793","name":"Guohe","ascii_name":"Guohe","lat":"33.35113","lon":"105.14871","country":"CN","lastUpdated":"2021-12-06","type":{"class":"P","code":"PPLA4"},"region":{"a1":"15","a2":"6212"},"meta":{"pop":"12585","dem":"1588","tz":"Asia/Shanghai"}},{"id":"7372875","name":"Changba","ascii_name":"Changba","lat":"33.42843","lon":"105.43458","country":"CN","lastUpdated":"2021-10-25","type":{"class":"P","code":"PPLA4"},"region":{"a1":"15","a2":"6212"},"meta":{"pop":"12488","dem":"1280","tz":"Asia/Shanghai"}},{"id":"7372877","name":"Dananyu","ascii_name":"Dananyu","lat":"33.43112","lon":"105.75843","country":"CN","lastUpdated":"2021-10-25","type":{"class":"P","code":"PPLA4"},"region":{"a1":"15","a2":"6212"},"meta":{"pop":"9520","dem":"957","tz":"Asia/Shanghai"}},{"id":"7372888","name":"Foya","ascii_name":"Foya","lat":"33.4378","lon":"105.27333","country":"CN","lastUpdated":"2021-12-06","type":{"class":"P","code":"PPLA4"},"region":{"a1":"15","a2":"6212"},"meta":{"pop":"12155","dem":"1340","tz":"Asia/Shanghai"}},{"id":"7372894","name":"Ganquan","ascii_name":"Ganquan","lat":"33.44178","lon":"105.15978","country":"CN","lastUpdated":"2021-12-06","type":{"class":"P","code":"PPLA4"},"region":{"a1":"15","a2":"6212"},"meta":{"pop":"9372","dem":"1657","tz":"Asia/Shanghai"}},{"id":"7372929","name":"Dabao","ascii_name":"Dabao","lat":"33.4706","lon":"105.57654","country":"CN","lastUpdated":"2021-10-25","type":{"class":"P","code":"PPLA4"},"region":{"a1":"15","a2":"6212"},"meta":{"pop":"9601","dem":"1038","tz":"Asia/Shanghai"}},{"id":"7372945","name":"Sitai","ascii_name":"Sitai","lat":"33.48641","lon":"105.61","country":"CN","lastUpdated":"2021-10-26","type":{"class":"P","code":"PPLA4"},"region":{"a1":"15","a2":"6212"},"meta":{"pop":"5798","dem":"998","tz":"Asia/Shanghai"}},{"id":"7372977","name":"Yulong","ascii_name":"Yulong","lat":"33.51003","lon":"105.1812","country":"CN","lastUpdated":"2021-12-06","type":{"class":"P","code":"PPLA4"},"region":{"a1":"15","a2":"6212"},"meta":{"pop":"15397","dem":"1988","tz":"Asia/Shanghai"}},{"id":"7372986","name":"Douping","ascii_name":"Douping","lat":"33.5165","lon":"105.46462","country":"CN","lastUpdated":"2021-10-26","type":{"class":"P","code":"PPLA4"},"region":{"a1":"15","a2":"6212"},"meta":{"pop":"12772","dem":"1237","tz":"Asia/Shanghai"}},{"id":"7373013","name":"Chanhe","ascii_name":"Chanhe","lat":"33.53667","lon":"105.65666","country":"CN","lastUpdated":"2021-10-21","type":{"class":"P","code":"PPLA4"},"region":{"a1":"15","a2":"6212"},"meta":{"pop":"4918","dem":"875","tz":"Asia/Shanghai"}},{"id":"7373023","name":"Miba","ascii_name":"Miba","lat":"33.54272","lon":"105.7819","country":"CN","lastUpdated":"2021-10-26","type":{"class":"P","code":"PPLA4"},"region":{"a1":"15","a2":"6212"},"meta":{"pop":"5175","dem":"1017","tz":"Asia/Shanghai"}},{"id":"7373083","name":"Huangchen","ascii_name":"Huangchen","lat":"33.58312","lon":"105.60159","country":"CN","lastUpdated":"2021-10-21","type":{"class":"P","code":"PPLA4"},"region":{"a1":"15","a2":"6212"},"meta":{"pop":"10635","dem":"1306","tz":"Asia/Shanghai"}},{"id":"7373101","name":"Longxing","ascii_name":"Longxing","lat":"33.59864","lon":"105.1929","country":"CN","lastUpdated":"2021-12-06","type":{"class":"P","code":"PPLA4"},"region":{"a1":"15","a2":"6212"},"meta":{"pop":"8410","dem":"1642","tz":"Asia/Shanghai"}},{"id":"7373106","name":"Songping","ascii_name":"Songping","lat":"33.60251","lon":"105.91054","country":"CN","lastUpdated":"2021-10-21","type":{"class":"P","code":"PPLA4"},"region":{"a1":"15","a2":"6212"},"meta":{"pop":"5277","dem":"853","tz":"Asia/Shanghai"}},{"id":"7373126","name":"Taishi","ascii_name":"Taishi","lat":"33.61657","lon":"105.45163","country":"CN","lastUpdated":"2021-10-26","type":{"class":"P","code":"PPLA4"},"region":{"a1":"15","a2":"6212"},"meta":{"pop":"3479","dem":"1013","tz":"Asia/Shanghai"}},{"id":"7373136","name":"Longba","ascii_name":"Longba","lat":"33.62476","lon":"105.29447","country":"CN","lastUpdated":"2021-12-06","type":{"class":"P","code":"PPLA4"},"region":{"a1":"15","a2":"6212"},"meta":{"pop":"5111","dem":"1423","tz":"Asia/Shanghai"}},{"id":"7373178","name":"Suochi","ascii_name":"Suochi","lat":"33.64586","lon":"105.51363","country":"CN","lastUpdated":"2021-10-21","type":{"class":"P","code":"PPLA4"},"region":{"a1":"15","a2":"6212"},"meta":{"pop":"9113","dem":"1305","tz":"Asia/Shanghai"}},{"id":"7373227","name":"Suyuan","ascii_name":"Suyuan","lat":"33.67348","lon":"105.45274","country":"CN","lastUpdated":"2021-10-21","type":{"class":"P","code":"PPLA4"},"region":{"a1":"15","a2":"6212"},"meta":{"pop":"7295","dem":"1280","tz":"Asia/Shanghai"}},{"id":"7373270","name":"Taishihe","ascii_name":"Taishihe","lat":"33.70578","lon":"105.18122","country":"CN","lastUpdated":"2021-10-28","type":{"class":"P","code":"PPLA4"},"region":{"a1":"15","a2":"6212"},"meta":{"pop":"5442","dem":"1150","tz":"Asia/Shanghai"}},{"id":"7373299","name":"Paosha","ascii_name":"Paosha","lat":"33.72353","lon":"105.67572","country":"CN","lastUpdated":"2021-10-21","type":{"class":"P","code":"PPLA4"},"region":{"a1":"15","a2":"6212"},"meta":{"pop":"21907","dem":"986","tz":"Asia/Shanghai"}},{"id":"7373302","name":"Zhifang","ascii_name":"Zhifang","lat":"33.72598","lon":"105.48358","country":"CN","lastUpdated":"2021-10-21","type":{"class":"P","code":"PPLA4"},"region":{"a1":"15","a2":"6212"},"meta":{"pop":"11799","dem":"1254","tz":"Asia/Shanghai"}},{"id":"7373312","name":"Shaba","ascii_name":"Shaba","lat":"33.73115","lon":"105.56412","country":"CN","lastUpdated":"2021-10-21","type":{"class":"P","code":"PPLA4"},"region":{"a1":"15","a2":"6212"},"meta":{"pop":"10107","dem":"1378","tz":"Asia/Shanghai"}},{"id":"7373329","name":"Xigaoshan","ascii_name":"Xigaoshan","lat":"33.73475","lon":"105.38817","country":"CN","lastUpdated":"2021-10-28","type":{"class":"P","code":"PPLA4"},"region":{"a1":"15","a2":"6212"},"meta":{"pop":"16550","dem":"1484","tz":"Asia/Shanghai"}},{"id":"7373359","name":"Diancun","ascii_name":"Diancun","lat":"33.77105","lon":"105.81809","country":"CN","lastUpdated":"2021-10-21","type":{"class":"P","code":"PPLA4"},"region":{"a1":"15","a2":"6212"},"meta":{"pop":"14852","dem":"1119","tz":"Asia/Shanghai"}},{"id":"7373363","name":"Chenyuan","ascii_name":"Chenyuan","lat":"33.76427","lon":"105.67601","country":"CN","lastUpdated":"2021-10-21","type":{"class":"P","code":"PPLA4"},"region":{"a1":"15","a2":"6212"},"meta":{"pop":"9571","dem":"1035","tz":"Asia/Shanghai"}},{"id":"7373371","name":"Haolin","ascii_name":"Haolin","lat":"33.76791","lon":"105.21345","country":"CN","lastUpdated":"2021-10-28","type":{"class":"P","code":"PPLA4"},"region":{"a1":"15","a2":"6212"},"meta":{"pop":"9531","dem":"1114","tz":"Asia/Shanghai"}},{"id":"7373419","name":"Liuxiang","ascii_name":"Liuxiang","lat":"33.79937","lon":"105.44447","country":"CN","lastUpdated":"2021-10-28","type":{"class":"P","code":"PPLA4"},"region":{"a1":"15","a2":"6212"},"meta":{"pop":"5655","dem":"1329","tz":"Asia/Shanghai"}},{"id":"7373429","name":"Yinxingshu","ascii_name":"Yinxingshu","lat":"33.80497","lon":"106.03793","country":"CN","lastUpdated":"2021-10-21","type":{"class":"P","code":"PPLA4"},"region":{"a1":"15","a2":"6212"},"meta":{"pop":"14806","dem":"958","tz":"Asia/Shanghai"}},{"id":"7373480","name":"Luoyu","ascii_name":"Luoyu","lat":"33.84103","lon":"105.23117","country":"CN","lastUpdated":"2021-10-28","type":{"class":"P","code":"PPLA4"},"region":{"a1":"15","a2":"6212"},"meta":{"pop":"29955","dem":"1635","tz":"Asia/Shanghai"}},{"id":"7373487","name":"Wangmo","ascii_name":"Wangmo","lat":"33.85074","lon":"105.67641","country":"CN","lastUpdated":"2021-10-21","type":{"class":"P","code":"PPLA4"},"region":{"a1":"15","a2":"6212"},"meta":{"pop":"8503","dem":"1063","tz":"Asia/Shanghai"}},{"id":"7373600","name":"Shili","ascii_name":"Shili","lat":"33.95182","lon":"105.29247","country":"CN","lastUpdated":"2021-10-28","type":{"class":"P","code":"PPLA4"},"region":{"a1":"15","a2":"6212"},"meta":{"pop":"38961","dem":"1648","tz":"Asia/Shanghai"}},{"id":"7373609","name":"Yushu","ascii_name":"Yushu","lat":"33.95978","lon":"106.00571","country":"CN","lastUpdated":"2021-10-24","type":{"class":"P","code":"PPLA4"},"region":{"a1":"15","a2":"6212"},"meta":{"pop":"6012","dem":"1235","tz":"Asia/Shanghai"}},{"id":"7373617","name":"Huangzhu","ascii_name":"Huangzhu","lat":"33.96755","lon":"105.68266","country":"CN","lastUpdated":"2021-10-21","type":{"class":"P","code":"PPLA4"},"region":{"a1":"15","a2":"6212"},"meta":{"pop":"9186","dem":"1179","tz":"Asia/Shanghai"}},{"id":"7373653","name":"Shaijing","ascii_name":"Shaijing","lat":"33.99345","lon":"105.5428","country":"CN","lastUpdated":"2021-10-28","type":{"class":"P","code":"PPLA4"},"region":{"a1":"15","a2":"6212"},"meta":{"pop":"4361","dem":"1478","tz":"Asia/Shanghai"}},{"id":"7373656","name":"Jiangxi","ascii_name":"Jiangxi","lat":"33.99934","lon":"105.19994","country":"CN","lastUpdated":"2021-10-28","type":{"class":"P","code":"PPLA4"},"region":{"a1":"15","a2":"6212"},"meta":{"pop":"27098","dem":"1716","tz":"Asia/Shanghai"}},{"id":"7373672","name":"Luhe","ascii_name":"Luhe","lat":"34.00918","lon":"105.34021","country":"CN","lastUpdated":"2021-10-28","type":{"class":"P","code":"PPLA4"},"region":{"a1":"15","a2":"6212"},"meta":{"pop":"23852","dem":"1625","tz":"Asia/Shanghai"}},{"id":"7373724","name":"Xiyu","ascii_name":"Xiyu","lat":"34.05163","lon":"105.3036","country":"CN","lastUpdated":"2021-10-28","type":{"class":"P","code":"PPL"},"region":{"a1":"15","a2":"6212"},"meta":{"pop":"24452","dem":"1604","tz":"Asia/Shanghai"}},{"id":"7373727","name":"Mayuan","ascii_name":"Mayuan","lat":"34.05397","lon":"105.52278","country":"CN","lastUpdated":"2021-10-28","type":{"class":"P","code":"PPLA4"},"region":{"a1":"15","a2":"6212"},"meta":{"pop":"13336","dem":"1529","tz":"Asia/Shanghai"}},{"id":"7373739","name":"Shaoyu","ascii_name":"Shaoyu","lat":"34.06408","lon":"105.3651","country":"CN","lastUpdated":"2021-10-28","type":{"class":"P","code":"PPL"},"region":{"a1":"15","a2":"6212"},"meta":{"pop":"18327","dem":"1651","tz":"Asia/Shanghai"}},{"id":"7384184","name":"Mangqu","ascii_name":"Mangqu","lat":"35.5857","lon":"100.75237","country":"CN","lastUpdated":"2021-09-20","type":{"class":"P","code":"PPLA3"},"region":{"a1":"06","a2":"6325"},"meta":{"pop":"0","dem":"3082","tz":"Asia/Shanghai"}},{"id":"7407683","name":"Yuguan","ascii_name":"Yuguan","lat":"33.63539","lon":"106.16716","country":"CN","lastUpdated":"2021-10-21","type":{"class":"P","code":"PPLA4"},"region":{"a1":"15","a2":"6212"},"meta":{"pop":"5645","dem":"947","tz":"Asia/Shanghai"}},{"id":"7407706","name":"Jialing","ascii_name":"Jialing","lat":"33.69927","lon":"106.19629","country":"CN","lastUpdated":"2021-10-21","type":{"class":"P","code":"PPLA4"},"region":{"a1":"15","a2":"6212"},"meta":{"pop":"9957","dem":"807","tz":"Asia/Shanghai"}},{"id":"7407743","name":"Shuiyang","ascii_name":"Shuiyang","lat":"33.74844","lon":"106.10278","country":"CN","lastUpdated":"2021-10-21","type":{"class":"P","code":"PPLA4"},"region":{"a1":"15","a2":"6212"},"meta":{"pop":"13029","dem":"923","tz":"Asia/Shanghai"}},{"id":"7407766","name":"Xianlong","ascii_name":"Xianlong","lat":"33.8142","lon":"106.24476","country":"CN","lastUpdated":"2021-10-26","type":{"class":"P","code":"PPLA4"},"region":{"a1":"15","a2":"6212"},"meta":{"pop":"3313","dem":"1160","tz":"Asia/Shanghai"}},{"id":"7407787","name":"Xinghua","ascii_name":"Xinghua","lat":"33.86151","lon":"106.36176","country":"CN","lastUpdated":"2021-10-26","type":{"class":"P","code":"PPLA4"},"region":{"a1":"15","a2":"6212"},"meta":{"pop":"2110","dem":"1296","tz":"Asia/Shanghai"}},{"id":"7407799","name":"Liulin","ascii_name":"Liulin","lat":"33.87437","lon":"106.1696","country":"CN","lastUpdated":"2021-10-21","type":{"class":"P","code":"PPLA4"},"region":{"a1":"15","a2":"6212"},"meta":{"pop":"9540","dem":"854","tz":"Asia/Shanghai"}},{"id":"7407813","name":"Jindong","ascii_name":"Jindong","lat":"33.90604","lon":"106.3087","country":"CN","lastUpdated":"2021-10-26","type":{"class":"P","code":"PPLA4"},"region":{"a1":"15","a2":"6212"},"meta":{"pop":"5470","dem":"963","tz":"Asia/Shanghai"}},{"id":"7413597","name":"Kajiadao","ascii_name":"Kajiadao","lat":"35.11718","lon":"102.99351","country":"CN","lastUpdated":"2021-11-12","type":{"class":"P","code":"PPLA4"},"region":{"a1":"15","a2":"6230"},"meta":{"pop":"2427","dem":"3315","tz":"Asia/Shanghai"}},{"id":"7413614","name":"Tangga’an","ascii_name":"Tangga'an","lat":"35.14316","lon":"102.85027","country":"CN","lastUpdated":"2021-11-24","type":{"class":"P","code":"PPLA4"},"region":{"a1":"15","a2":"6230"},"meta":{"pop":"2774","dem":"2634","tz":"Asia/Shanghai"}},{"id":"7413703","name":"Madang","ascii_name":"Madang","lat":"35.32442","lon":"102.7854","country":"CN","lastUpdated":"2021-11-24","type":{"class":"P","code":"PPLA4"},"region":{"a1":"15","a2":"6230"},"meta":{"pop":"5662","dem":"2390","tz":"Asia/Shanghai"}},{"id":"7413715","name":"Qu’ao","ascii_name":"Qu'ao","lat":"35.39397","lon":"102.92422","country":"CN","lastUpdated":"2021-11-24","type":{"class":"P","code":"PPLA4"},"region":{"a1":"15","a2":"6230"},"meta":{"pop":"2868","dem":"2277","tz":"Asia/Shanghai"}},{"id":"7428592","name":"Qianyang Chengguanzhen","ascii_name":"Qianyang Chengguanzhen","lat":"34.64209","lon":"107.13019","country":"CN","lastUpdated":"2021-09-20","type":{"class":"P","code":"PPLA3"},"region":{"a1":"26","a2":"6103"},"meta":{"pop":"0","dem":"733","tz":"Asia/Shanghai"}},{"id":"7432952","name":"Yangyong","ascii_name":"Yangyong","lat":"34.6459","lon":"103.47198","country":"CN","lastUpdated":"2021-11-15","type":{"class":"P","code":"PPLA4"},"region":{"a1":"15","a2":"6230"},"meta":{"pop":"7849","dem":"2680","tz":"Asia/Shanghai"}},{"id":"7446186","name":"Wangzang","ascii_name":"Wangzang","lat":"33.95072","lon":"103.59995","country":"CN","lastUpdated":"2021-11-12","type":{"class":"P","code":"PPLA4"},"region":{"a1":"15","a2":"6230"},"meta":{"pop":"6851","dem":"2142","tz":"Asia/Shanghai"}},{"id":"7446191","name":"Ni’ao","ascii_name":"Ni'ao","lat":"33.96083","lon":"103.55052","country":"CN","lastUpdated":"2021-11-12","type":{"class":"P","code":"PPLA4"},"region":{"a1":"15","a2":"6230"},"meta":{"pop":"2197","dem":"2054","tz":"Asia/Shanghai"}},{"id":"7446195","name":"Kaba","ascii_name":"Kaba","lat":"33.98035","lon":"103.49484","country":"CN","lastUpdated":"2021-11-12","type":{"class":"P","code":"PPLA4"},"region":{"a1":"15","a2":"6230"},"meta":{"pop":"2302","dem":"2198","tz":"Asia/Shanghai"}},{"id":"7446266","name":"Daogao","ascii_name":"Daogao","lat":"34.50267","lon":"103.12422","country":"CN","lastUpdated":"2021-12-02","type":{"class":"P","code":"PPLA4"},"region":{"a1":"15","a2":"6230"},"meta":{"pop":"4813","dem":"2867","tz":"Asia/Shanghai"}},{"id":"7446277","name":"Nalang","ascii_name":"Nalang","lat":"34.5154","lon":"103.70052","country":"CN","lastUpdated":"2021-12-05","type":{"class":"P","code":"PPLA4"},"region":{"a1":"15","a2":"6230"},"meta":{"pop":"7275","dem":"2489","tz":"Asia/Shanghai"}},{"id":"7446307","name":"Chubu","ascii_name":"Chubu","lat":"34.61808","lon":"103.29185","country":"CN","lastUpdated":"2021-11-15","type":{"class":"P","code":"PPLA4"},"region":{"a1":"15","a2":"6230"},"meta":{"pop":"3377","dem":"2649","tz":"Asia/Shanghai"}},{"id":"7446328","name":"Liushun","ascii_name":"Liushun","lat":"34.6492","lon":"103.54139","country":"CN","lastUpdated":"2021-11-15","type":{"class":"P","code":"PPLA4"},"region":{"a1":"15","a2":"6230"},"meta":{"pop":"8876","dem":"2718","tz":"Asia/Shanghai"}},{"id":"7446417","name":"Nawu","ascii_name":"Nawu","lat":"34.95403","lon":"102.91337","country":"CN","lastUpdated":"2021-11-12","type":{"class":"P","code":"PPLA4"},"region":{"a1":"15","a2":"6230"},"meta":{"pop":"6853","dem":"2940","tz":"Asia/Shanghai"}},{"id":"7446447","name":"Bajiao","ascii_name":"Bajiao","lat":"35.02825","lon":"103.69693","country":"CN","lastUpdated":"2021-11-15","type":{"class":"P","code":"PPLA4"},"region":{"a1":"15","a2":"6230"},"meta":{"pop":"5095","dem":"2306","tz":"Asia/Shanghai"}},{"id":"7446453","name":"Kangduo","ascii_name":"Kangduo","lat":"35.03431","lon":"103.52451","country":"CN","lastUpdated":"2021-12-05","type":{"class":"P","code":"PPLA4"},"region":{"a1":"15","a2":"6230"},"meta":{"pop":"2348","dem":"3039","tz":"Asia/Shanghai"}},{"id":"7446480","name":"Zuogaiduoma","ascii_name":"Zuogaiduoma","lat":"35.05587","lon":"103.12599","country":"CN","lastUpdated":"2021-11-12","type":{"class":"P","code":"PPLA4"},"region":{"a1":"15","a2":"6230"},"meta":{"pop":"3940","dem":"3422","tz":"Asia/Shanghai"}},{"id":"7516767","name":"Shangping","ascii_name":"Shangping","lat":"34.17559","lon":"104.86155","country":"CN","lastUpdated":"2021-10-26","type":{"class":"P","code":"PPL"},"region":{"a1":"15","a2":"6212"},"meta":{"pop":"5667","dem":"1883","tz":"Asia/Shanghai"}},{"id":"7516804","name":"Hadapu Zhen","ascii_name":"Hadapu Zhen","lat":"34.23132","lon":"104.22301","country":"CN","lastUpdated":"2021-10-27","type":{"class":"P","code":"PPLA4"},"region":{"a1":"15","a2":"6212"},"meta":{"pop":"28292","dem":"2234","tz":"Asia/Shanghai"}},{"id":"7516812","name":"Lichuan Zhen","ascii_name":"Lichuan Zhen","lat":"34.24845","lon":"104.31947","country":"CN","lastUpdated":"2021-10-27","type":{"class":"P","code":"PPLA4"},"region":{"a1":"15","a2":"6212"},"meta":{"pop":"19701","dem":"2233","tz":"Asia/Shanghai"}},{"id":"7516821","name":"Mu’er","ascii_name":"Mu'er","lat":"34.25702","lon":"104.34245","country":"CN","lastUpdated":"2021-10-27","type":{"class":"P","code":"PPL"},"region":{"a1":"15","a2":"6212"},"meta":{"pop":"5713","dem":"2334","tz":"Asia/Shanghai"}},{"id":"7516842","name":"Pangjia","ascii_name":"Pangjia","lat":"34.28729","lon":"104.28087","country":"CN","lastUpdated":"2021-10-27","type":{"class":"P","code":"PPL"},"region":{"a1":"15","a2":"6212"},"meta":{"pop":"7956","dem":"2379","tz":"Asia/Shanghai"}},{"id":"7516858","name":"Bali","ascii_name":"Bali","lat":"34.30613","lon":"104.36915","country":"CN","lastUpdated":"2021-10-26","type":{"class":"P","code":"PPLA4"},"region":{"a1":"15","a2":"6212"},"meta":{"pop":"7101","dem":"2401","tz":"Asia/Shanghai"}},{"id":"7517082","name":"Yan’anxiang","ascii_name":"Yan'anxiang","lat":"34.46001","lon":"104.91673","country":"CN","lastUpdated":"2021-11-09","type":{"class":"P","code":"PPLA4"},"region":{"a1":"15","a2":"6205"},"meta":{"pop":"13871","dem":"2026","tz":"Asia/Shanghai"}},{"id":"7517227","name":"Longtai","ascii_name":"Longtai","lat":"34.59885","lon":"104.89626","country":"CN","lastUpdated":"2021-11-09","type":{"class":"P","code":"PPL"},"region":{"a1":"15","a2":"6205"},"meta":{"pop":"11063","dem":"1964","tz":"Asia/Shanghai"}},{"id":"7517266","name":"Tange","ascii_name":"Tange","lat":"34.62764","lon":"104.84062","country":"CN","lastUpdated":"2021-11-09","type":{"class":"P","code":"PPLA4"},"region":{"a1":"15","a2":"6205"},"meta":{"pop":"37074","dem":"1767","tz":"Asia/Shanghai"}},{"id":"7517321","name":"Mali","ascii_name":"Mali","lat":"34.66463","lon":"104.69781","country":"CN","lastUpdated":"2021-11-09","type":{"class":"P","code":"PPL"},"region":{"a1":"15","a2":"6211"},"meta":{"pop":"42260","dem":"1650","tz":"Asia/Shanghai"}},{"id":"7517450","name":"Shandan","ascii_name":"Shandan","lat":"34.75106","lon":"104.83134","country":"CN","lastUpdated":"2021-11-09","type":{"class":"P","code":"PPL"},"region":{"a1":"15","a2":"6205"},"meta":{"pop":"24235","dem":"1511","tz":"Asia/Shanghai"}},{"id":"7517492","name":"Gaolou","ascii_name":"Gaolou","lat":"34.76084","lon":"104.67668","country":"CN","lastUpdated":"2021-11-09","type":{"class":"P","code":"PPLA4"},"region":{"a1":"15","a2":"6205"},"meta":{"pop":"18170","dem":"1633","tz":"Asia/Shanghai"}},{"id":"7517497","name":"Yuanyang","ascii_name":"Yuanyang","lat":"34.78768","lon":"104.77531","country":"CN","lastUpdated":"2021-11-09","type":{"class":"P","code":"PPLA4"},"region":{"a1":"15","a2":"6205"},"meta":{"pop":"26352","dem":"1555","tz":"Asia/Shanghai"}},{"id":"7517557","name":"Hualin","ascii_name":"Hualin","lat":"34.82559","lon":"104.75198","country":"CN","lastUpdated":"2021-11-09","type":{"class":"P","code":"PPL"},"region":{"a1":"15","a2":"6205"},"meta":{"pop":"16103","dem":"1588","tz":"Asia/Shanghai"}},{"id":"7517670","name":"Yupan","ascii_name":"Yupan","lat":"34.91651","lon":"104.91558","country":"CN","lastUpdated":"2021-11-09","type":{"class":"P","code":"PPL"},"region":{"a1":"15","a2":"6205"},"meta":{"pop":"14227","dem":"1943","tz":"Asia/Shanghai"}},{"id":"7536143","name":"Saga","ascii_name":"Saga","lat":"29.32367","lon":"85.22601","country":"CN","lastUpdated":"2021-09-20","type":{"class":"P","code":"PPL"},"region":{"a1":"14","a2":"5402"},"meta":{"pop":"3765","dem":"4475","tz":"Asia/Shanghai"}},{"id":"7576887","name":"Hezhou","ascii_name":"Hezhou","lat":"24.40357","lon":"111.56675","country":"CN","lastUpdated":"2021-10-14","type":{"class":"P","code":"PPLA2"},"region":{"a1":"16","a2":"4511"},"meta":{"pop":"1005490","dem":"106","tz":"Asia/Shanghai"}},{"id":"7602670","name":"Zhu Cheng City","ascii_name":"Zhu Cheng City","lat":"35.99502","lon":"119.40259","country":"CN","lastUpdated":"2021-09-20","type":{"class":"P","code":"PPLA3"},"region":{"a1":"25","a2":"3707"},"meta":{"pop":"1000000","dem":"67","tz":"Asia/Shanghai"}},{"id":"7628535","name":"Nanzheng Chengguanzhen","ascii_name":"Nanzheng Chengguanzhen","lat":"33.00452","lon":"106.93466","country":"CN","lastUpdated":"2021-09-20","type":{"class":"P","code":"PPLA3"},"region":{"a1":"26","a2":"6107"},"meta":{"pop":"0","dem":"534","tz":"Asia/Shanghai"}},{"id":"7635189","name":"Yelin","ascii_name":"Yelin","lat":"18.52099","lon":"110.0397","country":"CN","lastUpdated":"2021-09-20","type":{"class":"P","code":"PPLA3"},"region":{"a1":"31","a2":"12324201"},"meta":{"pop":"0","dem":"7","tz":"Asia/Shanghai"}},{"id":"7658307","name":"Yuanzhou","ascii_name":"Yuanzhou","lat":"27.79846","lon":"114.37608","country":"CN","lastUpdated":"2021-09-20","type":{"class":"P","code":"PPLA3"},"region":{"a1":"03","a2":"3609"},"meta":{"pop":"0","dem":"102","tz":"Asia/Shanghai"}},{"id":"7845495","name":"Xiayang","ascii_name":"Xiayang","lat":"31.14967","lon":"121.11588","country":"CN","lastUpdated":"2021-09-20","type":{"class":"P","code":"PPLA3"},"region":{"a1":"23","a2":"12324204"},"meta":{"pop":"0","dem":"6","tz":"Asia/Shanghai"}},{"id":"7845524","name":"Xinchenglu","ascii_name":"Xinchenglu","lat":"31.38864","lon":"121.26305","country":"CN","lastUpdated":"2021-09-20","type":{"class":"P","code":"PPLA3"},"region":{"a1":"23","a2":"12324204"},"meta":{"pop":"0","dem":"8","tz":"Asia/Shanghai"}},{"id":"7846104","name":"Fangsong","ascii_name":"Fangsong","lat":"31.03285","lon":"121.18943","country":"CN","lastUpdated":"2021-09-20","type":{"class":"P","code":"PPLA3"},"region":{"a1":"23","a2":"12324204"},"meta":{"pop":"0","dem":"6","tz":"Asia/Shanghai"}},{"id":"7894306","name":"Biru","ascii_name":"Biru","lat":"31.48319","lon":"93.67741","country":"CN","lastUpdated":"2021-09-20","type":{"class":"P","code":"PPLA3"},"region":{"a1":"14","a2":"5406"},"meta":{"pop":"0","dem":"3926","tz":"Asia/Shanghai"}},{"id":"7894308","name":"Biruxong","ascii_name":"Biruxong","lat":"31.401","lon":"93.601","country":"CN","lastUpdated":"2021-09-20","type":{"class":"P","code":"PPLA3"},"region":{"a1":"14","a2":"5406"},"meta":{"pop":"0","dem":"4582","tz":"Asia/Shanghai"}},{"id":"7896018","name":"Moluo","ascii_name":"Moluo","lat":"30.80392","lon":"98.10038","country":"CN","lastUpdated":"2021-09-20","type":{"class":"P","code":"PPLA3"},"region":{"a1":"14","a2":"5403"},"meta":{"pop":"0","dem":"4451","tz":"Asia/Shanghai"}},{"id":"7904017","name":"Qianquan","ascii_name":"Qianquan","lat":"30.87126","lon":"114.37258","country":"CN","lastUpdated":"2021-09-20","type":{"class":"P","code":"PPLA3"},"region":{"a1":"12","a2":"4201"},"meta":{"pop":"0","dem":"30","tz":"Asia/Shanghai"}},{"id":"7910932","name":"Shangri-La","ascii_name":"Shangri-La","lat":"27.82511","lon":"99.70779","country":"CN","lastUpdated":"2018-12-06","type":{"class":"P","code":"PPL"},"region":{"a1":"29","a2":"5334"},"meta":{"pop":"130000","dem":"3283","tz":"Asia/Shanghai"}},{"id":"7911338","name":"Jishi","ascii_name":"Jishi","lat":"35.84613","lon":"102.48171","country":"CN","lastUpdated":"2021-09-20","type":{"class":"P","code":"PPLA3"},"region":{"a1":"06","a2":"6302"},"meta":{"pop":"0","dem":"1883","tz":"Asia/Shanghai"}},{"id":"7927603","name":"Dingqing","ascii_name":"Dingqing","lat":"31.41153","lon":"95.58418","country":"CN","lastUpdated":"2021-09-20","type":{"class":"P","code":"PPLA3"},"region":{"a1":"14","a2":"5403"},"meta":{"pop":"0","dem":"3878","tz":"Asia/Shanghai"}},{"id":"7931226","name":"Konggar","ascii_name":"Konggar","lat":"29.29389","lon":"90.98708","country":"CN","lastUpdated":"2021-09-20","type":{"class":"P","code":"PPLA3"},"region":{"a1":"14","a2":"5405"},"meta":{"pop":"0","dem":"3568","tz":"Asia/Shanghai"}},{"id":"8042569","name":"Laxi","ascii_name":"Laxi","lat":"31.92125","lon":"94.04757","country":"CN","lastUpdated":"2021-09-20","type":{"class":"P","code":"PPLA3"},"region":{"a1":"14","a2":"5406"},"meta":{"pop":"0","dem":"4144","tz":"Asia/Shanghai"}},{"id":"8045774","name":"Mainling","ascii_name":"Mainling","lat":"29.21767","lon":"94.21325","country":"CN","lastUpdated":"2021-09-20","type":{"class":"P","code":"PPLA3"},"region":{"a1":"14","a2":"5404"},"meta":{"pop":"0","dem":"2937","tz":"Asia/Shanghai"}},{"id":"8046358","name":"Nagqu","ascii_name":"Nagqu","lat":"31.403","lon":"92.003","country":"CN","lastUpdated":"2021-09-20","type":{"class":"P","code":"PPLA3"},"region":{"a1":"14","a2":"5406"},"meta":{"pop":"0","dem":"4536","tz":"Asia/Shanghai"}},{"id":"8049689","name":"Renwu","ascii_name":"Renwu","lat":"29.605","lon":"89.005","country":"CN","lastUpdated":"2021-09-20","type":{"class":"P","code":"PPLA3"},"region":{"a1":"14","a2":"5402"},"meta":{"pop":"0","dem":"4690","tz":"Asia/Shanghai"}},{"id":"8049916","name":"Samdo","ascii_name":"Samdo","lat":"31.2143","lon":"96.5994","country":"CN","lastUpdated":"2021-09-20","type":{"class":"P","code":"PPLA3"},"region":{"a1":"14","a2":"5403"},"meta":{"pop":"0","dem":"3802","tz":"Asia/Shanghai"}},{"id":"8051687","name":"Xuejiawan","ascii_name":"Xuejiawan","lat":"39.86678","lon":"111.2208","country":"CN","lastUpdated":"2021-09-20","type":{"class":"P","code":"PPLA3"},"region":{"a1":"20","a2":"1506"},"meta":{"pop":"0","dem":"1138","tz":"Asia/Shanghai"}},{"id":"8052067","name":"Galutu","ascii_name":"Galutu","lat":"38.60086","lon":"108.84742","country":"CN","lastUpdated":"2021-09-20","type":{"class":"P","code":"PPLA3"},"region":{"a1":"20","a2":"1506"},"meta":{"pop":"0","dem":"1303","tz":"Asia/Shanghai"}},{"id":"8052068","name":"Aletengxire","ascii_name":"Aletengxire","lat":"39.57993","lon":"109.75821","country":"CN","lastUpdated":"2021-09-20","type":{"class":"P","code":"PPLA3"},"region":{"a1":"20","a2":"1506"},"meta":{"pop":"0","dem":"1304","tz":"Asia/Shanghai"}},{"id":"8052580","name":"Dabagou","ascii_name":"Dabagou","lat":"46.06946","lon":"121.91632","country":"CN","lastUpdated":"2021-09-20","type":{"class":"P","code":"PPLA3"},"region":{"a1":"20","a2":"1522"},"meta":{"pop":"0","dem":"309","tz":"Asia/Shanghai"}},{"id":"8053612","name":"Liuxiang","ascii_name":"Liuxiang","lat":"37.87143","lon":"112.56054","country":"CN","lastUpdated":"2021-09-20","type":{"class":"P","code":"PPLA3"},"region":{"a1":"24","a2":"1401"},"meta":{"pop":"0","dem":"799","tz":"Asia/Shanghai"}},{"id":"8053613","name":"Julun","ascii_name":"Julun","lat":"37.9074","lon":"112.55774","country":"CN","lastUpdated":"2021-09-20","type":{"class":"P","code":"PPLA3"},"region":{"a1":"24","a2":"1401"},"meta":{"pop":"0","dem":"815","tz":"Asia/Shanghai"}},{"id":"8053615","name":"Qianfeng","ascii_name":"Qianfeng","lat":"37.84942","lon":"112.52081","country":"CN","lastUpdated":"2021-09-20","type":{"class":"P","code":"PPLA3"},"region":{"a1":"24","a2":"1401"},"meta":{"pop":"0","dem":"789","tz":"Asia/Shanghai"}},{"id":"8053958","name":"Dongqu","ascii_name":"Dongqu","lat":"37.92021","lon":"112.20018","country":"CN","lastUpdated":"2021-09-20","type":{"class":"P","code":"PPLA3"},"region":{"a1":"24","a2":"1401"},"meta":{"pop":"0","dem":"971","tz":"Asia/Shanghai"}},{"id":"8054114","name":"Bala Ga’er Gaole","ascii_name":"Bala Ga'er Gaole","lat":"44.59149","lon":"117.6237","country":"CN","lastUpdated":"2021-09-20","type":{"class":"P","code":"PPLA3"},"region":{"a1":"20","a2":"1525"},"meta":{"pop":"0","dem":"996","tz":"Asia/Shanghai"}},{"id":"8054115","name":"Bieligutai","ascii_name":"Bieligutai","lat":"44.0303","lon":"114.98036","country":"CN","lastUpdated":"2021-09-20","type":{"class":"P","code":"PPLA3"},"region":{"a1":"20","a2":"1525"},"meta":{"pop":"0","dem":"1154","tz":"Asia/Shanghai"}},{"id":"8054116","name":"Tianjiao","ascii_name":"Tianjiao","lat":"39.82553","lon":"109.99953","country":"CN","lastUpdated":"2021-09-20","type":{"class":"P","code":"PPLA3"},"region":{"a1":"20","a2":"1506"},"meta":{"pop":"0","dem":"1440","tz":"Asia/Shanghai"}},{"id":"8054117","name":"Heping","ascii_name":"Heping","lat":"46.08626","lon":"122.07708","country":"CN","lastUpdated":"2021-09-20","type":{"class":"P","code":"PPLA3"},"region":{"a1":"20","a2":"1522"},"meta":{"pop":"0","dem":"304","tz":"Asia/Shanghai"}},{"id":"8054418","name":"Shangdu","ascii_name":"Shangdu","lat":"42.25005","lon":"116.00798","country":"CN","lastUpdated":"2021-09-20","type":{"class":"P","code":"PPLA3"},"region":{"a1":"20","a2":"1525"},"meta":{"pop":"0","dem":"1303","tz":"Asia/Shanghai"}},{"id":"8054538","name":"Wenquan","ascii_name":"Wenquan","lat":"47.1756","lon":"119.94809","country":"CN","lastUpdated":"2021-09-20","type":{"class":"P","code":"PPLA3"},"region":{"a1":"20","a2":"1522"},"meta":{"pop":"0","dem":"1148","tz":"Asia/Shanghai"}},{"id":"8054542","name":"Tongyangdao","ascii_name":"Tongyangdao","lat":"41.77031","lon":"109.96987","country":"CN","lastUpdated":"2021-09-20","type":{"class":"P","code":"PPLA3"},"region":{"a1":"20","a2":"1502"},"meta":{"pop":"0","dem":"1603","tz":"Asia/Shanghai"}},{"id":"8054575","name":"Bayinsai","ascii_name":"Bayinsai","lat":"39.50022","lon":"106.72021","country":"CN","lastUpdated":"2021-09-20","type":{"class":"P","code":"PPLA3"},"region":{"a1":"20","a2":"1503"},"meta":{"pop":"0","dem":"1120","tz":"Asia/Shanghai"}},{"id":"8054801","name":"Xingong","ascii_name":"Xingong","lat":"49.29031","lon":"120.70609","country":"CN","lastUpdated":"2021-09-20","type":{"class":"P","code":"PPLA3"},"region":{"a1":"20","a2":"1507"},"meta":{"pop":"0","dem":"658","tz":"Asia/Shanghai"}},{"id":"8054802","name":"Xiritala","ascii_name":"Xiritala","lat":"43.93889","lon":"116.07021","country":"CN","lastUpdated":"2021-09-20","type":{"class":"P","code":"PPLA3"},"region":{"a1":"20","a2":"1525"},"meta":{"pop":"0","dem":"988","tz":"Asia/Shanghai"}},{"id":"8054803","name":"Xinghua","ascii_name":"Xinghua","lat":"48.01449","lon":"122.69839","country":"CN","lastUpdated":"2021-09-20","type":{"class":"P","code":"PPLA3"},"region":{"a1":"20","a2":"1507"},"meta":{"pop":"0","dem":"319","tz":"Asia/Shanghai"}},{"id":"8059137","name":"Xarlung","ascii_name":"Xarlung","lat":"29.9","lon":"93.3","country":"CN","lastUpdated":"2021-09-20","type":{"class":"P","code":"PPLA3"},"region":{"a1":"14","a2":"5404"},"meta":{"pop":"0","dem":"3754","tz":"Asia/Shanghai"}},{"id":"8059273","name":"Xoixar","ascii_name":"Xoixar","lat":"27.903","lon":"91.903","country":"CN","lastUpdated":"2021-09-20","type":{"class":"P","code":"PPLA3"},"region":{"a1":"14","a2":"5405"},"meta":{"pop":"0","dem":"4452","tz":"Asia/Shanghai"}},{"id":"8067345","name":"Naidong","ascii_name":"Naidong","lat":"29.24301","lon":"91.77239","country":"CN","lastUpdated":"2021-09-20","type":{"class":"P","code":"PPLA3"},"region":{"a1":"14","a2":"5405"},"meta":{"pop":"0","dem":"3560","tz":"Asia/Shanghai"}},{"id":"8143712","name":"Dongjie","ascii_name":"Dongjie","lat":"26.08823","lon":"119.29449","country":"CN","lastUpdated":"2021-09-20","type":{"class":"P","code":"PPLA3"},"region":{"a1":"07","a2":"3501"},"meta":{"pop":"0","dem":"11","tz":"Asia/Shanghai"}},{"id":"8262129","name":"Shaoyang","ascii_name":"Shaoyang","lat":"32.92958","lon":"119.83576","country":"CN","lastUpdated":"2021-09-20","type":{"class":"P","code":"PPLA3"},"region":{"a1":"04","a2":"3212"},"meta":{"pop":"0","dem":"6","tz":"Asia/Shanghai"}},{"id":"8266674","name":"Guyang","ascii_name":"Guyang","lat":"32.13538","lon":"119.44209","country":"CN","lastUpdated":"2021-09-20","type":{"class":"P","code":"PPLA3"},"region":{"a1":"04","a2":"3211"},"meta":{"pop":"0","dem":"31","tz":"Asia/Shanghai"}},{"id":"8266677","name":"Zhengdonglu","ascii_name":"Zhengdonglu","lat":"32.19278","lon":"119.4705","country":"CN","lastUpdated":"2021-09-20","type":{"class":"P","code":"PPLA3"},"region":{"a1":"04","a2":"3211"},"meta":{"pop":"0","dem":"24","tz":"Asia/Shanghai"}},{"id":"8272451","name":"Shouxihu","ascii_name":"Shouxihu","lat":"32.42089","lon":"119.40435","country":"CN","lastUpdated":"2021-09-20","type":{"class":"P","code":"PPLA3"},"region":{"a1":"04","a2":"3210"},"meta":{"pop":"0","dem":"28","tz":"Asia/Shanghai"}},{"id":"8272456","name":"Hanshang","ascii_name":"Hanshang","lat":"32.37744","lon":"119.39302","country":"CN","lastUpdated":"2021-09-20","type":{"class":"P","code":"PPLA3"},"region":{"a1":"04","a2":"3210"},"meta":{"pop":"0","dem":"15","tz":"Asia/Shanghai"}},{"id":"8272606","name":"Wenhe","ascii_name":"Wenhe","lat":"32.39523","lon":"119.42688","country":"CN","lastUpdated":"2021-09-20","type":{"class":"P","code":"PPLA3"},"region":{"a1":"04","a2":"3210"},"meta":{"pop":"0","dem":"16","tz":"Asia/Shanghai"}},{"id":"8273495","name":"Wulaocun","ascii_name":"Wulaocun","lat":"32.03437","lon":"118.79575","country":"CN","lastUpdated":"2021-09-20","type":{"class":"P","code":"PPLA3"},"region":{"a1":"04","a2":"3201"},"meta":{"pop":"0","dem":"10","tz":"Asia/Shanghai"}},{"id":"8273497","name":"Qinhong","ascii_name":"Qinhong","lat":"32.01135","lon":"118.79655","country":"CN","lastUpdated":"2021-09-20","type":{"class":"P","code":"PPLA3"},"region":{"a1":"04","a2":"3201"},"meta":{"pop":"0","dem":"13","tz":"Asia/Shanghai"}},{"id":"8273498","name":"Binhu","ascii_name":"Binhu","lat":"32.03008","lon":"118.75768","country":"CN","lastUpdated":"2021-09-20","type":{"class":"P","code":"PPLA3"},"region":{"a1":"04","a2":"3201"},"meta":{"pop":"0","dem":"1","tz":"Asia/Shanghai"}},{"id":"8273502","name":"Meiyuan Xincun","ascii_name":"Meiyuan Xincun","lat":"32.05421","lon":"118.79275","country":"CN","lastUpdated":"2021-09-20","type":{"class":"P","code":"PPLA3"},"region":{"a1":"04","a2":"3201"},"meta":{"pop":"0","dem":"11","tz":"Asia/Shanghai"}},{"id":"8273866","name":"Xiongzhou","ascii_name":"Xiongzhou","lat":"32.34359","lon":"118.84986","country":"CN","lastUpdated":"2021-09-20","type":{"class":"P","code":"PPLA3"},"region":{"a1":"04","a2":"3201"},"meta":{"pop":"0","dem":"12","tz":"Asia/Shanghai"}},{"id":"8306430","name":"Jizhou","ascii_name":"Jizhou","lat":"27.14409","lon":"114.99596","country":"CN","lastUpdated":"2021-09-20","type":{"class":"P","code":"PPLA3"},"region":{"a1":"03","a2":"3608"},"meta":{"pop":"0","dem":"55","tz":"Asia/Shanghai"}},{"id":"8309983","name":"Fuzhou","ascii_name":"Fuzhou","lat":"26.07711","lon":"119.29153","country":"CN","lastUpdated":"2021-09-20","type":{"class":"P","code":"PPLA2"},"region":{"a1":"07","a2":"3501"},"meta":{"pop":"0","dem":"19","tz":"Asia/Shanghai"}},{"id":"8327110","name":"Nanchansi","ascii_name":"Nanchansi","lat":"31.56242","lon":"120.30021","country":"CN","lastUpdated":"2021-09-20","type":{"class":"P","code":"PPLA3"},"region":{"a1":"04","a2":"3202"},"meta":{"pop":"0","dem":"8","tz":"Asia/Shanghai"}},{"id":"8327120","name":"Beidajie","ascii_name":"Beidajie","lat":"31.58528","lon":"120.29004","country":"CN","lastUpdated":"2021-09-20","type":{"class":"P","code":"PPLA3"},"region":{"a1":"04","a2":"3202"},"meta":{"pop":"0","dem":"15","tz":"Asia/Shanghai"}},{"id":"8327132","name":"Chong’ansi","ascii_name":"Chong'ansi","lat":"31.57987","lon":"120.29518","country":"CN","lastUpdated":"2021-09-20","type":{"class":"P","code":"PPLA3"},"region":{"a1":"04","a2":"3202"},"meta":{"pop":"0","dem":"6","tz":"Asia/Shanghai"}},{"id":"8328215","name":"Songlong","ascii_name":"Songlong","lat":"31.1624","lon":"120.6384","country":"CN","lastUpdated":"2021-09-20","type":{"class":"P","code":"PPLA3"},"region":{"a1":"04","a2":"3205"},"meta":{"pop":"0","dem":"9","tz":"Asia/Shanghai"}},{"id":"8328223","name":"Yuanhe","ascii_name":"Yuanhe","lat":"31.39929","lon":"120.61445","country":"CN","lastUpdated":"2021-09-20","type":{"class":"P","code":"PPLA3"},"region":{"a1":"04","a2":"3205"},"meta":{"pop":"0","dem":"3","tz":"Asia/Shanghai"}},{"id":"8328227","name":"Shishan","ascii_name":"Shishan","lat":"31.29883","lon":"120.56516","country":"CN","lastUpdated":"2021-09-20","type":{"class":"P","code":"PPLA3"},"region":{"a1":"04","a2":"3205"},"meta":{"pop":"0","dem":"3","tz":"Asia/Shanghai"}},{"id":"8328228","name":"Shuangta","ascii_name":"Shuangta","lat":"31.30408","lon":"120.62968","country":"CN","lastUpdated":"2021-09-20","type":{"class":"P","code":"PPLA3"},"region":{"a1":"04","a2":"3205"},"meta":{"pop":"0","dem":"11","tz":"Asia/Shanghai"}},{"id":"8328229","name":"Pingjianglu","ascii_name":"Pingjianglu","lat":"31.31469","lon":"120.62978","country":"CN","lastUpdated":"2021-09-20","type":{"class":"P","code":"PPLA3"},"region":{"a1":"04","a2":"3205"},"meta":{"pop":"0","dem":"9","tz":"Asia/Shanghai"}},{"id":"8328230","name":"Shilu","ascii_name":"Shilu","lat":"31.31169","lon":"120.59409","country":"CN","lastUpdated":"2021-09-20","type":{"class":"P","code":"PPLA3"},"region":{"a1":"04","a2":"3205"},"meta":{"pop":"0","dem":"8","tz":"Asia/Shanghai"}},{"id":"8335135","name":"Xiangcheng","ascii_name":"Xiangcheng","lat":"31.93667","lon":"111.91778","country":"CN","lastUpdated":"2021-09-20","type":{"class":"P","code":"PPLA2"},"region":{"a1":"12","a2":"4206"},"meta":{"pop":"0","elv":"259","dem":"221","tz":"Asia/Shanghai"}},{"id":"8347664","name":"Ordos","ascii_name":"Ordos","lat":"39.6086","lon":"109.78157","country":"CN","lastUpdated":"2021-09-20","type":{"class":"P","code":"PPL"},"region":{"a1":"20","a2":"1506"},"meta":{"pop":"1940653","elv":"2149","dem":"1310","tz":"Asia/Shanghai"}},{"id":"8373307","name":"Lanjiang","ascii_name":"Lanjiang","lat":"29.21511","lon":"119.46121","country":"CN","lastUpdated":"2021-09-19","type":{"class":"P","code":"PPLA3"},"region":{"a1":"02","a2":"3307"},"meta":{"pop":"0","dem":"42","tz":"Asia/Shanghai"}},{"id":"8373683","name":"Chengzhong","ascii_name":"Chengzhong","lat":"29.10644","lon":"119.64855","country":"CN","lastUpdated":"2021-09-19","type":{"class":"P","code":"PPLA3"},"region":{"a1":"02","a2":"3307"},"meta":{"pop":"0","dem":"52","tz":"Asia/Shanghai"}},{"id":"8375814","name":"Jiefanglu","ascii_name":"Jiefanglu","lat":"31.70886","lon":"118.50905","country":"CN","lastUpdated":"2021-09-19","type":{"class":"P","code":"PPLA3"},"region":{"a1":"01","a2":"3405"},"meta":{"pop":"0","dem":"12","tz":"Asia/Shanghai"}},{"id":"8376220","name":"Ningnan","ascii_name":"Ningnan","lat":"31.98504","lon":"118.78147","country":"CN","lastUpdated":"2021-09-20","type":{"class":"P","code":"PPLA3"},"region":{"a1":"04","a2":"3201"},"meta":{"pop":"0","dem":"22","tz":"Asia/Shanghai"}},{"id":"8388017","name":"Chengbei","ascii_name":"Chengbei","lat":"40.22303","lon":"116.24584","country":"CN","lastUpdated":"2021-09-20","type":{"class":"P","code":"PPLA3"},"region":{"a1":"22","a2":"11876380"},"meta":{"pop":"0","dem":"68","tz":"Asia/Shanghai"}},{"id":"8388863","name":"Longshan","ascii_name":"Longshan","lat":"40.32015","lon":"116.62909","country":"CN","lastUpdated":"2021-09-20","type":{"class":"P","code":"PPLA3"},"region":{"a1":"22","a2":"11876380"},"meta":{"pop":"0","dem":"63","tz":"Asia/Shanghai"}},{"id":"8389413","name":"Dayu","ascii_name":"Dayu","lat":"39.9375","lon":"116.09669","country":"CN","lastUpdated":"2021-09-20","type":{"class":"P","code":"PPLA3"},"region":{"a1":"22","a2":"11876380"},"meta":{"pop":"0","dem":"105","tz":"Asia/Shanghai"}},{"id":"8389423","name":"Lugu","ascii_name":"Lugu","lat":"39.89672","lon":"116.22037","country":"CN","lastUpdated":"2021-09-20","type":{"class":"P","code":"PPLA3"},"region":{"a1":"22","a2":"11876380"},"meta":{"pop":"0","dem":"68","tz":"Asia/Shanghai"}},{"id":"8389501","name":"Jingshan","ascii_name":"Jingshan","lat":"39.92528","lon":"116.40411","country":"CN","lastUpdated":"2021-09-20","type":{"class":"P","code":"PPLA3"},"region":{"a1":"22","a2":"11876380"},"meta":{"pop":"0","dem":"52","tz":"Asia/Shanghai"}},{"id":"8389504","name":"Jinrongjie","ascii_name":"Jinrongjie","lat":"39.91222","lon":"116.35615","country":"CN","lastUpdated":"2021-09-20","type":{"class":"P","code":"PPLA3"},"region":{"a1":"22","a2":"11876380"},"meta":{"pop":"0","dem":"55","tz":"Asia/Shanghai"}},{"id":"8389511","name":"Chaowai","ascii_name":"Chaowai","lat":"39.91812","lon":"116.43242","country":"CN","lastUpdated":"2021-09-20","type":{"class":"P","code":"PPLA3"},"region":{"a1":"22","a2":"11876380"},"meta":{"pop":"0","dem":"49","tz":"Asia/Shanghai"}},{"id":"8389516","name":"Gongchen","ascii_name":"Gongchen","lat":"39.72796","lon":"116.13756","country":"CN","lastUpdated":"2021-09-20","type":{"class":"P","code":"PPLA3"},"region":{"a1":"22","a2":"11876380"},"meta":{"pop":"0","dem":"47","tz":"Asia/Shanghai"}},{"id":"8389517","name":"Beiyuan","ascii_name":"Beiyuan","lat":"39.90362","lon":"116.64667","country":"CN","lastUpdated":"2021-09-20","type":{"class":"P","code":"PPLA3"},"region":{"a1":"22","a2":"11876380"},"meta":{"pop":"0","dem":"31","tz":"Asia/Shanghai"}},{"id":"8389518","name":"Shengli","ascii_name":"Shengli","lat":"40.11818","lon":"116.64295","country":"CN","lastUpdated":"2021-09-20","type":{"class":"P","code":"PPLA3"},"region":{"a1":"22","a2":"11876380"},"meta":{"pop":"0","dem":"41","tz":"Asia/Shanghai"}},{"id":"8389519","name":"Xingfeng","ascii_name":"Xingfeng","lat":"39.72965","lon":"116.33661","country":"CN","lastUpdated":"2021-09-20","type":{"class":"P","code":"PPLA3"},"region":{"a1":"22","a2":"11876380"},"meta":{"pop":"0","dem":"43","tz":"Asia/Shanghai"}},{"id":"8389520","name":"Binhe","ascii_name":"Binhe","lat":"40.13347","lon":"117.10852","country":"CN","lastUpdated":"2021-09-20","type":{"class":"P","code":"PPLA3"},"region":{"a1":"22","a2":"11876380"},"meta":{"pop":"0","dem":"36","tz":"Asia/Shanghai"}},{"id":"8389521","name":"Gulou","ascii_name":"Gulou","lat":"40.36997","lon":"116.83352","country":"CN","lastUpdated":"2022-07-13","type":{"class":"P","code":"PPLA3"},"region":{"a1":"22","a2":"11876380"},"meta":{"pop":"0","dem":"73","tz":"Asia/Shanghai"}},{"id":"8394463","name":"Huayang","ascii_name":"Huayang","lat":"31.95165","lon":"119.16284","country":"CN","lastUpdated":"2021-09-20","type":{"class":"P","code":"PPLA3"},"region":{"a1":"04","a2":"3211"},"meta":{"pop":"0","dem":"24","tz":"Asia/Shanghai"}},{"id":"8394482","name":"Yunyang","ascii_name":"Yunyang","lat":"31.99563","lon":"119.56463","country":"CN","lastUpdated":"2021-09-20","type":{"class":"P","code":"PPLA3"},"region":{"a1":"04","a2":"3211"},"meta":{"pop":"0","dem":"12","tz":"Asia/Shanghai"}},{"id":"8395335","name":"Hehai","ascii_name":"Hehai","lat":"31.82921","lon":"119.9778","country":"CN","lastUpdated":"2021-09-20","type":{"class":"P","code":"PPLA3"},"region":{"a1":"04","a2":"3204"},"meta":{"pop":"0","dem":"2","tz":"Asia/Shanghai"}},{"id":"8395541","name":"Daocheng","ascii_name":"Daocheng","lat":"29.0379","lon":"100.2974","country":"CN","lastUpdated":"2021-09-05","type":{"class":"P","code":"PPL"},"region":{"a1":"04"},"meta":{"pop":"31113","elv":"3753","dem":"3756","tz":"Asia/Shanghai"}},{"id":"8396129","name":"Sanjiang","ascii_name":"Sanjiang","lat":"31.34813","lon":"118.36132","country":"CN","lastUpdated":"2021-09-19","type":{"class":"P","code":"PPLA3"},"region":{"a1":"01","a2":"3402"},"meta":{"pop":"0","dem":"14","tz":"Asia/Shanghai"}},{"id":"8397556","name":"Zuolan","ascii_name":"Zuolan","lat":"32.14789","lon":"108.45112","country":"CN","lastUpdated":"2022-04-08","type":{"class":"P","code":"PPLA4"},"region":{"a1":"33","a2":"8739734"},"meta":{"pop":"4968","dem":"821","tz":"Asia/Shanghai"}},{"id":"8397557","name":"Gaonan","ascii_name":"Gaonan","lat":"32.13286","lon":"108.51504","country":"CN","lastUpdated":"2022-04-08","type":{"class":"P","code":"PPLA4"},"region":{"a1":"33","a2":"8739734"},"meta":{"pop":"5099","dem":"925","tz":"Asia/Shanghai"}},{"id":"8397558","name":"Beiping","ascii_name":"Beiping","lat":"31.97388","lon":"108.77897","country":"CN","lastUpdated":"2022-04-08","type":{"class":"P","code":"PPLA4"},"region":{"a1":"33","a2":"8739734"},"meta":{"pop":"4964","dem":"1119","tz":"Asia/Shanghai"}},{"id":"8397559","name":"Lantian","ascii_name":"Lantian","lat":"31.92402","lon":"108.8879","country":"CN","lastUpdated":"2022-04-08","type":{"class":"P","code":"PPLA4"},"region":{"a1":"33","a2":"8739734"},"meta":{"pop":"2644","dem":"1170","tz":"Asia/Shanghai"}},{"id":"8397560","name":"Heyu","ascii_name":"Heyu","lat":"31.87058","lon":"108.9492","country":"CN","lastUpdated":"2022-04-08","type":{"class":"P","code":"PPLA4"},"region":{"a1":"33","a2":"8739734"},"meta":{"pop":"3382","dem":"983","tz":"Asia/Shanghai"}},{"id":"8397561","name":"Longtian","ascii_name":"Longtian","lat":"31.97427","lon":"108.63474","country":"CN","lastUpdated":"2022-04-08","type":{"class":"P","code":"PPLA4"},"region":{"a1":"33","a2":"8739734"},"meta":{"pop":"6983","dem":"739","tz":"Asia/Shanghai"}},{"id":"8397562","name":"Gaoyan","ascii_name":"Gaoyan","lat":"31.93566","lon":"108.6199","country":"CN","lastUpdated":"2022-04-08","type":{"class":"P","code":"PPLA4"},"region":{"a1":"33","a2":"8739734"},"meta":{"pop":"11655","dem":"805","tz":"Asia/Shanghai"}},{"id":"8397563","name":"Shuanghe","ascii_name":"Shuanghe","lat":"31.94216","lon":"108.34821","country":"CN","lastUpdated":"2022-04-08","type":{"class":"P","code":"PPLA4"},"region":{"a1":"33","a2":"8739734"},"meta":{"pop":"7871","dem":"856","tz":"Asia/Shanghai"}},{"id":"8397564","name":"Zhouxi","ascii_name":"Zhouxi","lat":"31.81665","lon":"108.47741","country":"CN","lastUpdated":"2022-04-08","type":{"class":"P","code":"PPLA4"},"region":{"a1":"33","a2":"8739734"},"meta":{"pop":"4873","dem":"720","tz":"Asia/Shanghai"}},{"id":"8397566","name":"Xianyi","ascii_name":"Xianyi","lat":"31.68939","lon":"108.65414","country":"CN","lastUpdated":"2022-04-08","type":{"class":"P","code":"PPLA4"},"region":{"a1":"33","a2":"8739734"},"meta":{"pop":"7232","dem":"797","tz":"Asia/Shanghai"}},{"id":"8397567","name":"Houping","ascii_name":"Houping","lat":"31.74021","lon":"108.93659","country":"CN","lastUpdated":"2022-04-08","type":{"class":"P","code":"PPLA4"},"region":{"a1":"33","a2":"8739734"},"meta":{"pop":"4645","dem":"1241","tz":"Asia/Shanghai"}},{"id":"8397568","name":"Mingzhong","ascii_name":"Mingzhong","lat":"31.73313","lon":"108.81515","country":"CN","lastUpdated":"2022-04-08","type":{"class":"P","code":"PPLA4"},"region":{"a1":"33","a2":"8739734"},"meta":{"pop":"4173","dem":"1076","tz":"Asia/Shanghai"}},{"id":"8397569","name":"Liaozi","ascii_name":"Liaozi","lat":"31.81374","lon":"108.6423","country":"CN","lastUpdated":"2022-04-08","type":{"class":"P","code":"PPLA4"},"region":{"a1":"33","a2":"8739734"},"meta":{"pop":"8744","dem":"734","tz":"Asia/Shanghai"}},{"id":"8397847","name":"Dongcheng","ascii_name":"Dongcheng","lat":"28.89381","lon":"120.04024","country":"CN","lastUpdated":"2021-09-19","type":{"class":"P","code":"PPLA3"},"region":{"a1":"02","a2":"3307"},"meta":{"pop":"0","dem":"87","tz":"Asia/Shanghai"}},{"id":"8397862","name":"Xujia","ascii_name":"Xujia","lat":"31.64476","lon":"109.6713","country":"CN","lastUpdated":"2022-09-08","type":{"class":"P","code":"PPLA4"},"region":{"a1":"33","a2":"8739734"},"meta":{"pop":"13461","dem":"411","tz":"Asia/Shanghai"}},{"id":"8397863","name":"Yulin","ascii_name":"Yulin","lat":"31.67517","lon":"109.48636","country":"CN","lastUpdated":"2022-09-08","type":{"class":"P","code":"PPLA4"},"region":{"a1":"33","a2":"8739734"},"meta":{"pop":"5336","dem":"631","tz":"Asia/Shanghai"}},{"id":"8397864","name":"Wulong","ascii_name":"Wulong","lat":"31.65439","lon":"109.43082","country":"CN","lastUpdated":"2022-09-08","type":{"class":"P","code":"PPLA4"},"region":{"a1":"33","a2":"8739734"},"meta":{"pop":"5993","dem":"678","tz":"Asia/Shanghai"}},{"id":"8397865","name":"Tucheng","ascii_name":"Tucheng","lat":"31.63407","lon":"109.22624","country":"CN","lastUpdated":"2022-09-08","type":{"class":"P","code":"PPLA4"},"region":{"a1":"33","a2":"8739734"},"meta":{"pop":"6245","dem":"674","tz":"Asia/Shanghai"}},{"id":"8397866","name":"Changgui","ascii_name":"Changgui","lat":"31.49405","lon":"109.36666","country":"CN","lastUpdated":"2022-09-07","type":{"class":"P","code":"PPLA4"},"region":{"a1":"33","a2":"8739734"},"meta":{"pop":"4770","dem":"1151","tz":"Asia/Shanghai"}},{"id":"8397867","name":"Shengli","ascii_name":"Shengli","lat":"31.43416","lon":"109.44733","country":"CN","lastUpdated":"2022-09-08","type":{"class":"P","code":"PPLA4"},"region":{"a1":"33","a2":"8739734"},"meta":{"pop":"7328","dem":"1097","tz":"Asia/Shanghai"}},{"id":"8397868","name":"Fenghuang","ascii_name":"Fenghuang","lat":"31.40168","lon":"109.51377","country":"CN","lastUpdated":"2022-09-08","type":{"class":"P","code":"PPLA4"},"region":{"a1":"33","a2":"8739734"},"meta":{"pop":"14574","dem":"239","tz":"Asia/Shanghai"}},{"id":"8397869","name":"Tianxing","ascii_name":"Tianxing","lat":"31.47085","lon":"109.5399","country":"CN","lastUpdated":"2022-09-08","type":{"class":"P","code":"PPLA4"},"region":{"a1":"33","a2":"8739734"},"meta":{"pop":"3121","dem":"301","tz":"Asia/Shanghai"}},{"id":"8397870","name":"Chengxiang","ascii_name":"Chengxiang","lat":"31.39798","lon":"109.57063","country":"CN","lastUpdated":"2022-08-22","type":{"class":"P","code":"PPLA3"},"region":{"a1":"33","a2":"8739734"},"meta":{"pop":"89080","dem":"328","tz":"Asia/Shanghai"}},{"id":"8397873","name":"Zhonggang","ascii_name":"Zhonggang","lat":"31.52406","lon":"108.8694","country":"CN","lastUpdated":"2022-09-08","type":{"class":"P","code":"PPLA4"},"region":{"a1":"33","a2":"8739734"},"meta":{"pop":"14567","dem":"491","tz":"Asia/Shanghai"}},{"id":"8397874","name":"Tianba","ascii_name":"Tianba","lat":"31.40108","lon":"108.86312","country":"CN","lastUpdated":"2022-09-08","type":{"class":"P","code":"PPLA4"},"region":{"a1":"33","a2":"8739734"},"meta":{"pop":"9568","dem":"316","tz":"Asia/Shanghai"}},{"id":"8397876","name":"Tangfang","ascii_name":"Tangfang","lat":"31.39292","lon":"109.30918","country":"CN","lastUpdated":"2022-09-08","type":{"class":"P","code":"PPLA4"},"region":{"a1":"33","a2":"8739734"},"meta":{"pop":"17065","dem":"804","tz":"Asia/Shanghai"}},{"id":"8397877","name":"Pulian","ascii_name":"Pulian","lat":"31.30082","lon":"109.56035","country":"CN","lastUpdated":"2022-09-08","type":{"class":"P","code":"PPLA4"},"region":{"a1":"33","a2":"8739734"},"meta":{"pop":"9443","dem":"510","tz":"Asia/Shanghai"}},{"id":"8397878","name":"Fengling","ascii_name":"Fengling","lat":"31.3194","lon":"109.55474","country":"CN","lastUpdated":"2022-09-08","type":{"class":"P","code":"PPLA4"},"region":{"a1":"33","a2":"8739734"},"meta":{"pop":"15517","dem":"811","tz":"Asia/Shanghai"}},{"id":"8397879","name":"Huatai","ascii_name":"Huatai","lat":"31.30537","lon":"109.65152","country":"CN","lastUpdated":"2022-09-08","type":{"class":"P","code":"PPLA4"},"region":{"a1":"33","a2":"8739734"},"meta":{"pop":"5028","dem":"182","tz":"Asia/Shanghai"}},{"id":"8397880","name":"Tongcheng","ascii_name":"Tongcheng","lat":"31.39733","lon":"109.73506","country":"CN","lastUpdated":"2022-09-08","type":{"class":"P","code":"PPLA4"},"region":{"a1":"33","a2":"8739734"},"meta":{"pop":"11741","dem":"941","tz":"Asia/Shanghai"}},{"id":"8397881","name":"Shuangyang","ascii_name":"Shuangyang","lat":"31.4766","lon":"109.82302","country":"CN","lastUpdated":"2022-09-08","type":{"class":"P","code":"PPLA4"},"region":{"a1":"33","a2":"8739734"},"meta":{"pop":"2111","dem":"975","tz":"Asia/Shanghai"}},{"id":"8398070","name":"Lingjiao","ascii_name":"Lingjiao","lat":"31.39795","lon":"109.43996","country":"CN","lastUpdated":"2022-09-08","type":{"class":"P","code":"PPLA4"},"region":{"a1":"33","a2":"8739734"},"meta":{"pop":"13364","dem":"497","tz":"Asia/Shanghai"}},{"id":"8398083","name":"Chaoyang","ascii_name":"Chaoyang","lat":"31.4064","lon":"109.05122","country":"CN","lastUpdated":"2022-09-08","type":{"class":"P","code":"PPLA4"},"region":{"a1":"33","a2":"8739734"},"meta":{"pop":"13524","dem":"781","tz":"Asia/Shanghai"}},{"id":"8398262","name":"Longjing","ascii_name":"Longjing","lat":"31.08943","lon":"109.88728","country":"CN","lastUpdated":"2021-10-19","type":{"class":"P","code":"PPLA4"},"region":{"a1":"33","a2":"8739734"},"meta":{"pop":"19130","dem":"234","tz":"Asia/Shanghai"}},{"id":"8398263","name":"Jianping","ascii_name":"Jianping","lat":"31.0449","lon":"109.92485","country":"CN","lastUpdated":"2021-10-19","type":{"class":"P","code":"PPLA4"},"region":{"a1":"33","a2":"8739734"},"meta":{"pop":"10464","dem":"842","tz":"Asia/Shanghai"}},{"id":"8398264","name":"Duping","ascii_name":"Duping","lat":"30.93117","lon":"110.1041","country":"CN","lastUpdated":"2021-10-19","type":{"class":"P","code":"PPLA4"},"region":{"a1":"33","a2":"8739734"},"meta":{"pop":"14965","dem":"1141","tz":"Asia/Shanghai"}},{"id":"8398265","name":"Baolong","ascii_name":"Baolong","lat":"30.94229","lon":"110.00588","country":"CN","lastUpdated":"2021-10-19","type":{"class":"P","code":"PPLA4"},"region":{"a1":"33","a2":"8739734"},"meta":{"pop":"19472","dem":"216","tz":"Asia/Shanghai"}},{"id":"8398266","name":"Tonggu","ascii_name":"Tonggu","lat":"30.93409","lon":"109.7311","country":"CN","lastUpdated":"2021-10-19","type":{"class":"P","code":"PPLA4"},"region":{"a1":"33","a2":"8739734"},"meta":{"pop":"18590","dem":"927","tz":"Asia/Shanghai"}},{"id":"8398267","name":"Hongchun","ascii_name":"Hongchun","lat":"30.85239","lon":"109.71211","country":"CN","lastUpdated":"2022-08-22","type":{"class":"P","code":"PPLA4"},"region":{"a1":"33","a2":"8739734"},"meta":{"pop":"4980","dem":"1452","tz":"Asia/Shanghai"}},{"id":"8398287","name":"Fuying","ascii_name":"Fuying","lat":"28.8626","lon":"120.7193","country":"CN","lastUpdated":"2021-09-19","type":{"class":"P","code":"PPLA3"},"region":{"a1":"02","a2":"3310"},"meta":{"pop":"0","dem":"66","tz":"Asia/Shanghai"}},{"id":"8398669","name":"Dangyang","ascii_name":"Dangyang","lat":"31.4056","lon":"109.97781","country":"CN","lastUpdated":"2022-08-22","type":{"class":"P","code":"PPLA4"},"region":{"a1":"33","a2":"8739734"},"meta":{"pop":"5160","dem":"784","tz":"Asia/Shanghai"}},{"id":"8398671","name":"Zhuxian","ascii_name":"Zhuxian","lat":"31.28284","lon":"110.06983","country":"CN","lastUpdated":"2022-08-22","type":{"class":"P","code":"PPLA4"},"region":{"a1":"33","a2":"8739734"},"meta":{"pop":"3928","dem":"1342","tz":"Asia/Shanghai"}},{"id":"8398672","name":"Sanxi","ascii_name":"Sanxi","lat":"31.13202","lon":"110.09403","country":"CN","lastUpdated":"2021-10-20","type":{"class":"P","code":"PPLA4"},"region":{"a1":"33"},"meta":{"pop":"18961","dem":"349","tz":"Asia/Shanghai"}},{"id":"8398673","name":"Liangping","ascii_name":"Liangping","lat":"31.12136","lon":"109.96909","country":"CN","lastUpdated":"2021-10-19","type":{"class":"P","code":"PPLA4"},"region":{"a1":"33","a2":"8739734"},"meta":{"pop":"16794","dem":"886","tz":"Asia/Shanghai"}},{"id":"8398674","name":"Jinping","ascii_name":"Jinping","lat":"31.20842","lon":"109.93537","country":"CN","lastUpdated":"2022-08-22","type":{"class":"P","code":"PPLA4"},"region":{"a1":"33","a2":"8739734"},"meta":{"pop":"2954","dem":"1045","tz":"Asia/Shanghai"}},{"id":"8398675","name":"Pinghe","ascii_name":"Pinghe","lat":"31.25999","lon":"109.94767","country":"CN","lastUpdated":"2021-10-20","type":{"class":"P","code":"PPLA4"},"region":{"a1":"33","a2":"8739734"},"meta":{"pop":"9990","dem":"195","tz":"Asia/Shanghai"}},{"id":"8398676","name":"Longxi","ascii_name":"Longxi","lat":"31.30223","lon":"109.63552","country":"CN","lastUpdated":"2021-10-19","type":{"class":"P","code":"PPLA4"},"region":{"a1":"33","a2":"8739734"},"meta":{"pop":"16304","dem":"213","tz":"Asia/Shanghai"}},{"id":"8398677","name":"Futian","ascii_name":"Futian","lat":"31.22201","lon":"109.71068","country":"CN","lastUpdated":"2021-10-19","type":{"class":"P","code":"PPLA4"},"region":{"a1":"33","a2":"8739734"},"meta":{"pop":"32340","dem":"313","tz":"Asia/Shanghai"}},{"id":"8399035","name":"Ping’an","ascii_name":"Ping'an","lat":"31.34962","lon":"109.15589","country":"CN","lastUpdated":"2022-06-05","type":{"class":"P","code":"PPLA4"},"region":{"a1":"33","a2":"8739734"},"meta":{"pop":"13161","dem":"808","tz":"Asia/Shanghai"}},{"id":"8399036","name":"Dashu","ascii_name":"Dashu","lat":"31.21093","lon":"109.32154","country":"CN","lastUpdated":"2022-06-05","type":{"class":"P","code":"PPLA4"},"region":{"a1":"33","a2":"8739734"},"meta":{"pop":"21793","dem":"398","tz":"Asia/Shanghai"}},{"id":"8399038","name":"Hongtu","ascii_name":"Hongtu","lat":"31.12464","lon":"109.09742","country":"CN","lastUpdated":"2022-06-05","type":{"class":"P","code":"PPLA4"},"region":{"a1":"33","a2":"8739734"},"meta":{"pop":"14483","dem":"548","tz":"Asia/Shanghai"}},{"id":"8399039","name":"Yanwan","ascii_name":"Yanwan","lat":"31.1957","lon":"109.5301","country":"CN","lastUpdated":"2022-06-05","type":{"class":"P","code":"PPLA4"},"region":{"a1":"33","a2":"8739734"},"meta":{"pop":"8682","dem":"803","tz":"Asia/Shanghai"}},{"id":"8399040","name":"Kangle","ascii_name":"Kangle","lat":"31.11278","lon":"109.42964","country":"CN","lastUpdated":"2022-06-05","type":{"class":"P","code":"PPLA4"},"region":{"a1":"33","a2":"8739734"},"meta":{"pop":"35521","dem":"189","tz":"Asia/Shanghai"}},{"id":"8399041","name":"Fenhe","ascii_name":"Fenhe","lat":"31.13723","lon":"109.52206","country":"CN","lastUpdated":"2022-06-05","type":{"class":"P","code":"PPLA4"},"region":{"a1":"33","a2":"8739734"},"meta":{"pop":"32059","dem":"382","tz":"Asia/Shanghai"}},{"id":"8399042","name":"Baidi","ascii_name":"Baidi","lat":"31.05761","lon":"109.59088","country":"CN","lastUpdated":"2022-06-05","type":{"class":"P","code":"PPLA4"},"region":{"a1":"33","a2":"8739734"},"meta":{"pop":"56216","dem":"196","tz":"Asia/Shanghai"}},{"id":"8399043","name":"Caotang","ascii_name":"Caotang","lat":"31.09023","lon":"109.62397","country":"CN","lastUpdated":"2021-10-19","type":{"class":"P","code":"PPLA4"},"region":{"a1":"33","a2":"8739734"},"meta":{"pop":"29647","dem":"259","tz":"Asia/Shanghai"}},{"id":"8399044","name":"Yongle","ascii_name":"Yongle","lat":"31.01048","lon":"109.50479","country":"CN","lastUpdated":"2022-06-05","type":{"class":"P","code":"PPLA4"},"region":{"a1":"33","a2":"8739734"},"meta":{"pop":"22434","dem":"594","tz":"Asia/Shanghai"}},{"id":"8399045","name":"Jiagao","ascii_name":"Jiagao","lat":"30.88922","lon":"109.17596","country":"CN","lastUpdated":"2022-06-05","type":{"class":"P","code":"PPLA4"},"region":{"a1":"33","a2":"8739734"},"meta":{"pop":"24407","dem":"412","tz":"Asia/Shanghai"}},{"id":"8399046","name":"Yunwu","ascii_name":"Yunwu","lat":"30.6006","lon":"109.12537","country":"CN","lastUpdated":"2022-06-05","type":{"class":"P","code":"PPLA4"},"region":{"a1":"33","a2":"8739734"},"meta":{"pop":"3287","dem":"1385","tz":"Asia/Shanghai"}},{"id":"8399047","name":"Taihe","ascii_name":"Taihe","lat":"30.64154","lon":"109.26175","country":"CN","lastUpdated":"2022-06-05","type":{"class":"P","code":"PPLA4"},"region":{"a1":"33","a2":"8739734"},"meta":{"pop":"9784","dem":"1349","tz":"Asia/Shanghai"}},{"id":"8399048","name":"Longqiao","ascii_name":"Longqiao","lat":"30.6153","lon":"109.36445","country":"CN","lastUpdated":"2022-06-05","type":{"class":"P","code":"PPLA4"},"region":{"a1":"33","a2":"8739734"},"meta":{"pop":"8609","dem":"1441","tz":"Asia/Shanghai"}},{"id":"8399049","name":"Qinglong","ascii_name":"Qinglong","lat":"30.77977","lon":"109.25641","country":"CN","lastUpdated":"2022-06-05","type":{"class":"P","code":"PPLA4"},"region":{"a1":"33","a2":"8739734"},"meta":{"pop":"15335","dem":"911","tz":"Asia/Shanghai"}},{"id":"8399050","name":"Wuma","ascii_name":"Wuma","lat":"30.85405","lon":"109.37645","country":"CN","lastUpdated":"2022-06-05","type":{"class":"P","code":"PPLA4"},"region":{"a1":"33","a2":"8739734"},"meta":{"pop":"25919","dem":"345","tz":"Asia/Shanghai"}},{"id":"8399052","name":"Fengping","ascii_name":"Fengping","lat":"30.83481","lon":"109.50499","country":"CN","lastUpdated":"2022-06-05","type":{"class":"P","code":"PPLA4"},"region":{"a1":"33","a2":"8739734"},"meta":{"pop":"15497","dem":"782","tz":"Asia/Shanghai"}},{"id":"8399053","name":"Chang’an","ascii_name":"Chang'an","lat":"30.83085","lon":"109.55812","country":"CN","lastUpdated":"2022-06-05","type":{"class":"P","code":"PPLA4"},"region":{"a1":"33","a2":"8739734"},"meta":{"pop":"11976","dem":"519","tz":"Asia/Shanghai"}},{"id":"8399478","name":"Qinglian","ascii_name":"Qinglian","lat":"31.19061","lon":"109.23686","country":"CN","lastUpdated":"2022-06-05","type":{"class":"P","code":"PPLA4"},"region":{"a1":"33","a2":"8739734"},"meta":{"pop":"26969","dem":"958","tz":"Asia/Shanghai"}},{"id":"8400049","name":"Baiquan","ascii_name":"Baiquan","lat":"31.59445","lon":"108.78316","country":"CN","lastUpdated":"2022-06-06","type":{"class":"P","code":"PPLA4"},"region":{"a1":"33","a2":"8739734"},"meta":{"pop":"8229","dem":"901","tz":"Asia/Shanghai"}},{"id":"8400050","name":"Guanmian","ascii_name":"Guanmian","lat":"31.55171","lon":"108.67039","country":"CN","lastUpdated":"2022-06-06","type":{"class":"P","code":"PPLA4"},"region":{"a1":"33","a2":"8739734"},"meta":{"pop":"7127","dem":"639","tz":"Asia/Shanghai"}},{"id":"8400051","name":"Manyue","ascii_name":"Manyue","lat":"31.61941","lon":"108.56406","country":"CN","lastUpdated":"2022-06-06","type":{"class":"P","code":"PPLA4"},"region":{"a1":"33","a2":"8739734"},"meta":{"pop":"10057","dem":"966","tz":"Asia/Shanghai"}},{"id":"8400052","name":"Heqian","ascii_name":"Heqian","lat":"31.41497","lon":"108.46973","country":"CN","lastUpdated":"2022-06-06","type":{"class":"P","code":"PPLA4"},"region":{"a1":"33","a2":"8739734"},"meta":{"pop":"20632","dem":"235","tz":"Asia/Shanghai"}},{"id":"8400053","name":"Maliu","ascii_name":"Maliu","lat":"31.43421","lon":"108.24463","country":"CN","lastUpdated":"2022-06-06","type":{"class":"P","code":"PPLA4"},"region":{"a1":"33","a2":"8739734"},"meta":{"pop":"17451","dem":"484","tz":"Asia/Shanghai"}},{"id":"8400054","name":"Heyan","ascii_name":"Heyan","lat":"31.35639","lon":"108.67045","country":"CN","lastUpdated":"2022-06-06","type":{"class":"P","code":"PPLA4"},"region":{"a1":"33","a2":"8739734"},"meta":{"pop":"19589","dem":"658","tz":"Asia/Shanghai"}},{"id":"8400055","name":"Baiqiao","ascii_name":"Baiqiao","lat":"31.28192","lon":"108.59375","country":"CN","lastUpdated":"2022-06-06","type":{"class":"P","code":"PPLA4"},"region":{"a1":"33","a2":"8739734"},"meta":{"pop":"13796","dem":"861","tz":"Asia/Shanghai"}},{"id":"8400056","name":"Guojia","ascii_name":"Guojia","lat":"31.29528","lon":"108.48104","country":"CN","lastUpdated":"2022-06-06","type":{"class":"P","code":"PPLA4"},"region":{"a1":"33","a2":"8739734"},"meta":{"pop":"31394","dem":"201","tz":"Asia/Shanghai"}},{"id":"8400057","name":"Baihe","ascii_name":"Baihe","lat":"31.26348","lon":"108.46372","country":"CN","lastUpdated":"2022-06-06","type":{"class":"P","code":"PPLA4"},"region":{"a1":"33","a2":"8739734"},"meta":{"pop":"40937","dem":"182","tz":"Asia/Shanghai"}},{"id":"8400058","name":"Dunhao","ascii_name":"Dunhao","lat":"31.33301","lon":"108.3582","country":"CN","lastUpdated":"2022-06-06","type":{"class":"P","code":"PPLA4"},"region":{"a1":"33","a2":"8739734"},"meta":{"pop":"36863","dem":"427","tz":"Asia/Shanghai"}},{"id":"8400059","name":"Gaoqiao","ascii_name":"Gaoqiao","lat":"31.36876","lon":"108.24215","country":"CN","lastUpdated":"2022-06-06","type":{"class":"P","code":"PPLA4"},"region":{"a1":"33","a2":"8739734"},"meta":{"pop":"23608","dem":"502","tz":"Asia/Shanghai"}},{"id":"8400060","name":"Tianhe","ascii_name":"Tianhe","lat":"31.28761","lon":"108.19341","country":"CN","lastUpdated":"2022-06-06","type":{"class":"P","code":"PPLA4"},"region":{"a1":"33","a2":"8739734"},"meta":{"pop":"14818","dem":"419","tz":"Asia/Shanghai"}},{"id":"8400061","name":"Sanhuikou","ascii_name":"Sanhuikou","lat":"31.25507","lon":"108.10025","country":"CN","lastUpdated":"2022-06-06","type":{"class":"P","code":"PPLA4"},"region":{"a1":"33","a2":"8739734"},"meta":{"pop":"13190","dem":"596","tz":"Asia/Shanghai"}},{"id":"8400137","name":"Yihe","ascii_name":"Yihe","lat":"31.15734","lon":"108.08256","country":"CN","lastUpdated":"2022-06-06","type":{"class":"P","code":"PPLA4"},"region":{"a1":"33","a2":"8739734"},"meta":{"pop":"26313","dem":"340","tz":"Asia/Shanghai"}},{"id":"8400138","name":"Jiulongshan","ascii_name":"Jiulongshan","lat":"31.19445","lon":"108.25094","country":"CN","lastUpdated":"2022-06-06","type":{"class":"P","code":"PPLA4"},"region":{"a1":"33","a2":"8739734"},"meta":{"pop":"32696","dem":"716","tz":"Asia/Shanghai"}},{"id":"8400139","name":"Zhen’an","ascii_name":"Zhen'an","lat":"31.15226","lon":"108.31675","country":"CN","lastUpdated":"2022-06-06","type":{"class":"P","code":"PPLA4"},"region":{"a1":"33","a2":"8739734"},"meta":{"pop":"15452","dem":"198","tz":"Asia/Shanghai"}},{"id":"8400140","name":"Dade","ascii_name":"Dade","lat":"31.21288","lon":"108.34026","country":"CN","lastUpdated":"2022-06-06","type":{"class":"P","code":"PPLA4"},"region":{"a1":"33","a2":"8739734"},"meta":{"pop":"31548","dem":"705","tz":"Asia/Shanghai"}},{"id":"8400141","name":"Fengle","ascii_name":"Fengle","lat":"31.18975","lon":"108.41461","country":"CN","lastUpdated":"2022-06-06","type":{"class":"P","code":"PPLA4"},"region":{"a1":"33","a2":"8739734"},"meta":{"pop":"19851","dem":"177","tz":"Asia/Shanghai"}},{"id":"8400142","name":"Zhendong","ascii_name":"Zhendong","lat":"31.18517","lon":"108.39544","country":"CN","lastUpdated":"2022-06-06","type":{"class":"P","code":"PPLA4"},"region":{"a1":"33","a2":"8739734"},"meta":{"pop":"18819","dem":"170","tz":"Asia/Shanghai"}},{"id":"8400143","name":"Houba","ascii_name":"Houba","lat":"31.20509","lon":"108.50628","country":"CN","lastUpdated":"2022-06-06","type":{"class":"P","code":"PPLA4"},"region":{"a1":"33","a2":"8739734"},"meta":{"pop":"17358","dem":"164","tz":"Asia/Shanghai"}},{"id":"8400144","name":"Jinfeng","ascii_name":"Jinfeng","lat":"31.19358","lon":"108.56146","country":"CN","lastUpdated":"2022-06-06","type":{"class":"P","code":"PPLA4"},"region":{"a1":"33","a2":"8739734"},"meta":{"pop":"13355","dem":"184","tz":"Asia/Shanghai"}},{"id":"8400145","name":"Qukou","ascii_name":"Qukou","lat":"31.13804","lon":"108.47907","country":"CN","lastUpdated":"2022-06-06","type":{"class":"P","code":"PPLA4"},"region":{"a1":"33","a2":"8739734"},"meta":{"pop":"14437","dem":"196","tz":"Asia/Shanghai"}},{"id":"8400146","name":"Changsha","ascii_name":"Changsha","lat":"30.99997","lon":"108.30463","country":"CN","lastUpdated":"2022-06-06","type":{"class":"P","code":"PPLA4"},"region":{"a1":"33","a2":"8739734"},"meta":{"pop":"47170","dem":"190","tz":"Asia/Shanghai"}},{"id":"8400147","name":"Nanmen","ascii_name":"Nanmen","lat":"30.96187","lon":"108.24327","country":"CN","lastUpdated":"2022-06-06","type":{"class":"P","code":"PPLA4"},"region":{"a1":"33","a2":"8739734"},"meta":{"pop":"40941","dem":"197","tz":"Asia/Shanghai"}},{"id":"8400148","name":"Wutong","ascii_name":"Wutong","lat":"30.88962","lon":"108.05658","country":"CN","lastUpdated":"2022-06-06","type":{"class":"P","code":"PPLA4"},"region":{"a1":"33","a2":"8739734"},"meta":{"pop":"5530","dem":"237","tz":"Asia/Shanghai"}},{"id":"8400149","name":"Wushan","ascii_name":"Wushan","lat":"30.93725","lon":"107.9466","country":"CN","lastUpdated":"2022-06-06","type":{"class":"P","code":"PPLA4"},"region":{"a1":"33","a2":"8739734"},"meta":{"pop":"19829","dem":"259","tz":"Asia/Shanghai"}},{"id":"8400150","name":"Nanya","ascii_name":"Nanya","lat":"31.08434","lon":"108.08664","country":"CN","lastUpdated":"2022-06-06","type":{"class":"P","code":"PPLA4"},"region":{"a1":"33","a2":"8739734"},"meta":{"pop":"28382","dem":"288","tz":"Asia/Shanghai"}},{"id":"8400151","name":"Zhuxi","ascii_name":"Zhuxi","lat":"31.12443","lon":"108.29065","country":"CN","lastUpdated":"2022-06-06","type":{"class":"P","code":"PPLA4"},"region":{"a1":"33","a2":"8739734"},"meta":{"pop":"22900","dem":"183","tz":"Asia/Shanghai"}},{"id":"8400688","name":"Dongcheng","ascii_name":"Dongcheng","lat":"28.6473","lon":"121.27106","country":"CN","lastUpdated":"2021-09-19","type":{"class":"P","code":"PPLA3"},"region":{"a1":"02","a2":"3310"},"meta":{"pop":"0","dem":"9","tz":"Asia/Shanghai"}},{"id":"8400691","name":"Lubei","ascii_name":"Lubei","lat":"28.58633","lon":"121.36998","country":"CN","lastUpdated":"2021-09-19","type":{"class":"P","code":"PPLA3"},"region":{"a1":"02","a2":"3310"},"meta":{"pop":"0","dem":"11","tz":"Asia/Shanghai"}},{"id":"8400694","name":"Taizhou","ascii_name":"Taizhou","lat":"28.66266","lon":"121.43312","country":"CN","lastUpdated":"2021-12-13","type":{"class":"P","code":"PPLA2"},"region":{"a1":"02","a2":"3310"},"meta":{"pop":"1485502","dem":"15","tz":"Asia/Shanghai"}},{"id":"8400700","name":"Gucheng","ascii_name":"Gucheng","lat":"28.84856","lon":"121.1161","country":"CN","lastUpdated":"2021-09-19","type":{"class":"P","code":"PPLA3"},"region":{"a1":"02","a2":"3310"},"meta":{"pop":"0","dem":"14","tz":"Asia/Shanghai"}},{"id":"8401156","name":"Taiping","ascii_name":"Taiping","lat":"28.36877","lon":"121.36171","country":"CN","lastUpdated":"2021-09-19","type":{"class":"P","code":"PPLA3"},"region":{"a1":"02","a2":"3310"},"meta":{"pop":"0","dem":"12","tz":"Asia/Shanghai"}},{"id":"8401397","name":"Zhugang","ascii_name":"Zhugang","lat":"28.13832","lon":"121.22621","country":"CN","lastUpdated":"2021-09-19","type":{"class":"P","code":"PPLA3"},"region":{"a1":"02","a2":"3310"},"meta":{"pop":"0","dem":"13","tz":"Asia/Shanghai"}},{"id":"8403605","name":"Houshan","ascii_name":"Houshan","lat":"30.82589","lon":"108.02866","country":"CN","lastUpdated":"2022-08-07","type":{"class":"P","code":"PPLA4"},"region":{"a1":"33","a2":"8739734"},"meta":{"pop":"15338","dem":"620","tz":"Asia/Shanghai"}},{"id":"8403606","name":"Sunjia","ascii_name":"Sunjia","lat":"30.72977","lon":"108.01374","country":"CN","lastUpdated":"2022-08-07","type":{"class":"P","code":"PPLA4"},"region":{"a1":"33","a2":"8739734"},"meta":{"pop":"9737","dem":"739","tz":"Asia/Shanghai"}},{"id":"8403607","name":"Lihe","ascii_name":"Lihe","lat":"30.81609","lon":"108.26216","country":"CN","lastUpdated":"2022-08-07","type":{"class":"P","code":"PPLA4"},"region":{"a1":"33","a2":"8739734"},"meta":{"pop":"23264","dem":"210","tz":"Asia/Shanghai"}},{"id":"8403608","name":"Tiefeng","ascii_name":"Tiefeng","lat":"30.96768","lon":"108.39532","country":"CN","lastUpdated":"2022-08-07","type":{"class":"P","code":"PPLA4"},"region":{"a1":"33","a2":"8739734"},"meta":{"pop":"7934","dem":"619","tz":"Asia/Shanghai"}},{"id":"8403609","name":"Xiongjia","ascii_name":"Xiongjia","lat":"30.90155","lon":"108.43367","country":"CN","lastUpdated":"2022-08-07","type":{"class":"P","code":"PPLA4"},"region":{"a1":"33","a2":"8739734"},"meta":{"pop":"33176","dem":"331","tz":"Asia/Shanghai"}},{"id":"8403610","name":"Tiancheng","ascii_name":"Tiancheng","lat":"30.86761","lon":"108.36969","country":"CN","lastUpdated":"2022-08-07","type":{"class":"P","code":"PPLA4"},"region":{"a1":"33","a2":"8739734"},"meta":{"pop":"41762","dem":"345","tz":"Asia/Shanghai"}},{"id":"8403611","name":"Zhoujiaba","ascii_name":"Zhoujiaba","lat":"30.84349","lon":"108.36642","country":"CN","lastUpdated":"2022-08-06","type":{"class":"P","code":"PPLA4"},"region":{"a1":"33","a2":"8739734"},"meta":{"pop":"88494","dem":"318","tz":"Asia/Shanghai"}},{"id":"8403612","name":"Taibai","ascii_name":"Taibai","lat":"30.82482","lon":"108.35783","country":"CN","lastUpdated":"2022-08-06","type":{"class":"P","code":"PPLA4"},"region":{"a1":"33","a2":"8739734"},"meta":{"pop":"108387","dem":"200","tz":"Asia/Shanghai"}},{"id":"8403613","name":"Gaoliang","ascii_name":"Gaoliang","lat":"30.82394","lon":"108.30224","country":"CN","lastUpdated":"2022-08-07","type":{"class":"P","code":"PPLA4"},"region":{"a1":"33","a2":"8739734"},"meta":{"pop":"49357","dem":"189","tz":"Asia/Shanghai"}},{"id":"8403614","name":"Zhonggulou","ascii_name":"Zhonggulou","lat":"30.82491","lon":"108.38413","country":"CN","lastUpdated":"2022-08-06","type":{"class":"P","code":"PPLA4"},"region":{"a1":"33","a2":"8739734"},"meta":{"pop":"85873","dem":"194","tz":"Asia/Shanghai"}},{"id":"8403615","name":"Jiuchi","ascii_name":"Jiuchi","lat":"30.79834","lon":"108.37089","country":"CN","lastUpdated":"2022-08-07","type":{"class":"P","code":"PPLA4"},"region":{"a1":"33","a2":"8739734"},"meta":{"pop":"17705","dem":"256","tz":"Asia/Shanghai"}},{"id":"8403616","name":"Pailou","ascii_name":"Pailou","lat":"30.79641","lon":"108.3858","country":"CN","lastUpdated":"2022-08-06","type":{"class":"P","code":"PPLA4"},"region":{"a1":"33","a2":"8739734"},"meta":{"pop":"104351","dem":"203","tz":"Asia/Shanghai"}},{"id":"8403617","name":"Chenjiaba","ascii_name":"Chenjiaba","lat":"30.80767","lon":"108.40846","country":"CN","lastUpdated":"2022-08-06","type":{"class":"P","code":"PPLA4"},"region":{"a1":"33","a2":"8739734"},"meta":{"pop":"24745","dem":"410","tz":"Asia/Shanghai"}},{"id":"8403618","name":"Bai’anba","ascii_name":"Bai'anba","lat":"30.76283","lon":"108.43717","country":"CN","lastUpdated":"2022-08-06","type":{"class":"P","code":"PPLA4"},"region":{"a1":"33","a2":"8739734"},"meta":{"pop":"91947","dem":"317","tz":"Asia/Shanghai"}},{"id":"8403619","name":"Shuanghekou","ascii_name":"Shuanghekou","lat":"30.75398","lon":"108.36958","country":"CN","lastUpdated":"2022-08-07","type":{"class":"P","code":"PPLA4"},"region":{"a1":"33","a2":"8739734"},"meta":{"pop":"33715","dem":"185","tz":"Asia/Shanghai"}},{"id":"8403620","name":"Zhushan","ascii_name":"Zhushan","lat":"30.73294","lon":"108.27419","country":"CN","lastUpdated":"2022-08-07","type":{"class":"P","code":"PPLA4"},"region":{"a1":"33","a2":"8739734"},"meta":{"pop":"16331","dem":"709","tz":"Asia/Shanghai"}},{"id":"8403846","name":"Danzi","ascii_name":"Danzi","lat":"30.857","lon":"108.00592","country":"CN","lastUpdated":"2022-08-07","type":{"class":"P","code":"PPLA4"},"region":{"a1":"33","a2":"8739734"},"meta":{"pop":"18318","dem":"257","tz":"Asia/Shanghai"}},{"id":"8403865","name":"Huangbai","ascii_name":"Huangbai","lat":"30.91302","lon":"108.58249","country":"CN","lastUpdated":"2022-08-07","type":{"class":"P","code":"PPLA4"},"region":{"a1":"33","a2":"8739734"},"meta":{"pop":"10949","dem":"202","tz":"Asia/Shanghai"}},{"id":"8403867","name":"Changtan","ascii_name":"Changtan","lat":"30.73916","lon":"108.59976","country":"CN","lastUpdated":"2022-08-07","type":{"class":"P","code":"PPLA4"},"region":{"a1":"33","a2":"8739734"},"meta":{"pop":"17904","dem":"252","tz":"Asia/Shanghai"}},{"id":"8403868","name":"Tai’an","ascii_name":"Tai'an","lat":"30.79554","lon":"108.65921","country":"CN","lastUpdated":"2022-08-07","type":{"class":"P","code":"PPLA4"},"region":{"a1":"33","a2":"8739734"},"meta":{"pop":"19583","dem":"788","tz":"Asia/Shanghai"}},{"id":"8403869","name":"Lishu","ascii_name":"Lishu","lat":"30.66438","lon":"108.74758","country":"CN","lastUpdated":"2022-08-07","type":{"class":"P","code":"PPLA4"},"region":{"a1":"33","a2":"8739734"},"meta":{"pop":"6116","dem":"906","tz":"Asia/Shanghai"}},{"id":"8403870","name":"Dibao","ascii_name":"Dibao","lat":"30.65824","lon":"108.8954","country":"CN","lastUpdated":"2022-08-07","type":{"class":"P","code":"PPLA4"},"region":{"a1":"33","a2":"8739734"},"meta":{"pop":"5502","dem":"315","tz":"Asia/Shanghai"}},{"id":"8403871","name":"Henghe","ascii_name":"Henghe","lat":"30.53147","lon":"108.75415","country":"CN","lastUpdated":"2022-08-07","type":{"class":"P","code":"PPLA4"},"region":{"a1":"33","a2":"8739734"},"meta":{"pop":"13606","dem":"1214","tz":"Asia/Shanghai"}},{"id":"8403872","name":"Luotian","ascii_name":"Luotian","lat":"30.5156","lon":"108.55948","country":"CN","lastUpdated":"2022-08-07","type":{"class":"P","code":"PPLA4"},"region":{"a1":"33","a2":"8739734"},"meta":{"pop":"27669","dem":"715","tz":"Asia/Shanghai"}},{"id":"8403877","name":"Guocun","ascii_name":"Guocun","lat":"30.56618","lon":"108.16933","country":"CN","lastUpdated":"2022-08-07","type":{"class":"P","code":"PPLA4"},"region":{"a1":"33","a2":"8739734"},"meta":{"pop":"21326","dem":"335","tz":"Asia/Shanghai"}},{"id":"8403878","name":"Xinxiang","ascii_name":"Xinxiang","lat":"30.49999","lon":"108.27278","country":"CN","lastUpdated":"2022-08-07","type":{"class":"P","code":"PPLA4"},"region":{"a1":"33","a2":"8739734"},"meta":{"pop":"6683","dem":"218","tz":"Asia/Shanghai"}},{"id":"8403879","name":"Changping","ascii_name":"Changping","lat":"30.44274","lon":"108.24841","country":"CN","lastUpdated":"2022-08-06","type":{"class":"P","code":"PPLA4"},"region":{"a1":"33","a2":"8739734"},"meta":{"pop":"8580","dem":"228","tz":"Asia/Shanghai"}},{"id":"8403880","name":"Rangdu","ascii_name":"Rangdu","lat":"30.59292","lon":"108.30558","country":"CN","lastUpdated":"2022-08-07","type":{"class":"P","code":"PPLA4"},"region":{"a1":"33","a2":"8739734"},"meta":{"pop":"11613","dem":"210","tz":"Asia/Shanghai"}},{"id":"8403881","name":"Longsha","ascii_name":"Longsha","lat":"30.63965","lon":"108.23701","country":"CN","lastUpdated":"2022-08-07","type":{"class":"P","code":"PPLA4"},"region":{"a1":"33","a2":"8739734"},"meta":{"pop":"28127","dem":"543","tz":"Asia/Shanghai"}},{"id":"8403882","name":"Ganning","ascii_name":"Ganning","lat":"30.66911","lon":"108.2805","country":"CN","lastUpdated":"2022-08-07","type":{"class":"P","code":"PPLA4"},"region":{"a1":"33","a2":"8739734"},"meta":{"pop":"30873","dem":"589","tz":"Asia/Shanghai"}},{"id":"8403883","name":"Gaofeng","ascii_name":"Gaofeng","lat":"30.71277","lon":"108.34187","country":"CN","lastUpdated":"2022-08-07","type":{"class":"P","code":"PPLA4"},"region":{"a1":"33","a2":"8739734"},"meta":{"pop":"19550","dem":"417","tz":"Asia/Shanghai"}},{"id":"8404307","name":"Xiaozhou","ascii_name":"Xiaozhou","lat":"30.90951","lon":"108.51264","country":"CN","lastUpdated":"2022-08-07","type":{"class":"P","code":"PPLA4"},"region":{"a1":"33","a2":"8739734"},"meta":{"pop":"9136","dem":"324","tz":"Asia/Shanghai"}},{"id":"8404734","name":"Hezui","ascii_name":"Hezui","lat":"30.51197","lon":"108.3985","country":"CN","lastUpdated":"2022-07-14","type":{"class":"P","code":"PPLA4"},"region":{"a1":"33","a2":"8739734"},"meta":{"pop":"6787","dem":"650","tz":"Asia/Shanghai"}},{"id":"8404735","name":"Linxi","ascii_name":"Linxi","lat":"30.40644","lon":"108.3502","country":"CN","lastUpdated":"2022-07-15","type":{"class":"P","code":"PPLA4"},"region":{"a1":"33","a2":"8739734"},"meta":{"pop":"15869","dem":"661","tz":"Asia/Shanghai"}},{"id":"8404736","name":"Wangjia","ascii_name":"Wangjia","lat":"30.34599","lon":"108.31207","country":"CN","lastUpdated":"2022-07-15","type":{"class":"P","code":"PPLA4"},"region":{"a1":"33","a2":"8739734"},"meta":{"pop":"5503","dem":"699","tz":"Asia/Shanghai"}},{"id":"8404737","name":"Fengmu","ascii_name":"Fengmu","lat":"30.24712","lon":"108.48336","country":"CN","lastUpdated":"2022-07-14","type":{"class":"P","code":"PPLA4"},"region":{"a1":"33","a2":"8739734"},"meta":{"pop":"9614","dem":"1189","tz":"Asia/Shanghai"}},{"id":"8404738","name":"Lengshui","ascii_name":"Lengshui","lat":"30.12988","lon":"108.54631","country":"CN","lastUpdated":"2022-07-15","type":{"class":"P","code":"PPLA4"},"region":{"a1":"33"},"meta":{"pop":"6234","dem":"1418","tz":"Asia/Shanghai"}},{"id":"8404739","name":"Longsha","ascii_name":"Longsha","lat":"30.13471","lon":"108.18394","country":"CN","lastUpdated":"2022-07-15","type":{"class":"P","code":"PPLA4"},"region":{"a1":"33","a2":"8739734"},"meta":{"pop":"9648","dem":"617","tz":"Asia/Shanghai"}},{"id":"8404740","name":"Wanchao","ascii_name":"Wanchao","lat":"30.19235","lon":"108.14706","country":"CN","lastUpdated":"2022-07-15","type":{"class":"P","code":"PPLA4"},"region":{"a1":"33","a2":"8739734"},"meta":{"pop":"11718","dem":"549","tz":"Asia/Shanghai"}},{"id":"8404741","name":"Yuchi","ascii_name":"Yuchi","lat":"30.26577","lon":"108.22354","country":"CN","lastUpdated":"2022-07-15","type":{"class":"P","code":"PPLA4"},"region":{"a1":"33","a2":"8739734"},"meta":{"pop":"10607","dem":"1100","tz":"Asia/Shanghai"}},{"id":"8404742","name":"Yanxi","ascii_name":"Yanxi","lat":"30.29705","lon":"108.12682","country":"CN","lastUpdated":"2022-07-15","type":{"class":"P","code":"PPLA4"},"region":{"a1":"33","a2":"8739734"},"meta":{"pop":"13159","dem":"197","tz":"Asia/Shanghai"}},{"id":"8404743","name":"Wangchang","ascii_name":"Wangchang","lat":"30.32441","lon":"108.18212","country":"CN","lastUpdated":"2022-07-15","type":{"class":"P","code":"PPLA4"},"region":{"a1":"33","a2":"8739734"},"meta":{"pop":"10297","dem":"309","tz":"Asia/Shanghai"}},{"id":"8404746","name":"Lichang","ascii_name":"Lichang","lat":"30.34909","lon":"108.14127","country":"CN","lastUpdated":"2022-07-15","type":{"class":"P","code":"PPLA4"},"region":{"a1":"33","a2":"8739734"},"meta":{"pop":"7943","dem":"347","tz":"Asia/Shanghai"}},{"id":"8404747","name":"Huangshui","ascii_name":"Huangshui","lat":"30.24487","lon":"108.38954","country":"CN","lastUpdated":"2022-07-14","type":{"class":"P","code":"PPLA4"},"region":{"a1":"33","a2":"8739734"},"meta":{"pop":"13563","dem":"1548","tz":"Asia/Shanghai"}},{"id":"8404749","name":"Zhongyi","ascii_name":"Zhongyi","lat":"30.09449","lon":"108.3309","country":"CN","lastUpdated":"2022-07-15","type":{"class":"P","code":"PPLA4"},"region":{"a1":"33","a2":"8739734"},"meta":{"pop":"5434","dem":"852","tz":"Asia/Shanghai"}},{"id":"8404750","name":"Sanyi","ascii_name":"Sanyi","lat":"30.14801","lon":"108.27627","country":"CN","lastUpdated":"2022-07-15","type":{"class":"P","code":"PPLA4"},"region":{"a1":"33","a2":"8739734"},"meta":{"pop":"2974","dem":"1063","tz":"Asia/Shanghai"}},{"id":"8404751","name":"Jinling","ascii_name":"Jinling","lat":"29.99265","lon":"108.4951","country":"CN","lastUpdated":"2022-07-15","type":{"class":"P","code":"PPLA4"},"region":{"a1":"33","a2":"8739734"},"meta":{"pop":"2374","dem":"857","tz":"Asia/Shanghai"}},{"id":"8404765","name":"Xinle","ascii_name":"Xinle","lat":"29.92679","lon":"108.4677","country":"CN","lastUpdated":"2022-07-15","type":{"class":"P","code":"PPLA4"},"region":{"a1":"33","a2":"8739734"},"meta":{"pop":"3256","dem":"1075","tz":"Asia/Shanghai"}},{"id":"8404766","name":"Xixin","ascii_name":"Xixin","lat":"29.9189","lon":"108.39533","country":"CN","lastUpdated":"2022-07-15","type":{"class":"P","code":"PPLA4"},"region":{"a1":"33","a2":"8739734"},"meta":{"pop":"3541","dem":"1192","tz":"Asia/Shanghai"}},{"id":"8404767","name":"Huanghe","ascii_name":"Huanghe","lat":"29.84003","lon":"108.36452","country":"CN","lastUpdated":"2022-07-14","type":{"class":"P","code":"PPLA4"},"region":{"a1":"33"},"meta":{"pop":"3740","dem":"662","tz":"Asia/Shanghai"}},{"id":"8404768","name":"Longtan","ascii_name":"Longtan","lat":"29.83912","lon":"108.26609","country":"CN","lastUpdated":"2022-07-15","type":{"class":"P","code":"PPLA4"},"region":{"a1":"33","a2":"8739734"},"meta":{"pop":"3510","dem":"941","tz":"Asia/Shanghai"}},{"id":"8404769","name":"Sanxing","ascii_name":"Sanxing","lat":"29.89661","lon":"108.10776","country":"CN","lastUpdated":"2022-07-15","type":{"class":"P","code":"PPLA4"},"region":{"a1":"33","a2":"8739734"},"meta":{"pop":"7725","dem":"953","tz":"Asia/Shanghai"}},{"id":"8404770","name":"Xialu","ascii_name":"Xialu","lat":"29.94167","lon":"108.08442","country":"CN","lastUpdated":"2022-07-15","type":{"class":"P","code":"PPLA4"},"region":{"a1":"33","a2":"8739734"},"meta":{"pop":"26300","dem":"526","tz":"Asia/Shanghai"}},{"id":"8404771","name":"Liutang","ascii_name":"Liutang","lat":"29.93244","lon":"108.27733","country":"CN","lastUpdated":"2022-07-15","type":{"class":"P","code":"PPLA4"},"region":{"a1":"33","a2":"8739734"},"meta":{"pop":"8788","dem":"1231","tz":"Asia/Shanghai"}},{"id":"8405691","name":"Caohui","ascii_name":"Caohui","lat":"30.39733","lon":"107.46953","country":"CN","lastUpdated":"2022-04-12","type":{"class":"P","code":"PPLA4"},"region":{"a1":"33","a2":"8739734"},"meta":{"pop":"21028","dem":"391","tz":"Asia/Shanghai"}},{"id":"8405692","name":"Xinmin","ascii_name":"Xinmin","lat":"30.39759","lon":"107.3895","country":"CN","lastUpdated":"2022-04-12","type":{"class":"P","code":"PPLA4"},"region":{"a1":"33","a2":"8739734"},"meta":{"pop":"28033","dem":"402","tz":"Asia/Shanghai"}},{"id":"8405693","name":"Changlong","ascii_name":"Changlong","lat":"30.30618","lon":"107.41296","country":"CN","lastUpdated":"2022-04-12","type":{"class":"P","code":"PPLA4"},"region":{"a1":"33","a2":"8739734"},"meta":{"pop":"16605","dem":"386","tz":"Asia/Shanghai"}},{"id":"8405694","name":"Yong’an","ascii_name":"Yong'an","lat":"30.3531","lon":"107.51289","country":"CN","lastUpdated":"2022-04-12","type":{"class":"P","code":"PPLA4"},"region":{"a1":"33","a2":"8739734"},"meta":{"pop":"26390","dem":"409","tz":"Asia/Shanghai"}},{"id":"8405695","name":"Pushun","ascii_name":"Pushun","lat":"30.47241","lon":"107.60326","country":"CN","lastUpdated":"2022-04-12","type":{"class":"P","code":"PPLA4"},"region":{"a1":"33","a2":"8739734"},"meta":{"pop":"21940","dem":"424","tz":"Asia/Shanghai"}},{"id":"8405696","name":"Gangjia","ascii_name":"Gangjia","lat":"30.22055","lon":"107.50403","country":"CN","lastUpdated":"2022-04-12","type":{"class":"P","code":"PPLA4"},"region":{"a1":"33","a2":"8739734"},"meta":{"pop":"19072","dem":"403","tz":"Asia/Shanghai"}},{"id":"8405697","name":"Dashi","ascii_name":"Dashi","lat":"30.19952","lon":"107.53622","country":"CN","lastUpdated":"2022-04-12","type":{"class":"P","code":"PPLA4"},"region":{"a1":"33","a2":"8739734"},"meta":{"pop":"9434","dem":"504","tz":"Asia/Shanghai"}},{"id":"8405698","name":"Huangsha","ascii_name":"Huangsha","lat":"30.26364","lon":"107.37625","country":"CN","lastUpdated":"2022-04-12","type":{"class":"P","code":"PPLA4"},"region":{"a1":"33","a2":"8739734"},"meta":{"pop":"14091","dem":"479","tz":"Asia/Shanghai"}},{"id":"8405699","name":"Gaofeng","ascii_name":"Gaofeng","lat":"30.21968","lon":"107.40788","country":"CN","lastUpdated":"2022-04-12","type":{"class":"P","code":"PPLA4"},"region":{"a1":"33","a2":"8739734"},"meta":{"pop":"20747","dem":"376","tz":"Asia/Shanghai"}},{"id":"8405700","name":"Peixing","ascii_name":"Peixing","lat":"30.12609","lon":"107.51789","country":"CN","lastUpdated":"2022-04-12","type":{"class":"P","code":"PPLA4"},"region":{"a1":"33","a2":"8739734"},"meta":{"pop":"10593","dem":"392","tz":"Asia/Shanghai"}},{"id":"8405701","name":"Pingshan","ascii_name":"Pingshan","lat":"30.09655","lon":"107.42439","country":"CN","lastUpdated":"2022-04-12","type":{"class":"P","code":"PPLA4"},"region":{"a1":"33","a2":"8739734"},"meta":{"pop":"29409","dem":"460","tz":"Asia/Shanghai"}},{"id":"8405702","name":"Baojia","ascii_name":"Baojia","lat":"30.07673","lon":"107.28371","country":"CN","lastUpdated":"2022-04-12","type":{"class":"P","code":"PPLA4"},"region":{"a1":"33","a2":"8739734"},"meta":{"pop":"13452","dem":"441","tz":"Asia/Shanghai"}},{"id":"8405703","name":"Baijia","ascii_name":"Baijia","lat":"30.01704","lon":"107.32576","country":"CN","lastUpdated":"2022-04-12","type":{"class":"P","code":"PPLA4"},"region":{"a1":"33","a2":"8739734"},"meta":{"pop":"19133","dem":"518","tz":"Asia/Shanghai"}},{"id":"8405704","name":"Sanxi","ascii_name":"Sanxi","lat":"30.06387","lon":"107.45359","country":"CN","lastUpdated":"2022-04-12","type":{"class":"P","code":"PPLA4"},"region":{"a1":"33","a2":"8739734"},"meta":{"pop":"11327","dem":"339","tz":"Asia/Shanghai"}},{"id":"8405708","name":"Shi’an","ascii_name":"Shi'an","lat":"30.59028","lon":"107.97657","country":"CN","lastUpdated":"2022-06-07","type":{"class":"P","code":"PPLA4"},"region":{"a1":"33","a2":"8739734"},"meta":{"pop":"10857","dem":"262","tz":"Asia/Shanghai"}},{"id":"8405709","name":"Baijia","ascii_name":"Baijia","lat":"30.59295","lon":"107.90383","country":"CN","lastUpdated":"2022-06-06","type":{"class":"P","code":"PPLA4"},"region":{"a1":"33","a2":"8739734"},"meta":{"pop":"14163","dem":"612","tz":"Asia/Shanghai"}},{"id":"8405710","name":"Zizhao","ascii_name":"Zizhao","lat":"30.53252","lon":"107.93775","country":"CN","lastUpdated":"2022-06-07","type":{"class":"P","code":"PPLA4"},"region":{"a1":"33","a2":"8739734"},"meta":{"pop":"8791","dem":"649","tz":"Asia/Shanghai"}},{"id":"8405711","name":"Daguan","ascii_name":"Daguan","lat":"30.5547","lon":"107.80603","country":"CN","lastUpdated":"2022-06-06","type":{"class":"P","code":"PPLA4"},"region":{"a1":"33","a2":"8739734"},"meta":{"pop":"10767","dem":"407","tz":"Asia/Shanghai"}},{"id":"8405712","name":"Tiemen","ascii_name":"Tiemen","lat":"30.50249","lon":"107.71074","country":"CN","lastUpdated":"2022-06-07","type":{"class":"P","code":"PPLA4"},"region":{"a1":"33","a2":"8739734"},"meta":{"pop":"5212","dem":"735","tz":"Asia/Shanghai"}},{"id":"8405713","name":"Panlong","ascii_name":"Panlong","lat":"30.63504","lon":"107.8502","country":"CN","lastUpdated":"2022-06-06","type":{"class":"P","code":"PPLA4"},"region":{"a1":"33","a2":"8739734"},"meta":{"pop":"18609","dem":"737","tz":"Asia/Shanghai"}},{"id":"8405715","name":"Yinping","ascii_name":"Yinping","lat":"30.54197","lon":"107.57518","country":"CN","lastUpdated":"2022-06-07","type":{"class":"P","code":"PPLA4"},"region":{"a1":"33","a2":"8739734"},"meta":{"pop":"18574","dem":"440","tz":"Asia/Shanghai"}},{"id":"8405716","name":"Jindai","ascii_name":"Jindai","lat":"30.60177","lon":"107.69789","country":"CN","lastUpdated":"2022-06-06","type":{"class":"P","code":"PPLA4"},"region":{"a1":"33","a2":"8739734"},"meta":{"pop":"11644","dem":"455","tz":"Asia/Shanghai"}},{"id":"8405717","name":"Jukui","ascii_name":"Jukui","lat":"30.63588","lon":"107.59633","country":"CN","lastUpdated":"2022-06-06","type":{"class":"P","code":"PPLA4"},"region":{"a1":"33","a2":"8739734"},"meta":{"pop":"32971","dem":"442","tz":"Asia/Shanghai"}},{"id":"8405720","name":"Qixing","ascii_name":"Qixing","lat":"30.68041","lon":"107.48195","country":"CN","lastUpdated":"2022-06-06","type":{"class":"P","code":"PPLA4"},"region":{"a1":"33","a2":"8739734"},"meta":{"pop":"7804","dem":"474","tz":"Asia/Shanghai"}},{"id":"8405721","name":"Bishan","ascii_name":"Bishan","lat":"30.77075","lon":"107.4571","country":"CN","lastUpdated":"2022-06-06","type":{"class":"P","code":"PPLA4"},"region":{"a1":"33"},"meta":{"pop":"18102","dem":"401","tz":"Asia/Shanghai"}},{"id":"8405722","name":"Huilong","ascii_name":"Huilong","lat":"30.52956","lon":"107.48102","country":"CN","lastUpdated":"2022-06-06","type":{"class":"P","code":"PPLA4"},"region":{"a1":"33","a2":"8739734"},"meta":{"pop":"32070","dem":"416","tz":"Asia/Shanghai"}},{"id":"8405726","name":"Ansheng","ascii_name":"Ansheng","lat":"30.69023","lon":"107.72087","country":"CN","lastUpdated":"2022-06-06","type":{"class":"P","code":"PPLA4"},"region":{"a1":"33","a2":"8739734"},"meta":{"pop":"8675","dem":"453","tz":"Asia/Shanghai"}},{"id":"8405727","name":"Mingda","ascii_name":"Mingda","lat":"30.7263","lon":"107.65726","country":"CN","lastUpdated":"2022-06-06","type":{"class":"P","code":"PPLA4"},"region":{"a1":"33","a2":"8739734"},"meta":{"pop":"22686","dem":"475","tz":"Asia/Shanghai"}},{"id":"8405728","name":"Lirang","ascii_name":"Lirang","lat":"30.68494","lon":"107.63145","country":"CN","lastUpdated":"2022-06-06","type":{"class":"P","code":"PPLA4"},"region":{"a1":"33","a2":"8739734"},"meta":{"pop":"19799","dem":"457","tz":"Asia/Shanghai"}},{"id":"8405729","name":"Zhushan","ascii_name":"Zhushan","lat":"30.71752","lon":"107.57461","country":"CN","lastUpdated":"2022-06-07","type":{"class":"P","code":"PPLA4"},"region":{"a1":"33","a2":"8739734"},"meta":{"pop":"5648","dem":"628","tz":"Asia/Shanghai"}},{"id":"8405730","name":"Longsheng","ascii_name":"Longsheng","lat":"30.77537","lon":"107.55001","country":"CN","lastUpdated":"2022-06-06","type":{"class":"P","code":"PPLA4"},"region":{"a1":"33","a2":"8739734"},"meta":{"pop":"6576","dem":"428","tz":"Asia/Shanghai"}},{"id":"8405731","name":"Hucheng","ascii_name":"Hucheng","lat":"30.81479","lon":"107.5418","country":"CN","lastUpdated":"2022-06-06","type":{"class":"P","code":"PPLA4"},"region":{"a1":"33","a2":"8739734"},"meta":{"pop":"24453","dem":"517","tz":"Asia/Shanghai"}},{"id":"8405732","name":"Xinsheng","ascii_name":"Xinsheng","lat":"30.84367","lon":"107.72413","country":"CN","lastUpdated":"2022-06-07","type":{"class":"P","code":"PPLA4"},"region":{"a1":"33","a2":"8739734"},"meta":{"pop":"27741","dem":"463","tz":"Asia/Shanghai"}},{"id":"8405734","name":"Wenhua","ascii_name":"Wenhua","lat":"30.81436","lon":"107.77436","country":"CN","lastUpdated":"2022-06-07","type":{"class":"P","code":"PPLA4"},"region":{"a1":"33"},"meta":{"pop":"12435","dem":"460","tz":"Asia/Shanghai"}},{"id":"8405735","name":"Fuping","ascii_name":"Fuping","lat":"30.77198","lon":"107.88003","country":"CN","lastUpdated":"2022-06-06","type":{"class":"P","code":"PPLA4"},"region":{"a1":"33","a2":"8739734"},"meta":{"pop":"5577","dem":"355","tz":"Asia/Shanghai"}},{"id":"8405736","name":"Hexing","ascii_name":"Hexing","lat":"30.74485","lon":"107.81977","country":"CN","lastUpdated":"2022-06-06","type":{"class":"P","code":"PPLA4"},"region":{"a1":"33","a2":"8739734"},"meta":{"pop":"17098","dem":"445","tz":"Asia/Shanghai"}},{"id":"8405737","name":"Chengbei","ascii_name":"Chengbei","lat":"30.72105","lon":"107.7847","country":"CN","lastUpdated":"2022-06-07","type":{"class":"P","code":"PPLA4"},"region":{"a1":"33","a2":"8739734"},"meta":{"pop":"14306","dem":"453","tz":"Asia/Shanghai"}},{"id":"8406193","name":"Chongxing","ascii_name":"Chongxing","lat":"29.99545","lon":"107.50942","country":"CN","lastUpdated":"2022-06-05","type":{"class":"P","code":"PPLA4"},"region":{"a1":"33","a2":"8739734"},"meta":{"pop":"13081","dem":"271","tz":"Asia/Shanghai"}},{"id":"8406198","name":"Baohe","ascii_name":"Baohe","lat":"30.06084","lon":"107.70172","country":"CN","lastUpdated":"2022-04-12","type":{"class":"P","code":"PPLA4"},"region":{"a1":"33","a2":"8739734"},"meta":{"pop":"18112","dem":"533","tz":"Asia/Shanghai"}},